location_id;location;category;lat;lon;region
l1;Downs;calls;51.1108;1.2923;british_isles
l3;Narsipur;calls;12.21;76.906;madras_presidency
l6;East India Dock;calls;51.30292;0.0035;british_isles
l28;Anjengo;calls;8.4833;76.9167;madras_presidency
l40;Sao Tiago;calls;15.04;-23.38;atlantic
l42;Khanderi;calls;18.7042;72.8131;bombay_presidency
l43;Colaba;calls;18.91;72.81;bombay_presidency
l47;Reunion;calls;-21.0652;55.3157;indian_ocean
l54;Lintin;calls;22.2446;113.4813;china
l76;Fort St David;calls;11.75;79.75;madras_presidency
l77;Mauritius;calls;-20.2;57.5;indian_ocean
l141;Spithead;calls;50.7514;-1.13667;british_isles
l157;Mokha;calls;13.1913;43.15;indian_ocean
l178;Cagayan Sulu;calls;6.5841;118.3047;southeast_asia
l204;Socotra;calls;12.3036;53.5512;indian_ocean
l210;Bocca Tigris;calls;22.7933;113.5979;china
l220;River Thames;calls;51.4959;0.514031;british_isles
l224;Dungeness;calls;50.55;0.58;british_isles
l235;Kedah;calls;6.0742;100.2146;southeast_asia
l244;Point de Galle;calls;6.0158;80.1256;madras_presidency
l303;Hormuz;calls;27.0403;56.2736;indian_ocean
l348;Martinique;calls;14.39;-61.0054;atlantic
l355;Mahim;calls;19.035;72.84;bombay_presidency
l372;Karrack;calls;29.1528;50.193;indian_ocean
l382;Negrais;calls;16.2;94.12;bengal_presidency
l401;Coninga;calls;16.5758;82.1518;madras_presidency
l408;Kidderpore;calls;22.536323;88.316654;bengal_presidency
l447;Delagoa Bay;calls;-25.59;32.42;indian_ocean
l453;Ryukyu Islands;calls;26.3;127.54;china
l551;Orkneys;calls;59.0;-3.0;british_isles
l598;Resolution Bay;calls;-41.0731;174.1332;indian_ocean
l599;Tahiti;calls;-17.4;-149.25;indian_ocean
l606;Canton river;calls;22.476411;113.750545;china
l979;Great Nanka;calls;-2.25;105.48;southeast_asia
;Anjengo Cape;calls;8.4833;76.9167;madras_presidency
l1198;All Saints' Bay, Brazil;calls;-12.51;-38.38;atlantic
l1268;Krakatoa;calls;-6.0607;105.2523;southeast_asia
l1379;Cape Verde;calls;15.55;-23.55;atlantic
l1397;Port Cornwallis;calls;13.17;93.05;southeast_asia
l1401;Cape Augustine;calls;-8.1723;-35.0148;atlantic
l1408;Norfolk Island;calls;-29.02;167.57;indian_ocean
l1740;Newcastle-on-Tyne;people_birth;54.98;-1.61;british_isles
l1835;Tweedmouth;people_birth;55.761;-2.01;british_isles
l1860;Kilmartin;people_birth;56.133;-5.487;british_isles
l1962;Crathie;people_birth;57.0225;-3.1255;british_isles
l1970;Sorbie;people_birth;54.79;-4.43;british_isles
l2290;Berwick-upon-Tweed;people_birth;55.4609;-2.0009;british_isles
l2577;Fleet St;people_baptised;51.5138;-0.1105;british_isles
l2604;Soho;people_baptised;51.3046;-0.752;british_isles
l2614;Bloomsbury;people_baptised;51.5201;-0.1288;british_isles
l2632;Pembrokeshire;people_baptised;51.5042;-4.5032;british_isles
l586;Leith;calls;55.98;-3.17;british_isles
l947;Ireland;calls;53.2658;-7.3011;british_isles
l1053;Scilly;calls;49.55;-6.2;british_isles
l1101;Bab el Mandeb;calls;12.35;43.2;indian_ocean
l2082;Southwark;people_birth;51.4988;-0.0901;british_isles
l2461;Sotterley;people_birth;52.401;1.61;british_isles
l2484;Rodborough;people_birth;51.744;-2.215;british_isles
l2645;Wapping;people_baptised;51.5073;-0.061;british_isles
l1708;England;people_birth;52.4387;-1.3478;british_isles
l1701;Scotland;people_birth;56.6549;-4.3368;british_isles
l1971;Wales;people_birth;52.3965;-3.7382;british_isles
l1963;Inverness;people_birth;57.4778;-4.2247;british_isles
l8;Calcutta;calls;22.3403;88.2212;bengal_presidency
l2288;Kingston;people_birth;53.444;-0.1957;british_isles
l57;Madeira;calls;32.45;-17.0;atlantic
l1713;Yorkshire;people_birth;54.0;-2.0;british_isles
l4;Madras;calls;13.457;80.163;madras_presidency
l2437;Cathcart;people_birth;55.8195;-4.2679;british_isles
l2293;Midlothian;people_birth;55.5339;-3.0407;british_isles
l2256;Harris;people_birth;57.91;-6.83;british_isles
l2051;Cameron;people_birth;56.2953;-2.8529;british_isles
l1843;Guernsey;people_birth;49.45;-2.58;british_isles
l1785;Dysart;people_birth;56.13;-3.11;british_isles
l1937;Lithgow;people_birth;55.979;-3.6105;british_isles
l1899;St Andrews;people_birth;56.3404;-2.7955;british_isles
l5;St Helena;calls;-15.58;-5.42;atlantic
l2225;Alphington;people_birth;50.42;-3.32;british_isles
l2219;Applecross;people_birth;57.43304;-5.80958;british_isles
l16;Macao;calls;22.1;113.33;china
l2160;Montreal;people_birth;45.3032;-73.3315;atlantic
l87;Bantam;calls;-6.0233;106.0939;southeast_asia
l94;River Shannon;calls;52.35;-9.18;british_isles
l102;Barbados;calls;13.1012;-59.3309;atlantic
l111;West India Dock;calls;51.50347;-0.01722;british_isles
l119;Porto Praya;calls;14.918;-23.509;atlantic
l124;Crookhaven;calls;51.2747;-9.4313;british_isles
l194;Nicobars;calls;7.05;93.48;southeast_asia
l200;Comoros;calls;-12.3;43.7;indian_ocean
l202;Seychelles;calls;-4.35;55.4;indian_ocean
l839;Gambia river;calls;13.28;-16.34;atlantic
l862;Port Dauphin;calls;-25.0157;46.59;indian_ocean
l863;Masirah;calls;20.2816;58.4855;indian_ocean
l873;Lombok;calls;-8.565;116.351;southeast_asia
l910;Tristan de Cunha;calls;-37.7;-12.18;atlantic
l911;St Paul's Island;calls;-38.43;77.31;indian_ocean
l912;Condore;calls;16.4108;80.3445;madras_presidency
l926;Manila Bay;calls;14.31;120.46;southeast_asia
l967;Delagoa;calls;-25.59;32.42;indian_ocean
l976;Tristan da Cunha;calls;-37.7;-12.18;atlantic
l1202;Bay of Bulls, Newfoundland;calls;47.299;-52.781;atlantic
l1213;Nootka Sound;calls;49.41;-126.33;atlantic
l1214;Queen Charlotte's Islands;calls;-11.0;166.15;indian_ocean
l1215;Sandwich Islands;calls;20.54;-156.36;indian_ocean
l1216;Montague Island;calls;-36.15;150.13;indian_ocean
l11;Cape;calls;-34.2129;18.2832;atlantic
l19;Second Bar;calls;22.476411;113.750545;china
l20;Kedgeree;calls;12.8575;87.9115;indian_ocean
l41;Johanna;calls;-12.1254;44.253;indian_ocean
l53;False Bay;calls;-34.1347;18.3843;atlantic
l61;Moheli;calls;-12.15;43.45;indian_ocean
l117;Port Jackson;calls;-33.513;151.14;indian_ocean
l126;Balambangan;calls;7.1549;116.5321;southeast_asia
l130;Fulta;calls;19.1629;84.4843;madras_presidency
l137;Fernando de Noronha;calls;-3.5118;-32.253;atlantic
;Purfleet;calls;51.48;0.25;british_isles
l143;Coringa;calls;16.48;82.14;madras_presidency
l22;Batavia;calls;-6.129;106.8129;southeast_asia
l72;Ascension;calls;-7.56;-14.22;atlantic
l63;Manila;calls;14.3545;120.5838;southeast_asia
l108;Long Reach;calls;51.4415;0.3685;british_isles
l9;Saugor;calls;21.6528;88.0753;bengal_presidency
l182;Banda;calls;-4.35;129.55;southeast_asia
l128;Tenerife;calls;28.1607;-16.362;atlantic
l1131;Coromandel;calls;13.3667;80.3333;madras_presidency
l1486;Java;calls;-7.293;110.0016;southeast_asia
l59;Colombo;calls;6.5604;79.5034;madras_presidency
l133;Persia;calls;27.2532;53.8998;indian_ocean
l515;China;calls;22.449;113.915;china
l51;Deptford;calls;51.478;-0.0265;british_isles
l1363;Brest;calls;48.23;-4.29;british_isles
l290;Onore;calls;14.28;74.4439;bombay_presidency
l323;San Salvador;calls;-12.5829;-38.2836;atlantic
l930;Brazil;calls;-8.4544;-35.0359;atlantic
l324;Bourbon;calls;-21.0652;55.3157;indian_ocean
l83;Moco Moco;calls;-2.5833;101.117;southeast_asia
l84;Acheh;calls;5.3325;95.1934;southeast_asia
l120;Rodrigues;calls;-19.43;63.25;indian_ocean
l268;Newfoundland;calls;48.36;-56.2;atlantic
l270;Siam;calls;12.6414;101.021;southeast_asia
l422;Bristol Channel;calls;51.3777;-4.2291;british_isles
l452;Tidore;calls;0.41;127.24;southeast_asia
l480;Quedah;calls;6.0742;100.2146;southeast_asia
l501;Kambelu;calls;-3.08;129.3;southeast_asia
l511;Pulo Run;calls;-4.332587;129.4163;southeast_asia
l523;Annabon;calls;-1.2606;5.3815;atlantic
l525;Galway Bay;calls;53.1619;-9.0256;british_isles
l550;Ratcliffe;calls;51.512054;-0.038946;british_isles
l2;Bengal;calls;21.3623;88.0932;bengal_presidency
l55;Torbay;calls;50.278;-3.3325;british_isles
l345;Achen;calls;5.3325;95.1934;southeast_asia
;maldives;calls;4.18;73.51;indian_ocean
l103;St Augustine's Bay;calls;-23.3015;43.41;indian_ocean
l449;Red Sea;calls;20.4;38.3;indian_ocean
l459;Persian Gulf;calls;26.7;52.0;indian_ocean
l500;Ceram;calls;-3.08;129.3;southeast_asia
l526;Simon's Bay;calls;-34.1806;18.4326;atlantic
l859;Table Bay;calls;-33.51;18.27;atlantic
l1025;Pulau Run;calls;-4.332587;129.4163;southeast_asia
l123;Madagascar;calls;-18.8707;46.4362;indian_ocean
l134;Guinea;calls;10.0401;-14.0779;atlantic
l135;Lizard;calls;49.9588;-5.2076;british_isles
l1920;Wexford;persons_birth;52.3278;-6.4949;british_isles
l44;Goa;calls;15.5;73.83;bombay_presidency
l603;Bonavista;calls;16.6;-22.48;atlantic
l848;Sydney;calls;-33.5204;151.12236;indian_ocean
l1211;Isle of Wight;calls;50.4;-1.16;british_isles
l667;Eddystone;calls;50.108;-4.159;british_isles
l397;Bahia;calls;-12.977;-38.5004;atlantic
l237;Stokes Bay;calls;50.779;-1.164;british_isles
l723;Dhufar;calls;17.011;54.0523;indian_ocean
l733;Taiwan;calls;25.04;121.31;china
l1729;France;persons_birth;47.0;2.0;atlantic
l1809;Leadhills;persons_birth;55.4162;-3.7629;british_isles
l1827;Isle of Skye;persons_birth;57.307;-6.23;british_isles
l1922;Binnington;persons_birth;54.1981;-0.4459;british_isles
l1987;Sicily;persons_birth;37.3;14.0;atlantic
l2009;Selborne;persons_birth;51.097;0.942;british_isles
l2034;Sweden;persons_birth;63.0;16.0;atlantic
l2067;Isle of Man;persons_birth;54.1406;-4.313;british_isles
l2075;Canongate;persons_birth;55.951;-3.1799;british_isles
l2108;Westdown;persons_birth;50.6121;-4.7443;british_isles
l2344;Witton-le-Wear;persons_birth;54.6767;-1.773;british_isles
l2394;Packington;persons_birth;52.728;-1.466;british_isles
l2401;Fifeshire;persons_birth;56.15;-3.12;british_isles
l2433;Hedon-in-Holderness;persons_birth;53.7395;-0.1948;british_isles
l2436;Dailly;persons_birth;55.276;-4.724;british_isles
l2439;Pakefield;persons_birth;52.451;1.728;british_isles
l2590;Berwick-on-Tweed;persons_baptised;55.461;-2.0009;british_isles
l2594;Berwickshire;persons_baptised;55.45;-2.3;british_isles
l2653;East Lothian;persons_baptised;55.55;-2.45;british_isles
l2654;Wigtown;persons_baptised;54.87;-4.439;british_isles
l935;Hobart;calls;-42.525;147.193;indian_ocean
l183;Gogha;calls;21.68;72.28;bombay_presidency
l173;Hugli;calls;21.9746;88.1305;bengal_presidency
l478;Trinidade;calls;-20.313;-29.193;atlantic
l836;Maldives;calls;4.18;73.51;indian_ocean
l1208;Iceland;calls;64.1238;-21.9553;atlantic
l1241;East India Docks;calls;51.30292;0.00035;british_isles
l945;Scillies;calls;49.9261;-6.2999;british_isles
l946;Sierra Leone;calls;8.4625;-13.2401;atlantic
l301;Texel;calls;53.3;4.48;atlantic
l305;Mozambique Channel;calls;-16.0782;42.5175;indian_ocean
l858;Aceh;calls;5.3325;95.1934;southeast_asia
l7;Hugh;calls;;;nan
l10;Blackwa;calls;;;nan
l12;Bombay;calls;19.07283;72.88261;bombay_presidency
l13;Singapore;calls;1.28967;103.85007;southeast_asia
l14;Whampoa;calls;23.11037;113.4418;china
l15;Malacca;calls;2.196;102.2405;southeast_asia
l17;Kowloon;calls;22.31667;114.18333;china
l18;Portsmouth;calls;50.79899;-1.09125;british_isles
l21;Falmouth;calls;50.15441;-5.07113;british_isles
l23;Tiku;calls;-0.3958;99.92307;southeast_asia
l24;voyages to Sumatra 1624, Lagundy 1625, Coromandel;calls;;;nan
l25;27, Sumatra &;calls;;;nan
l26;laid up 1631, rotte;calls;;;nan
l27;Sandy Bay' Guinea;calls;;;nan
l29;Calicut;calls;11.24802;75.7804;madras_presidency
l30;Tellicherry;calls;11.74811;75.4929;madras_presidency
l31;Karwar;calls;14.81361;74.12972;bombay_presidency
l32;Mangalore;calls;12.91723;74.85603;madras_presidency
l33;Surat;calls;21.19594;72.83023;bombay_presidency
l34;voyage ended;calls;;;nan
l35;Balasore;calls;21.49266;86.93348;bengal_presidency
l36;Rogues River;calls;;;nan
l37;Benkulen;calls;-3.80044;102.26554;southeast_asia
l38;Silebar;calls;;;nan
l39;Nor;calls;;;nan
l45;Vijayadura;calls;;;nan
l46;Cochin;calls;9.93988;76.26022;madras_presidency
l48;Nore;calls;45.24159;7.56983;atlantic
l49;expedition against Angria;calls;;;nan
l50;wreckedthe Cape;calls;;;nan
l52;captured by the French near Mauritius;calls;;;nan
l56;returned to St Helena;calls;;;nan
l58;Diamond Harbour;calls;22.19101;88.19047;bengal_presidency
l60;lost on Goodwin SandsSouth Foreland Ja;calls;;;nan
l62;Cavite;calls;15.67785;120.76978;southeast_asia
l64;Pangasinan;calls;;;nan
l65;Sulu;calls;6.05222;121.00222;southeast_asia
l66;Da;calls;;;nan
l67;ang;calls;;;nan
l68;Rio de Janeiro;calls;-22.90642;-43.18223;atlantic
l69;Tellicheny;calls;;;nan
l70;Gravesend;calls;51.44206;0.37106;british_isles
l71;Ingeli;calls;;;nan
l73;Belem;calls;19.63334;-98.79664;atlantic
l74;Scarborough;calls;54.27966;-0.40443;british_isles
l75;Erith;calls;51.48315;0.17484;british_isles
l78;Vizagapatam;calls;17.68009;83.20161;madras_presidency
l79;Culpee;calls;;;nan
l80;Bandar Abbas;calls;27.1865;56.2808;indian_ocean
l81;towards England;calls;;;nan
l82;Limehous;calls;;;nan
l85;Plymouth;calls;50.37153;-4.14305;british_isles
l86;;calls;;;nan
l88;Pattani;calls;6.86814;101.25009;southeast_asia
l89;Hirado;calls;33.36853;129.55247;china
l90;abandonedMasulipatam;calls;;;nan
l91;Masulipatam;calls;16.18747;81.13888;madras_presidency
l92;Pring;calls;;;nan
l93;Rat Island;calls;;;nan
l95;Trincomalee;calls;8.5778;81.2289;madras_presidency
l96;below Second Bar;calls;;;nan
l97;Woolwich;calls;51.491;0.0648;british_isles
l98;Quilon;calls;8.88113;76.58469;madras_presidency
l99;Ganjam;calls;19.38705;85.05079;bengal_presidency
l100;Woolwich ff.6;calls;;;nan
l101;sailing directions for the convoy leaving England;calls;;;nan
l104;captured by the FrenchScilly;calls;;;nan
l105;wrecked Polperro, Cornwa;calls;;;nan
l106;Blackwall;calls;51.50971;-0.0016;british_isles
l107;Penang;calls;5.41123;100.33543;southeast_asia
l109;City Canal;calls;;;nan
l110;Day Downs;calls;;;nan
l112;From England;calls;;;nan
l113;Cape Coast Castle;calls;5.10535;-1.2466;atlantic
l114;Accra;calls;5.55602;-0.1969;atlantic
l115;Ouidah;calls;6.36307;2.08506;atlantic
l116;captured by the French 9/10;calls;;;nan
l118;Funchal;calls;32.66568;-16.92547;atlantic
l121;Allas;calls;;;nan
l122;Saloomah;calls;;;nan
l125;Amboina;calls;-3.69583;128.18333;southeast_asia
l127;North;calls;40.84856;-111.90688;atlantic
l129;Lisbon;calls;38.71667;-9.13333;atlantic
l131;Cork;calls;51.89797;-8.47061;british_isles
l132;Cadiz;calls;36.52672;-6.2891;atlantic
l136;wrecked north of Goa, in 'the Mallwan's country', survivors imprisoned;calls;;;nan
l138;Pur;calls;;;nan
l139;from Bengal;calls;;;nan
l140;Faro;calls;37.01869;-7.92716;atlantic
l142;not heard of after leaving Bengal about the end of;calls;;;nan
l144;Yarmouth;calls;50.70529;-1.49929;british_isles
l145;Quebec;calls;46.81228;-71.21454;atlantic
l146;moorings;calls;;;nan
l147;Halifax;calls;53.71667;-1.85;british_isles
l148;went on shoreBerck nr Boulogne, abandoned;calls;;;nan
l149;From Bantam;calls;;;nan
l150;Delagoa river;calls;;;nan
l151;wreckedMadagascar;calls;;;nan
l152;crew reached Johanna in sloop and longboat;calls;;;nan
l153;met pirates and men deserted to them;calls;;;nan
l154;left Johanna in sloop;calls;;;nan
l155;reached Indian coast nr Vingula;calls;;;nan
l156;captured and plundered by Shivaji's forces;calls;;;nan
l158;Surat 1619, carried Sir Thomas Roe home;calls;;;nan
l159;Voyage lost, ship 'cast away' between London and Gravesend;calls;;;nan
l160;buoyed up and towed to North;calls;;;nan
l161;joined Angl;calls;;;nan
l162;Dutch Fleet of DefenceGoa;calls;;;nan
l163;sent for Mozambique Channel;calls;;;nan
l164;Malabar;calls;-33.96216;151.24796;indian_ocean
l165;Dabhol;calls;17.58971;73.18001;bombay_presidency
l166;Jambi;calls;-1.6;103.61667;southeast_asia
l167;broken up, rotte;calls;;;nan
l168;captured by FrenchBombay;calls;;;nan
l169;Bengal river;calls;;;nan
l170;Kinsale;calls;51.7075;-8.53056;british_isles
l171;captured by the Dutch;calls;;;nan
l172;Bedthar;calls;;;nan
l174;Cox's Island;calls;;;nan
l175;off Cape San Diego, Argentina;calls;;;nan
l176;off Cape Horn;calls;;;nan
l177;in Sulu Sea;calls;;;nan
l179;wrecked Pelew Islands;calls;;;nan
l180;built a boat, sailed;calls;;;nan
l181;Macao Seevftt account of the Pelew Islands ... George Keate;calls;;;nan
l184;Linton;calls;51.92529;-2.49669;british_isles
l185;L/MAR/B/515B Journal;calls;;;nan
l186;Alexander Stirling, Chief Mate Falmouth;calls;;;nan
l187;off Lintin;calls;;;nan
l188;Lower Hop;calls;;;nan
l189;ransport;calls;;;nan
l190;see Asiatic Journal  pp.32;calls;;;nan
l191;Toibay;calls;;;nan
l192;Canaries;calls;13.90224;-61.06459;atlantic
l193;Madagascar htor;calls;;;nan
l195;at capture of San Antonio carrack in Straits of Malacca;calls;;;nan
l196;sent for England;calls;;;nan
l197;arrived;calls;;;nan
l198;Maio;calls;15.13823;-23.21158;atlantic
l199;Bandas;calls;;;nan
l201;Pemba;calls;-12.97395;40.51775;indian_ocean
l203;Aden;calls;12.77944;45.03667;indian_ocean
l205;reached Indian coast nr Mahuwa, Kathiawar;calls;;;nan
l206;sailed for Surat;calls;;;nan
l207;lost on Malacca Banks;calls;;;nan
l208;crew reached Sura;calls;;;nan
l209;Capt Elias Clapp;calls;;;nan
l211;Madras Kedgeree;calls;;;nan
l212;Qishm;calls;26.9492;56.2691;indian_ocean
l213;Padang;calls;-0.94924;100.35427;southeast_asia
l214;off St Helena took part in capture of seven Dutch ships;calls;;;nan
l215;Simons Bay;calls;;;nan
l216;Mahe;calls;11.70172;75.53474;madras_presidency
l217;Samkoke' Island;calls;;;nan
l218;lost 'in the Bengal river;calls;;;nan
l219;New Anchorage;calls;;;nan
l221;Hong Kong;calls;22.27832;114.17469;china
l222;Jim Johanna;calls;;;nan
l223;Santa Cruz;calls;15.30815;120.85318;southeast_asia
l225;Diamond Harbour Saugor;calls;;;nan
l226;Waterford;calls;52.25833;-7.11194;british_isles
l227;Sydney Cove;calls;;;nan
l228;Wliampoa;calls;;;nan
l229;Left England;calls;;;nan
l230;sent for Jambi;calls;;;nan
l231;made voyages to Jambi, the Bandas and Macassar;calls;;;nan
l232;captured by the Dutch and taken to Japan;calls;;;nan
l233;eventually handed back, but abandoned in;calls;;;nan
l234;Downs captured French ship Baronette;calls;;;nan
l236;off Point de Galle;calls;;;nan
l238;Arp Cape;calls;;;nan
l239;Bantal;calls;;;nan
l240;left Bengal;calls;;;nan
l241;sent for Taiwan &;calls;;;nan
l242;lostsea during second attemp;calls;;;nan
l243;sailed for England;calls;;;nan
l245;off North Island;calls;;;nan
l246;Capt William Baker;calls;;;nan
l247;Down;calls;;;nan
l248;off Persian coast;calls;;;nan
l249;Marga;calls;45.5;22.51667;indian_ocean
l250;Mozambique;calls;-15.03466;40.73447;indian_ocean
l251;lost going into Bombay;calls;;;nan
l252;Moorings;calls;;;nan
l253;Galway;calls;53.27245;-9.05095;british_isles
l254;Borneo;calls;;;nan
l255;Blackwall * passenger list in journal includes prisoners of war;calls;;;nan
l256;Ceylon;calls;;;nan
l257;Long Reach skirmish with an American ship;calls;;;nan
l258;attacked by piratesSao Tiago;calls;;;nan
l259;seized by nativesMassalege, Madagascar;calls;;;nan
l260;captured there by the Dutch Oc;calls;;;nan
l261;v Downs;calls;;;nan
l262;home via Newfoundland Banks;calls;;;nan
l263;Prince's Island;calls;;;nan
l264;remained in East Indies;calls;;;nan
l265;captured by the French;calls;;;nan
l266;recovered;calls;;;nan
l267;Jeddah;calls;21.49012;39.18624;indian_ocean
l269;Jask;calls;25.64533;57.77552;indian_ocean
l271;feared lost;calls;;;nan
l272;Long Reach capturedthe French coast;calls;;;nan
l273;Barrabulla;calls;;;nan
l274;Fernando Nova Pina;calls;;;nan
l275;Long Reach carried the body of Sir Eyre Coote back to England;calls;;;nan
l276;Reach;calls;43.91064;-69.8206;atlantic
l277;Pondicherry;calls;11.93381;79.82979;madras_presidency
l278;Madras^;calls;;;nan
l279;Cannanore;calls;11.86752;75.35763;madras_presidency
l280;cruising between Cannanore and Mangalore;calls;;;nan
l281;disappeared after parting companyMauritius;calls;;;nan
l282;burntPoint de Ga;calls;;;nan
l283;Capt John Goldsborough;calls;;;nan
l284;Tellicheny Calicut;calls;;;nan
l285;Ruttera;calls;;;nan
l286;Brinjoan;calls;;;nan
l287;voyage ended Portsmouth;calls;;;nan
l288;home mid;calls;;;nan
l289;offered for sale to Royal Africa Company;calls;;;nan
l291;SSo Tiago;calls;;;nan
l292;Negapatam;calls;10.76377;79.84313;madras_presidency
l293;Pulicat;calls;;;nan
l294;Indrapura;calls;;;nan
l295;Muscat;calls;23.58413;58.40778;indian_ocean
l296;from Bombay;calls;;;nan
l297;captured by the French 1694, sank going into Bres;calls;;;nan
l298;Tranquebar;calls;11.02764;79.85425;madras_presidency
l299;Narsapore;calls;;;nan
l300;captured by the FrenchGanjam;calls;;;nan
l302;blown upBasra;calls;;;nan
l304;Sumatra;calls;;;nan
l306;leftGoa in 1639, broken up in;calls;;;nan
l307;returned to China for repairs;calls;;;nan
l308;Whampoa Second Bar;calls;;;nan
l309;L/MAR/B/414A Journal;calls;;;nan
l310;1795, anon Penang;calls;;;nan
l311;attacked by pirates after leaving Mokha;calls;;;nan
l312;blown up by accident while engaging Sivaji pirates Oc;calls;;;nan
l313;Diego Garcia Bay;calls;;;nan
l314;cruising Coromandel coast;calls;;;nan
l315;left China;calls;;;nan
l316;took part in battle of Pulau Aor;calls;;;nan
l317;Capt James Birkdell Downs;calls;;;nan
l318;Assada;calls;;;nan
l319;* carried planters to form colonyAssada;calls;;;nan
l320;Benjarmassin;calls;;;nan
l321;Banjarmassin;calls;;;nan
l322;off St Helena, unable to call because of French ships;calls;;;nan
l325;Portland;calls;50.56748;-2.44472;british_isles
l326;towards England', engagement with a French ship;calls;;;nan
l327;New South Wales;calls;;;nan
l328;Benguela;calls;-12.57626;13.40547;atlantic
l329;Car Nicobar;calls;;;nan
l330;Princes Island;calls;;;nan
l331;Bencoolen;calls;;;nan
l332;Pulau Pisang;calls;;;nan
l333;Manna;calls;-4.4651;102.90386;southeast_asia
l334;Nagore;calls;;;nan
l335;Jim Madras;calls;;;nan
l336;dismissed in hurricane;calls;;;nan
l337;condemnedCalcuttta;calls;;;nan
l338;lostJohanna;calls;;;nan
l339;Ipoh;calls;4.5841;101.0829;southeast_asia
l340;Laye;calls;12.53118;-1.77684;atlantic
l341;Bertoonan;calls;;;nan
l342;Madras, forced out by a French ship;calls;;;nan
l343;lost 'off the Brazils;calls;;;nan
l344;Diamond Point;calls;;;nan
l346;Downs *;calls;;;nan
l347;captured French ship Le Vengeur;calls;;;nan
l349;St Lucia;calls;-28.37622;32.41181;indian_ocean
l350;St Pierre;calls;46.77914;-56.1773;atlantic
l351;coastal cruise;calls;;;nan
l352;lost on the Goodwin Sandsthe South Foreland;calls;;;nan
l353;Capt Thomas Gilbert;calls;;;nan
l354;Kamree Roads;calls;;;nan
l356;captured by the FrenchPoint de Galle, ran ashore in Simons Bay, Cape,;calls;;;nan
l357;Cowes;calls;50.76252;-1.29781;british_isles
l358;Torbar;calls;;;nan
l359;Capt Richard Glasspoole Downs;calls;;;nan
l360;Too;calls;;;nan
l361;koo;calls;;;nan
l362;Sing;calls;14.88786;100.40464;southeast_asia
l363;moon;calls;58.60194;23.24694;indian_ocean
l364;served in Angl;calls;;;nan
l365;Dutch Fleet of Defence basedHirado;calls;;;nan
l366;at Lagundy in;calls;;;nan
l367;laid up in;calls;;;nan
l368;Porta Nova;calls;;;nan
l369;Lower Hope;calls;;;nan
l370;wreckedCadargos, Carajos Reefs nr Mauritius,;calls;;;nan
l371;captain, surgeon's mate and crew drowned;calls;;;nan
l373;Basra;calls;30.50852;47.7804;indian_ocean
l374;Fernando Loronho;calls;;;nan
l375;captured by French Oct, recovered;calls;;;nan
l376;Carrick Road;calls;;;nan
l377;Capt Jonathan Andrews;calls;;;nan
l378;Milford Have;calls;;;nan
l379;Tilbury;calls;51.46248;0.35856;british_isles
l380;Bentoonan;calls;;;nan
l381;Scindy;calls;;;nan
l383;parted companyMauritius 1809, not heard of aga;calls;;;nan
l384;Greenhith;calls;;;nan
l385;First Bar;calls;;;nan
l386;St Helena Long Reach;calls;;;nan
l387;Left China;calls;;;nan
l388;Kedger;calls;;;nan
l389;Timor;calls;;;nan
l390;Amoy;calls;24.47979;118.08187;china
l391;captured by French in Straits of Malacca;calls;;;nan
l392;Carrig Roads;calls;;;nan
l393;Cap;calls;;;nan
l394;JulBalasor;calls;;;nan
l395;Semarang;calls;-6.99306;110.42083;southeast_asia
l396;Tom Borneo;calls;;;nan
l398;Malwa;calls;;;nan
l399;Second bar;calls;;;nan
l400;Finish Roads, Ireland;calls;;;nan
l402;Lantau;calls;;;nan
l403;Lampagao;calls;;;nan
l404;captured by piratesJohanna;calls;;;nan
l405;Dow;calls;;;nan
l406;MadrasBengal;calls;;;nan
l407;Upper Hop;calls;;;nan
l409;Port Louis;calls;-20.16194;57.49889;indian_ocean
l410;Ramsga;calls;;;nan
l411;Pulo Condore;calls;8.68641;106.60824;southeast_asia
l412;L/MAR/B/115C Journal;calls;;;nan
l413;1717, Francis Gostlin, Fourth Mate Lizard;calls;;;nan
l414;wrecked in Straits of Sunda;calls;;;nan
l415;crew reached Benkulen on Rochester;calls;;;nan
l416;Long Reach * fleet captured Le Franc, crew of Ceres took possessio;calls;;;nan
l417;Sidney Cove;calls;;;nan
l418;captured by the French, retakenMauritius;calls;;;nan
l419;Cochin Calicut;calls;;;nan
l420;lostthe Cap;calls;;;nan
l421;Cuddalore;calls;11.75617;79.76693;madras_presidency
l423;Palembang;calls;-2.91673;104.7458;southeast_asia
l424;Surat, accidentally destroyed by fire;calls;;;nan
l425;Apr/May Maldives;calls;;;nan
l426;Tuticorin;calls;8.76735;78.13425;madras_presidency
l427;not heard of aga;calls;;;nan
l428;occupied Hippin's Island in Straits of Sunda;calls;;;nan
l429;withdrew Hippin's Island settlement;calls;;;nan
l430;Bombay, negotiations with Keigwin, r;calls;;;nan
l431;ccupied Bombay;calls;;;nan
l432;Chuenpi;calls;;;nan
l433;Narispore;calls;;;nan
l434;Narsipore;calls;;;nan
l435;captured by the French in 6Â° 30'N, 90Â° 30'E;calls;;;nan
l436;Augustine's Bay;calls;;;nan
l437;to remain India;calls;;;nan
l438;Jangarall Creek, Calcutta;calls;;;nan
l439;Macao islands;calls;;;nan
l440;Capt Francis Hosier;calls;;;nan
l441;Bantam, laid up in;calls;;;nan
l442;Quilton;calls;;;nan
l443;Jakarta;calls;-6.21462;106.84513;southeast_asia
l444;sent for Japara, Macassar and the Moluccas;calls;;;nan
l445;in the Goa fleet;calls;;;nan
l446;castat sea and sank;calls;;;nan
l448;Scindy Road;calls;;;nan
l450;Bachian;calls;;;nan
l451;Makian;calls;;;nan
l454;Cocos Keeling Islands;calls;;;nan
l455;Petapoli;calls;;;nan
l456;laid up in 1623, rotte;calls;;;nan
l457;St Paul;calls;;;nan
l458;Iambi;calls;;;nan
l460;Mew Bay;calls;;;nan
l461;wrecked Aug, struck a rock entering False Bay;calls;;;nan
l462;returned to Calcutta;calls;;;nan
l463;captured north of Madeira Jul, recovered;calls;;;nan
l464;at Masulipatam;calls;;;nan
l465;captured and burnt in Malabars;calls;;;nan
l466;Rangoon;calls;16.80528;96.15611;southeast_asia
l467;Jiddah;calls;21.49012;39.18624;indian_ocean
l468;burntBenkulen;calls;;;nan
l469;sent for Macasser, Amboina and Bandas;calls;;;nan
l470;backBantam;calls;;;nan
l471;sent for Celebes and Bandas;calls;;;nan
l472;withdrew in face of Dutch opposition;calls;;;nan
l473;scuttledBatavia;calls;;;nan
l474;St Laurence;calls;;;nan
l475;Moluccas;calls;;;nan
l476;Buton;calls;-5.4633;122.6024;southeast_asia
l477;Dartmouth;calls;50.3522;-3.5794;british_isles
l479;Tumala Punta;calls;;;nan
l481;Capshee Bay;calls;;;nan
l482;Catherine and Planter lost company;calls;;;nan
l483;Planter rejoined;calls;;;nan
l484;Discovery sent back to England, Anne sent for India alone;calls;;;nan
l485;Goa, joined there by Catherine and Anne, left;calls;;;nan
l486;Planter sent back to England;calls;;;nan
l487;Anunghol;calls;;;nan
l488;captured Chinese fort;calls;;;nan
l489;Tiger Island;calls;;;nan
l490;fought Chinese junks;calls;;;nan
l491;Macao, Anne sold there, CatherineDec, Dragon and Sun;calls;;;nan
l492;Gibraltar;calls;36.14474;-5.35257;atlantic
l493;lost on voyage to Taiwan;calls;;;nan
l494;captured by French in 50Â° 21'N. 17Â°W;calls;;;nan
l495;Long Reach * engagement with three French ships;calls;;;nan
l496;Bearhaven;calls;;;nan
l497;Deal;calls;51.22316;1.4028;british_isles
l498;free ship to trade in the country;calls;;;nan
l499;blockaded Mokha until;calls;;;nan
l502;Macassar;calls;-5.14861;119.43194;southeast_asia
l503;Sukadana;calls;-5.06446;105.54869;southeast_asia
l504;Pattani, laid up ther;calls;;;nan
l505;Thames;calls;-37.13832;175.54011;indian_ocean
l506;expedition agst Angria pirates;calls;;;nan
l507;lost north of Sadras;calls;;;nan
l508;Capt Marmaduke Rawdon;calls;;;nan
l509;Howrah;calls;-42.88728;147.40554;indian_ocean
l510;lost in the Hugli;calls;;;nan
l512;seized by Dutch;calls;;;nan
l513;in reported laid up as a wreck in the Bandas;calls;;;nan
l514;left Madras;calls;;;nan
l516;Taverapatam;calls;;;nan
l517;left Benkulen;calls;;;nan
l518;Fulla;calls;;;nan
l519;Tambomeo;calls;;;nan
l520;burntBenkulen to prevent her capture by the French;calls;;;nan
l521;Whampoa St Helena;calls;;;nan
l522;off Ascension;calls;;;nan
l524;Diamond Creek;calls;-37.66667;145.15;indian_ocean
l527;Pipli;calls;;;nan
l528;the Gor;calls;;;nan
l529;Westcott Bay;calls;;;nan
l530;captured by Angria;calls;;;nan
l531;remained in India;calls;;;nan
l532;Tellicherry Bombay;calls;;;nan
l533;Portsmouth Ar;calls;;;nan
l534;Bombay Goa;calls;;;nan
l535;wrecked in Saugor Roads;calls;;;nan
l536;Dutch Fleet of DefenceMalabar 1622/3;calls;;;nan
l537;at Lagundy Mar/Apr;calls;;;nan
l538;laid up as a careening hulk early;calls;;;nan
l539;Capt Thomas Woodcock Downs;calls;;;nan
l540;Left Bengal;calls;;;nan
l541;Limerick;calls;52.66472;-8.62306;british_isles
l542;Ramsey, Pembrokeshire;calls;;;nan
l543;Milford Haven;calls;51.71278;-5.0341;british_isles
l544;Morardava;calls;;;nan
l545;Massaleige;calls;;;nan
l546;Prawdar;calls;;;nan
l547;Boyne Harbour;calls;;;nan
l548;Tuloa;calls;;;nan
l549;Benkule;calls;;;nan
l552;off Greenland;calls;;;nan
l553;Warwick's Foreland;calls;;;nan
l554;penetrated Hudson's Strait, driven out and south;calls;;;nan
l555;voyage abandoned;calls;;;nan
l556;off Scilly;calls;;;nan
l557;back in England by;calls;;;nan
l558;sacked Bombay;calls;;;nan
l559;Surat Cape;calls;;;nan
l560;Mozamibique Channel;calls;;;nan
l561;lost on homeward voyag;calls;;;nan
l562;Left Bantam;calls;;;nan
l563;cruising;calls;;;nan
l564;The wreck was located and 'salvaged' in 1977/8;calls;;;nan
l565;Clive's lost treasure, Geoffrey & David Allen;calls;;;nan
l566;Rajapur;calls;16.65679;73.51701;bombay_presidency
l567;Sura;calls;53.88786;45.74192;indian_ocean
l568;voyage ended * attacked by pirate in Straits of Malacca;calls;;;nan
l569;Long Reach * assisted in capture of French ship;calls;;;nan
l570;Macasser;calls;;;nan
l571;voyages to Jambi and Masulipatam;calls;;;nan
l572;Diu;calls;20.71405;70.98224;bombay_presidency
l573;permission to garrison Macao refuseed;calls;;;nan
l574;Sambroke;calls;;;nan
l575;Long Reach * recaptured ^4Rainier from French;calls;;;nan
l576;Temate;calls;;;nan
l577;met Hector in Straits of Sunda and returned;calls;;;nan
l578;voyage ended Ju;calls;;;nan
l579;Swally;calls;;;nan
l580;captured by DutchTiku;calls;;;nan
l581;detained by Dutch;calls;;;nan
l582;subsequently los;calls;;;nan
l583;soldMadras;calls;;;nan
l584;Banjarmassin Tambomeo;calls;;;nan
l585;Madura;calls;9.919;78.11953;madras_presidency
l587;Morandava;calls;;;nan
l588;Morungary river;calls;;;nan
l589;Moco Moco Benkulen;calls;;;nan
l590;M Malacca;calls;;;nan
l591;Downs * insert A short formula for longitude, having the linear tables etc Samuel Dunn;calls;;;nan
l592;Point de Gale;calls;;;nan
l593;Bali Straits;calls;;;nan
l594;Gorec, Holland;calls;;;nan
l595;Jim New Anchorage;calls;;;nan
l596;Matavai;calls;-14.03208;-171.64768;indian_ocean
l597;Tonga;calls;4.96667;10.7;atlantic
l600;Pisang;calls;;;nan
l601;lost on Long Sand in the river Hugli 25/26 Ju;calls;;;nan
l602;burnt in Madras Roads;calls;;;nan
l604;Portsmouth Long Reach;calls;;;nan
l605;cape;calls;;;nan
l607;Ar Mokha;calls;;;nan
l608;lost in Ayoffe Bay, Cape Verde,;calls;;;nan
l609;Bombay Surat;calls;;;nan
l610;Ju;calls;;;nan
l611;burntCeylon;calls;;;nan
l612;Pulo Bay;calls;;;nan
l613;Capt Torbay;calls;;;nan
l614;Downs Penang;calls;;;nan
l615;Urmston's Bay;calls;;;nan
l616;Chaul;calls;;;nan
l617;Enth;calls;;;nan
l618;driven on shore by a hurricane;calls;;;nan
l619;condemnedCalcutta Ju;calls;;;nan
l620;Bantry Bay;calls;;;nan
l621;Galloway;calls;;;nan
l622;Second Bar â–  St Helena;calls;;;nan
l623;Lone Reach WreckedPlymouth;calls;;;nan
l624;in action against Portuguese;calls;;;nan
l625;voyages between Surat and Java in 1627, and;calls;;;nan
l626;laid upBantam;calls;;;nan
l627;Downs _ , i _.;calls;;;nan
l628;Borneo river;calls;;;nan
l629;Londonderry;calls;43.22646;-72.80649;atlantic
l630;burnt before;calls;;;nan
l631;Broken Ground' Bengal;calls;;;nan
l632;Kedgeree â–  Saugor;calls;;;nan
l633;burnt in the river Hugh;calls;;;nan
l634;lost in the river Hugh;calls;;;nan
l635;lost on the Shambles;calls;;;nan
l636;Ingeh;calls;;;nan
l637;Portsmouth as transport with HMS Salisbury and Seahorse under Commodore Sir Edward Hughes;calls;;;nan
l638;lost in Madras Roads;calls;;;nan
l639;lost on the Camicobar Jim;calls;;;nan
l640;Moco;calls;;;nan
l641;Shannon;calls;52.70389;-8.86417;british_isles
l642;Onroot;calls;;;nan
l643;Pulau Pisang Cape;calls;;;nan
l644;All Saints' Bay;calls;;;nan
l645;Downs * witnessed burning of Duke of Kingston, received survivors;calls;;;nan
l646;SWSMW1772;calls;;;nan
l647;Portsmouth June;calls;;;nan
l648;M Whampoa;calls;;;nan
l649;Pulo Massey;calls;;;nan
l650;PortsmouthSMay;calls;;;nan
l651;Severndroog;calls;;;nan
l652;Bancoot;calls;;;nan
l653;Portsmouth3 oÂ°Mar;calls;;;nan
l654;Teliicheriy;calls;;;nan
l655;Long Reach rescued crew of sinking Ganges;calls;;;nan
l656;Portlmmrth 8Â°May ^OS11;calls;;;nan
l657;pCS0r:â€œ;calls;;;nan
l658;saugor;calls;;;nan
l659;Downs capture of Mangalore fort from French;calls;;;nan
l660;lost on the Perates, South China Sea,;calls;;;nan
l661;wrecked south of the Paracels 1763, some survivors reached Canton See G/12/195 ff.30;calls;;;nan
l662;Sural;calls;;;nan
l663;Teilicherry;calls;;;nan
l664;Culpce;calls;;;nan
l665;Ingcli;calls;;;nan
l666;Kinsaie;calls;;;nan
l668;L/MAR/B/aSB Journal;calls;;;nan
l669;1741, Gabriel Steward [CapCI Portsmouth;calls;;;nan
l670;Chusan;calls;;;nan
l671;See G/12/16 Chusan Diary;calls;;;nan
l672;Port Dauphin, Madagascar;calls;;;nan
l673;off Newfoundland;calls;;;nan
l674;Downs See G/17/3 ff.81;calls;;;nan
l675;for invoices etcMokha;calls;;;nan
l676;Whampoa Downs;calls;;;nan
l677;Banjarmasin;calls;-3.31987;114.59075;southeast_asia
l678;Inseli;calls;;;nan
l679;Pernambuco;calls;-8.05389;-34.88111;atlantic
l680;Myapore;calls;;;nan
l681;Garden Reach;calls;;;nan
l682;Kidderpor;calls;;;nan
l683;Downs * inc Cargo Book;calls;;;nan
l684;Downs engagement with French privateer La Venus;calls;;;nan
l685;with Angl;calls;;;nan
l686;Dutch Fleet of Defence from Japan;calls;;;nan
l687;All Saints5 Bay;calls;;;nan
l688;burnt in China;calls;;;nan
l689;Liverpool;calls;53.41058;-2.97794;british_isles
l690;Capt Thomas Forrest;calls;;;nan
l691;burntWhampoa;calls;;;nan
l692;remained in India, voyages to Bandar Abbas;calls;;;nan
l693;1647, Pegu 1648, Bantam;calls;;;nan
l694;Master Edmund Seaman;calls;;;nan
l695;Master Janus Couchman;calls;;;nan
l696;Mew Island;calls;;;nan
l697;Alguarda;calls;;;nan
l698;Tnncomalee;calls;;;nan
l699;return to Bombay;calls;;;nan
l700;St St Helena;calls;;;nan
l701;Colombo Roads;calls;;;nan
l702;lostDondra Head, Ceylon,;calls;;;nan
l703;Bushire;calls;28.96887;50.83657;indian_ocean
l704;Bar;calls;49.07362;27.67404;indian_ocean
l705;Bajalar;calls;;;nan
l706;St Salvadore;calls;;;nan
l707;jun Penang;calls;;;nan
l708;captured by French 1809, r;calls;;;nan
l709;capturedMauritius;calls;;;nan
l710;Dutch Fleet of DefenceMalabar;calls;;;nan
l711;DowwMarll^Batavia;calls;;;nan
l712;Priaman;calls;;;nan
l713;Mauntius;calls;;;nan
l714;DownsDec;calls;;;nan
l715;Tappanooly Bay;calls;;;nan
l716;Portsitmuth nS^lSlO;calls;;;nan
l717;Calcutta 2^13^96^24 Saugor;calls;;;nan
l718;Capt Nathaniel Owen;calls;;;nan
l719;BL: Sloane Ms Journal;calls;;;nan
l720;1682, Thomas Crompton Cape;calls;;;nan
l721;Botun;calls;;;nan
l722;voyage ended summer;calls;;;nan
l724;landed Sir Robert Sherleymouth of Indus;calls;;;nan
l725;captured by DutchTiku Oc;calls;;;nan
l726;Downs late;calls;;;nan
l727;broken up;calls;;;nan
l728;James Fort, Gambia;calls;;;nan
l729;Bay of Ayoffe;calls;;;nan
l730;James Fort;calls;;;nan
l731;voyage ended To look for survivors of Duke of Cumberland, lost in Bay of Ay;calls;;;nan
l732;Belfas;calls;;;nan
l734;Pescadores;calls;;;nan
l735;captured by Dutch in Straits of Banca;calls;;;nan
l736;Anjengo St Helena;calls;;;nan
l737;parted company with the fleet in a gale in 8Â°80'S by 80'E, not heard of aga;calls;;;nan
l738;lost in the river Hugl;calls;;;nan
l739;burnt in Bombay harbour;calls;;;nan
l740;Samarang;calls;-6.99306;110.42083;southeast_asia
l741;Bantam SoldBatavia;calls;;;nan
l742;capturedthe Lizard by a Flushing ma;calls;;;nan
l743;war and taken to Bergen;calls;;;nan
l744;wreckedBombay;calls;;;nan
l745;Hughli;calls;;;nan
l746;Sen Benkuien;calls;;;nan
l747;Jui St Helena;calls;;;nan
l748;Clyde;calls;41.30422;-82.97519;atlantic
l749;stranded on Sogar Bank, Bengal,;calls;;;nan
l750;captured on her passage to Bengal by the French frigate Piedmontais;calls;;;nan
l751;Londo;calls;;;nan
l752;Hong Kong Bay;calls;;;nan
l753;Jim Bombay;calls;;;nan
l754;Ganges;calls;43.93419;3.70797;atlantic
l755;L/MAM/A/LXXIV pp.52;calls;;;nan
l756;Journal;calls;;;nan
l757;Bangkok;calls;13.75398;100.50144;southeast_asia
l758;Ayutthaya;calls;14.35167;100.57739;southeast_asia
l759;Capt Richard Gosfright;calls;;;nan
l760;L/MAE/A/LXXIV pp.125;calls;;;nan
l761;Journal Ju;calls;;;nan
l762;Tonkin;calls;;;nan
l763;engagment with FrenchSao Tiago;calls;;;nan
l764;Cockelee;calls;;;nan
l765;captured by French frigate La F;calls;;;nan
l766;Capt Thomas Smith Downs;calls;;;nan
l767;Tcllicherry;calls;;;nan
l768;Plymouth * during the voyage there were deaths;calls;;;nan
l769;Barrabulla, Sumatra;calls;;;nan
l770;nampoa;calls;;;nan
l771;Andamans;calls;;;nan
l772;Balambang;calls;;;nan
l773;˜East Indies;calls;;;nan
l774;left Madras for Benkulen 1791, not heard of again See;calls;;;nan
l775;Bristol;calls;51.45523;-2.59665;british_isles
l776;Sulu Roads;calls;;;nan
l777;Carrick Roads;calls;;;nan
l778;Capt Thomas Newsham Portsmouth;calls;;;nan
l779;iph;calls;;;nan
l780;captured by French privateer L 'Aventure, crew placed on American ship Henry;calls;;;nan
l781;Goree;calls;;;nan
l782;Broken Ground;calls;;;nan
l783;Camicobar;calls;;;nan
l784;lostSt Vincent;calls;;;nan
l785;captured, with the Godfrey, Hillsborough, Mountstuart and Royal George, by the combined Franc;calls;;;nan
l786;Spanish fleet in 36028'N & 15Â°20'W;calls;;;nan
l787;lost on the Dutch coast;calls;;;nan
l788;Downs * assisted in capture of three Dutch shipsSt Helena;calls;;;nan
l789;Malaca;calls;36.72016;-4.42034;atlantic
l790;Whmpoa;calls;;;nan
l791;Chumpee;calls;;;nan
l792;L/MAR/B/290A Journal;calls;;;nan
l793;1795, anonChina;calls;;;nan
l794;Fernando Noronha;calls;;;nan
l795;Hugli river;calls;;;nan
l796;Downs St Helena;calls;;;nan
l797;Batavia St Helena;calls;;;nan
l798;Poole;calls;50.71429;-1.98458;british_isles
l799;Benguella;calls;-12.57626;13.40547;atlantic
l800;River Plate;calls;;;nan
l801;Quang Nam;calls;15.88853;108.25447;southeast_asia
l802;Hirad;calls;;;nan
l803;Bouro;calls;;;nan
l804;Sumbava;calls;;;nan
l805;off Ceylon;calls;;;nan
l806;Pattani,for Ayutthaya;calls;;;nan
l807;returned to Pattani,again;calls;;;nan
l808;voyage ended late;calls;;;nan
l809;Engano;calls;;;nan
l810;laid upBatavia 1623, rotte;calls;;;nan
l811;parted company in a gale in 8Â°30'S 80'E and not heard of aga;calls;;;nan
l812;Capt Philip Browne Plymouth;calls;;;nan
l813;los;calls;45.50719;105.75594;indian_ocean
l814;captured  by the combined Franc;calls;;;nan
l815;Spanish fleet in 36Â°28'N IS^O'W;calls;;;nan
l816;lostBombay;calls;;;nan
l817;Ryapore;calls;;;nan
l818;attempted mutiny;calls;;;nan
l819;penetrated Hudson's Strait but driven out and south;calls;;;nan
l820;Kinsa;calls;;;nan
l821;Capt John North;calls;;;nan
l822;Capt James Cook;calls;;;nan
l823;Jim;calls;7.67344;36.83441;indian_ocean
l824;Capt Robert Potter Downs;calls;;;nan
l825;sold in India;calls;;;nan
l826;Assembledthe Cape by the Fourth Voyage;calls;;;nan
l827;blownSocotra, ran ashore on Gujarat coast about Aug, crew deserted;calls;;;nan
l828;Capt James Murvell;calls;;;nan
l829;lost in Benga;calls;;;nan
l830;not heard of since the storm in Bengal;calls;;;nan
l831;˜English coast;calls;;;nan
l832;off Dungeness;calls;;;nan
l833;Sillebar;calls;;;nan
l834;Downs See D/99 ff.5;calls;;;nan
l835;for a crew lis;calls;;;nan
l837;Sheemess;calls;;;nan
l838;lostFolkestone;calls;;;nan
l840;captured by the Frenchthe Cap;calls;;;nan
l841;Gravesend * attacked by piratesJohanna;calls;;;nan
l842;Managalore;calls;;;nan
l843;Erith See D/98 ff.250;calls;;;nan
l844;Downs See E/3/21 no.2081;calls;;;nan
l845;ship lostthe 'island of Zelo;calls;;;nan
l846;Whampo;calls;;;nan
l847;wreckedPondoland, South Africa,;calls;;;nan
l849;lost between Peverill Point and St Alban's Head, Isle of Purbeck See A circumstantial narrative of the loss of the Halsewell...;calls;;;nan
l850;Point de Gallc;calls;;;nan
l851;captured by the Dutch in the Banka Straits;calls;;;nan
l852;disappeared between Balasore and Masulipatam;calls;;;nan
l853;Morendavia Bay;calls;;;nan
l854;Jim Fort St David;calls;;;nan
l855;Capt Edmund Scott;calls;;;nan
l856;Tenerife ~ Madras;calls;;;nan
l857;Pondicheny;calls;;;nan
l860;Downs * pen & ink sketch of the ship;calls;;;nan
l861;burntCalcutta Oc;calls;;;nan
l864;Sohar;calls;24.34745;56.70937;indian_ocean
l865;Lagundy;calls;;;nan
l866;Japara;calls;-6.5924;110.671;southeast_asia
l867;Downs * journal includes sketches;calls;;;nan
l868;voyage ended by;calls;;;nan
l869;Bowns;calls;;;nan
l870;Sind;calls;46.58333;23.71667;indian_ocean
l871;remained in India ?;calls;;;nan
l872;lostBonavista;calls;;;nan
l874;returned to Benkulen, gale damaged;calls;;;nan
l875;portsmouth;calls;;;nan
l876;Malabar coast;calls;;;nan
l877;lost in the Bab el Mandeb;calls;;;nan
l878;11May St Helena;calls;;;nan
l879;took part in capture of San Antonio carrack in Straits of Malacca;calls;;;nan
l880;river Tapti;calls;;;nan
l881;Red Sea blockade;calls;;;nan
l882;Bantam, abandoned, rotte;calls;;;nan
l883;coast of Sindey;calls;;;nan
l884;Bally Town;calls;;;nan
l885;lost on Bembridge Ledge, Isle of Wight,;calls;;;nan
l886;â– 51 St Helena;calls;;;nan
l887;Lintin Roads;calls;;;nan
l888;"Whampoa "" Second Bar";calls;;;nan
l889;Karakaul;calls;;;nan
l890;Dublin;calls;53.33306;-6.24889;british_isles
l891;fought with French warships, blown upJohanna;calls;;;nan
l892;Capt Richard Chadsley Downs;calls;;;nan
l893;Bassein;calls;16.77919;94.73212;bengal_presidency
l894;Poolo Bay;calls;;;nan
l895;Dock;calls;;;nan
l896;1^26 St Helena;calls;;;nan
l897;Singapaore;calls;;;nan
l898;Cap Sing Moon;calls;;;nan
l899;Capt William Morris Downs;calls;;;nan
l900;Capt John Hazlewood;calls;;;nan
l901;lost in Persia;calls;;;nan
l902;The Hop;calls;;;nan
l903;Ratcl;calls;;;nan
l904;captured with Gatton, Godfrey, Mountstuart and Royal George by combined Franc;calls;;;nan
l905;Spanish fleet in 36Â°28'N 15Â°20'W;calls;;;nan
l906;lost in the Bengal river;calls;;;nan
l907;repairedcoast of China;calls;;;nan
l908;Srat;calls;;;nan
l909;voyages between Bantam and Surat;calls;;;nan
l913;Cochin China;calls;;;nan
l914;off Teinchin;calls;;;nan
l915;Capt George Millett Fortmouth;calls;;;nan
l916;Anger;calls;47.27422;15.69139;atlantic
l917;Killybeg' Ireland;calls;;;nan
l918;Dutch Fleet of Defence based in Japan;calls;;;nan
l919;L/MAR/B/168;calls;;;nan
l920;I Journal;calls;;;nan
l921;1806, anon Left Bengal;calls;;;nan
l922;St Margaret's Orkney;calls;;;nan
l923;Labrador;calls;16.02812;120.14424;southeast_asia
l924;presumably laid up, rotte;calls;;;nan
l925;Princes' Island;calls;;;nan
l927;captured by the DutchPattani;calls;;;nan
l928;Gomes Island;calls;;;nan
l929;Rendezvous Island' Borneo;calls;;;nan
l931;broughtsettlers after Dutch capture of St Helena on;calls;;;nan
l932;towards England' HURLEY;calls;;;nan
l933;Cap Sing Moon Bay;calls;;;nan
l934;Bandar Abbas Bombay;calls;;;nan
l936;Capt Robert Hill;calls;;;nan
l937;to rema;calls;;;nan
l938;New York;calls;42.55779;-88.86511;atlantic
l939;Hamburg;calls;42.71589;-78.82948;atlantic
l940;Cap Sprat;calls;;;nan
l941;from England;calls;;;nan
l942;Cap Spra;calls;;;nan
l943;Whampa;calls;;;nan
l944;Pattern;calls;;;nan
l948;Downs Broken up in;calls;;;nan
l949;Tanjayang;calls;;;nan
l950;Capt John Balchen;calls;;;nan
l951;Dutch Fleet of Defence based m Japan;calls;;;nan
l952;Trimdade;calls;;;nan
l953;returned to Bantam;calls;;;nan
l954;Jim Madeira;calls;;;nan
l955;Amboyna;calls;-3.69583;128.18333;southeast_asia
l956;Colvin's Ghat;calls;;;nan
l957;Capl Michael Martin;calls;;;nan
l958;St Salvadorc;calls;;;nan
l959;parted companyMauritius and not heard of aga;calls;;;nan
l960;Masuhpatam;calls;;;nan
l961;Masulipalam;calls;;;nan
l962;left Bantam for Surat summer 1641. not heard of aga;calls;;;nan
l963;wrecked Cape Aghulas. South Africa;calls;;;nan
l964;Downs Muckncll seized the ship on behalf of Charles I;calls;;;nan
l965;Bandar Abbas ' Surat;calls;;;nan
l966;left Bantam and not heard of aga;calls;;;nan
l968;Cascais;calls;38.69681;-9.42147;atlantic
l969;voyage ended Brist;calls;;;nan
l970;Djapara;calls;;;nan
l971;Madapollam;calls;;;nan
l972;Johore river;calls;;;nan
l973;Lmtin;calls;;;nan
l974;voyage ended Downs;calls;;;nan
l975;Cape Verde Islands;calls;;;nan
l977;Kmsale;calls;;;nan
l978;Indialee;calls;;;nan
l980;Pnng Manna;calls;;;nan
l981;captured by a French privateerthe Sand Heads;calls;;;nan
l982;burnt in the Bay of Biscay;calls;;;nan
l983;Acension;calls;;;nan
l984;Cape St Mary, Madagascar;calls;;;nan
l985;"Erith [""this concludes a long and dangerous voyage""]";calls;;;nan
l986;Tellicherty;calls;;;nan
l987;lostMadras;calls;;;nan
l988;North Island;calls;;;nan
l989;Coopers Bay;calls;;;nan
l990;Madras â–  Madras;calls;;;nan
l991;wrecked on Leytons Rock, south;calls;;;nan
l992;west of Bonavista island;calls;;;nan
l993;Culpee Madras;calls;;;nan
l994;Capt Henry Becher Portsmouth;calls;;;nan
l995;Saugor St Helena Downs;calls;;;nan
l996;Algoa Bay;calls;;;nan
l997;Benkulen St Helena;calls;;;nan
l998;Capt George Simpson Torbay;calls;;;nan
l999;Downs * journal contains a chart of New South Wales;calls;;;nan
l1000;Released by the French in Simons Bay;calls;;;nan
l1001;Banca Straits;calls;;;nan
l1002;Borneo coast;calls;;;nan
l1003;off Madagascar;calls;;;nan
l1004;sold in Benga;calls;;;nan
l1005;Eastern Channel;calls;;;nan
l1006;Caipang Bay;calls;;;nan
l1007;Tasmama;calls;;;nan
l1008;in action agst French ships;calls;;;nan
l1009;Capt James Shrive;calls;;;nan
l1010;Pulau Condore;calls;;;nan
l1011;lostMozambiqu;calls;;;nan
l1012;Dunnose;calls;;;nan
l1013;St Eustatia;calls;;;nan
l1014;Jim Mauritius;calls;;;nan
l1015;off Pondicherry;calls;;;nan
l1016;driven on shore near Fort St David by a violent wind, abandoned;calls;;;nan
l1017;fired herself m action agst PortugueseBandar Abbas;calls;;;nan
l1018;Moheli Madras;calls;;;nan
l1019;Telhcherry;calls;;;nan
l1020;Culp;calls;;;nan
l1021;Portland B;calls;;;nan
l1022;Hollis Bay;calls;;;nan
l1023;St Helena, to settle the island;calls;;;nan
l1024;Makassar;calls;-5.14861;119.43194;southeast_asia
l1026;Downs * includes 'Directions from Bantam to Makassar' by John Edwards;calls;;;nan
l1027;Capt John Privett;calls;;;nan
l1028;Capt Joseph Eaton;calls;;;nan
l1029;Johore;calls;1.4655;103.7578;southeast_asia
l1030;off Parcelar;calls;;;nan
l1031;Portsmouth Dock;calls;;;nan
l1032;Madras, to rema;calls;;;nan
l1033;Second Bar St Helena;calls;;;nan
l1034;run down by HMS RussellBerry Head, total loss;calls;;;nan
l1035;capture of French ship Ceres;calls;;;nan
l1036;Downs * log includes crew list of Rege;calls;;;nan
l1037;went ashoreKedgeree in a hurricane, condemned;calls;;;nan
l1038;off Bantam;calls;;;nan
l1039;Culpee, to remain in India;calls;;;nan
l1040;St George's Channel;calls;;;nan
l1041;DootTm S7l763;calls;;;nan
l1042;Madias;calls;;;nan
l1043;lost nine miles to southwards of Boulog;calls;;;nan
l1044;Cupee;calls;;;nan
l1045;ship lost;calls;;;nan
l1046;Ingel;calls;;;nan
l1047;aken by French privateer Bellona;calls;;;nan
l1048;recaptured by HMS Colossus;calls;;;nan
l1049;Capt William Hambly Portsmouth;calls;;;nan
l1050;SÃ£o Tiago;calls;;;nan
l1051;Boeton;calls;-5.4633;122.6024;southeast_asia
l1052;Downs April;calls;;;nan
l1054;Rogue's River;calls;;;nan
l1055;M;calls;;;nan
l1056;Capt Nathamel Horseman;calls;;;nan
l1057;Downs * f. lOv sketch of Table Bay;calls;;;nan
l1058;Miapore;calls;;;nan
l1059;Leith Road;calls;;;nan
l1060;Fultah;calls;;;nan
l1061;Colomb;calls;;;nan
l1062;Sagor;calls;;;nan
l1063;St Croix;calls;17.72751;-64.74698;atlantic
l1064;Bankshall;calls;;;nan
l1065;attacked by three French warships nr Ganjam;calls;;;nan
l1066;Rogues Rrver;calls;;;nan
l1067;Cox s Island;calls;;;nan
l1068;burnt in the Thames;calls;;;nan
l1069;Luanda;calls;0.31354;34.07146;indian_ocean
l1070;Downs * The shipPortsmouth 1804, to remain in India;calls;;;nan
l1071;Ar St Helena;calls;;;nan
l1072;wreckedMadras * journal includes minutes of enquiry into the loss;calls;;;nan
l1073;Dover;calls;51.12598;1.31257;british_isles
l1074;^ Saugor;calls;;;nan
l1075;went aground in the Bombay harbour;calls;;;nan
l1076;lost on Margate Sands;calls;;;nan
l1077;wrecked in the Hugli;calls;;;nan
l1078;San Thome;calls;;;nan
l1079;forced back to St Augustine's Bay;calls;;;nan
l1080;Capt Matthew Crover;calls;;;nan
l1081;The Nor;calls;;;nan
l1082;Tellicherxy;calls;;;nan
l1083;Downs * journal includes coastline profiles of St Helena;calls;;;nan
l1084;Downs * includes cargo book;calls;;;nan
l1085;sailing between the island, the Cape and Madagascar;calls;;;nan
l1086;Portsmouth M;calls;;;nan
l1087;Sao Thome;calls;0.33654;6.72732;atlantic
l1088;Bandar;calls;2.05;99.75;southeast_asia
l1089;Capt Roger Paxton;calls;;;nan
l1090;Frith;calls;;;nan
l1091;Southampton;calls;50.90395;-1.40428;british_isles
l1092;turned pirate after leaving Bombay;calls;;;nan
l1093;lost in a hurrica;calls;;;nan
l1094;Burah Bazaar;calls;;;nan
l1095;Surabaya;calls;-4.67122;105.72571;southeast_asia
l1096;Downs * & engagements with Angria pirates;calls;;;nan
l1097;coasting;calls;;;nan
l1098;blown upDiamond Point;calls;;;nan
l1099;joined Fleet of Defence based in Japan;calls;;;nan
l1100;wrecked in Dover Roads;calls;;;nan
l1102;captured by Algerine pirates;calls;;;nan
l1103;driven from anchors in a storm and wrecked on 'Fly Island', Holland;calls;;;nan
l1104;July Madras;calls;;;nan
l1105;2i jun Whampoa;calls;;;nan
l1106;Cor;calls;;;nan
l1107;captured with the Gatton, Godfrey, Hillsborough and Royal George by the combined Franc;calls;;;nan
l1108;Left India;calls;;;nan
l1109;lost with all handsRoscvear, Scilly;calls;;;nan
l1110;Kinsalc;calls;;;nan
l1111;Beachy Head;calls;;;nan
l1112;Dee Ingcli;calls;;;nan
l1113;Culpcc;calls;;;nan
l1114;Ingcli Dee;calls;;;nan
l1115;sank leaguesthe Lizard;calls;;;nan
l1116;Dee Bombay;calls;;;nan
l1117;Dee Sural;calls;;;nan
l1118;Banlal;calls;;;nan
l1119;Bcnkulcn;calls;;;nan
l1120;Dee Cuddalorc;calls;;;nan
l1121;Texcl;calls;;;nan
l1122;Dee Benkulen;calls;;;nan
l1123;Manduta;calls;;;nan
l1124;downs;calls;;;nan
l1125;in the Cha;calls;;;nan
l1126;lost'Manacaree;calls;;;nan
l1127;Ballamboan;calls;;;nan
l1128;Downs * diagram of fleet's sailing order;calls;;;nan
l1129;Rajah Basa Roads;calls;;;nan
l1130;lost in the river Hugli;calls;;;nan
l1132;laid up, rotte;calls;;;nan
l1133;Capt William Mackett Downs;calls;;;nan
l1134;wreckedthe Cap;calls;;;nan
l1135;st of men transfer to the Nonsuch after the wreck of the Vansittart 'Sangee Booloo' Bay;calls;;;nan
l1136;Dublin Bay;calls;;;nan
l1137;Madasgascar;calls;;;nan
l1138;S2o Tiago;calls;;;nan
l1139;disappeared after leaving Madras on;calls;;;nan
l1140;blown upsea;calls;;;nan
l1141;parted from the Hardwick in a violent storm about leagues east of Bourbon and not heard of aga;calls;;;nan
l1142;˜At China;calls;;;nan
l1143;Porthsmouth;calls;;;nan
l1144;Oc Bombay;calls;;;nan
l1145;San Salvadore;calls;;;nan
l1146;Downs * includes a letter from Dutch EIC agents about prisoners of war,;calls;;;nan
l1147;lost in Margate Road;calls;;;nan
l1148;Lankeet Flat;calls;;;nan
l1149;struck reef of Kalata 7Â°9,S 121Â°E, ship scuttled Feb,island in small boats;calls;;;nan
l1150;off Chumpee;calls;;;nan
l1151;Port Philip;calls;;;nan
l1152;at Port Jackson;calls;;;nan
l1153;burnt in the river Hugli;calls;;;nan
l1154;II Cape;calls;;;nan
l1155;Bomay;calls;;;nan
l1156;Balassore;calls;;;nan
l1157;San Savadore;calls;;;nan
l1158;captured by French ship La Forte of guns, badly damaged, allowed to proceed;calls;;;nan
l1159;reclaimed as a prize by La Sybille, allowed to proceed;calls;;;nan
l1160;Mozamibique;calls;;;nan
l1161;Mozambique Chanel;calls;;;nan
l1162;voyage ended mid;calls;;;nan
l1163;at Cape;calls;;;nan
l1164;left Priaman;calls;;;nan
l1165;at Ceylon in;calls;;;nan
l1166;left for England 1613, arrived in the autum;calls;;;nan
l1167;Armagon;calls;;;nan
l1168;laid upBantam in;calls;;;nan
l1169;not heard of since the storm in the river Hugli;calls;;;nan
l1170;towards Lisbon;calls;;;nan
l1171;blockadeAden;calls;;;nan
l1172;Starits of Sunda;calls;;;nan
l1173;laid up in Java as a careening hulk;calls;;;nan
l1174;Port Jackso;calls;;;nan
l1175;Downs * sketches f.22 Trinidade, f.32 Cap;calls;;;nan
l1176;blown upMadras;calls;;;nan
l1177;lostScilly;calls;;;nan
l1178;lost near Cape Comor;calls;;;nan
l1179;Colombo Bombay;calls;;;nan
l1180;Trincoma;calls;;;nan
l1181;Madras Downs;calls;;;nan
l1182;manna;calls;;;nan
l1183;captured French brig La France;calls;;;nan
l1184;captured by French and taken into Mauritius, prisoners freedBombay;calls;;;nan
l1185;Downs * see 'The voyage of the Pitt;calls;;;nan
l1186;a turning point in the East India navigation', R P Crowhurst, Mariner's Mirror  pp.43;calls;;;nan
l1187;Trinidale;calls;;;nan
l1188;Anjengo Cap;calls;;;nan
l1189;Capt Benjamin Fisher Portsmouth;calls;;;nan
l1190;Banjarmassin Oc;calls;;;nan
l1191;Balasore Calcutta;calls;;;nan
l1192;Batticaloa;calls;7.7102;81.6924;madras_presidency
l1193;Hog River Creek, Bengal;calls;;;nan
l1194;wrecked 9/11 Helston Rocks, Mount's Bay, Cornwa;calls;;;nan
l1195;Porto Novo;calls;17.01969;-25.06471;atlantic
l1196;Do Ingeli;calls;;;nan
l1197;returned to Pondicheny;calls;;;nan
l1199;Manabulle;calls;;;nan
l1200;Natal;calls;0.5632;99.1099;southeast_asia
l1201;Lye Road;calls;;;nan
l1203;not heard of after the;calls;;;nan
l1204;Tynemouth;calls;55.01788;-1.42559;british_isles
l1205;King's Cha;calls;;;nan
l1206;Tamborne;calls;;;nan
l1207;Teignmouth;calls;50.54581;-3.49671;british_isles
l1209;Gu;calls;;;nan
l1210;Malacca Whampoa;calls;;;nan
l1212;New Year's Island;calls;;;nan
l1217;off Morotai;calls;;;nan
l1218;off Taiwan;calls;;;nan
l1219;left Madras and foundered in a gale;calls;;;nan
l1220;Portsmouth Madras;calls;;;nan
l1221;Capt John Innes Downs;calls;;;nan
l1222;Calicu;calls;;;nan
l1223;Madras, decoyed and captured there bv the French;calls;;;nan
l1224;burntPigeon Island;calls;;;nan
l1225;taken by the French;calls;;;nan
l1226;Straits of New Guinea;calls;;;nan
l1227;returned to Macao;calls;;;nan
l1228;Pearl River;calls;32.78347;-89.22784;atlantic
l1229;Bab el Mandel;calls;;;nan
l1230;captured by a French frigate in Vizagapatam Roads;calls;;;nan
l1231;lost on a reefMaio, Cape Verde Islands;calls;;;nan
l1232;returned to Kinsale;calls;;;nan
l1233;capturedMadras by the French;calls;;;nan
l1234;returned to Penang;calls;;;nan
l1235;Culpeee;calls;;;nan
l1236;off Beachy Head;calls;;;nan
l1237;off Java Head;calls;;;nan
l1238;captured by the FrenchAnger Po;calls;;;nan
l1239;Croce;calls;;;nan
l1240;Geriah;calls;;;nan
l1242;taken by the FrenchSt Helena;calls;;;nan
l1243;burntSan Salvadore;calls;;;nan
l1244;along Sumatra coast;calls;;;nan
l1245;Banksha;calls;;;nan
l1246;* inc coastline sketches;calls;;;nan
l1247;Cape Lagullas, False Cape, St Helena;calls;;;nan
l1248;off Bankshall;calls;;;nan
l1249;returned by;calls;;;nan
l1250;captured in Tellicheny Roads by French frigate Prenus;calls;;;nan
l1251;Downs Dee;calls;;;nan
l1252;Balasor;calls;21.49266;86.93348;bengal_presidency
l1253;Hugl;calls;;;nan
l1254;Downs Jim;calls;;;nan
l1255;Dee Calcutta;calls;;;nan
l1256;Surat Dee;calls;;;nan
l1257;Mohcli;calls;;;nan
l1258;Bantam, foundered May, broken up;calls;;;nan
l1259;lost nr Manila;calls;;;nan
l1260;6'Aug Penang;calls;;;nan
l1261;Capt Francis Wilshaw;calls;;;nan
l1262;lost in a storm in Balasore Roads between;calls;;;nan
l1263;off Bengal;calls;;;nan
l1264;gap;calls;44.55858;6.07868;atlantic
l1265;Cock Island;calls;;;nan
l1266;Island;calls;;;nan
l1267;Nagasaki;calls;32.75;129.88333;china
l1269;A Downs;calls;;;nan
l1270;Pulo Timan;calls;;;nan
l1271;Capt William Dyke;calls;;;nan
l1272;Capt John Bromwell;calls;;;nan
l1273;Kitow;calls;;;nan
l1274;Capt William Browne;calls;;;nan
l1275;Kisnapatam;calls;;;nan
l1276;Downs Sankher anchorsGarden Island, Western Australia, 1831. Her emigrant passengers established the settlement Rockingham Town.;calls;;;nan
l1277;Coromandel Coast;calls;;;nan
l1278;in England by;calls;;;nan
l1279;at Priaman and Tiku in;calls;;;nan
l1280;at Surat and Mokha in;calls;;;nan
l1281;at Batavia and Masulipatam in;calls;;;nan
l1282;ran ashore nr Masulipatam in 1626, bur;calls;;;nan
l1283;captured a French slaver;calls;;;nan
l1284;Jaggemaickpuram;calls;;;nan
l1285;Barrier Islands;calls;;;nan
l1286;lost on shoalsPalawan;calls;;;nan
l1287;longboat reached Balambangan;calls;;;nan
l1288;crew home on Syren;calls;;;nan
l1289;Isle of Wigh;calls;;;nan
l1290;Pulao Bay;calls;;;nan
l1291;Jim Downs;calls;;;nan
l1292;enaged in siege of Pondicherry in;calls;;;nan
l1293;Calderoon Bay;calls;;;nan
l1294;Cabinda Bay, Angola;calls;;;nan
l1295;captured, with the Gatton, Godfrey, Hillsborough and Mountstuart, by the combined Franc;calls;;;nan
l1296;Spanish fleet in 26Â°28'N & 15Â°20'W;calls;;;nan
l1297;Uockelee;calls;;;nan
l1298;Straits of Malacca;calls;;;nan
l1299;Downs * inc col sketches of islands in Straits of Malacca;calls;;;nan
l1300;journal ends 1689, northwards of Batavia;calls;;;nan
l1301;wrecked Bay of Benga;calls;;;nan
l1302;L/MAR/A/XCVIII Journal;calls;;;nan
l1303;Sutanat;calls;;;nan
l1304;Ascensio;calls;;;nan
l1305;Capt William Blundell;calls;;;nan
l1306;Downs Sold;calls;;;nan
l1307;Capt John Barber Downs;calls;;;nan
l1308;lost'Mayota;calls;;;nan
l1309;Capt John Hitchings Calcutta;calls;;;nan
l1310;Capt Anthony Ryan;calls;;;nan
l1311;Angra Pequena;calls;;;nan
l1312;captured by 'the desperado Don Antonio Constanti' 1830, saved by the carpenter and remaining five crew, reached Sierra Leone;calls;;;nan
l1313;cruising with Harrington;calls;;;nan
l1314;Tellicheriy;calls;;;nan
l1315;St Paul's, Luanda;calls;;;nan
l1316;Culpee Ingeli;calls;;;nan
l1317;Downs Guinea;calls;;;nan
l1318;Madras wrecked between Masulipatam and Madapollam;calls;;;nan
l1319;Downs Bantam;calls;;;nan
l1320;off Batavia;calls;;;nan
l1321;f.32 sketches of Cape of Good Hope and Cape False ff.101;calls;;;nan
l1322;navigational rules;calls;;;nan
l1323;Capt Anthony Earning Downs;calls;;;nan
l1324;Kharg;calls;;;nan
l1325;off the Lizard;calls;;;nan
l1326;abandoned in the Atlantic 1610, empty;calls;;;nan
l1327;Surat, attacked by Portuguese Dec, fired to prevent her captur;calls;;;nan
l1328;captured by French, ransomed;calls;;;nan
l1329;hugli river;calls;;;nan
l1330;˜Caracf;calls;;;nan
l1331;Genoa;calls;41.51811;-83.35909;atlantic
l1332;Leghorn;calls;43.54427;10.32615;atlantic
l1333;Capt Simon Cumberland;calls;;;nan
l1334;Kenmair river, Ireland;calls;;;nan
l1335;Second â–  St Helena;calls;;;nan
l1336;Spithcad;calls;;;nan
l1337;Anjcngo;calls;;;nan
l1338;encounter with William Kidd the pirate in the Bab cl Mandeb;calls;;;nan
l1339;Downs * f.7v list of officers, against each name an armorial seal;calls;;;nan
l1340;wreckedNash Point, Bristol Channel.;calls;;;nan
l1341;Capt Thomas Woodcock;calls;;;nan
l1342;Borrum;calls;;;nan
l1343;Aden, abandoned there in;calls;;;nan
l1344;Okinawa;calls;26.33583;127.80139;china
l1345;cPulau Laurotf;calls;;;nan
l1346;did not retur;calls;;;nan
l1347;Cock;calls;;;nan
l1348;L/MAR/B/340A Journal;calls;;;nan
l1349;1803, anon Calcutta;calls;;;nan
l1350;Culpec;calls;;;nan
l1351;Capt Richard Wouldhave;calls;;;nan
l1352;Hog River;calls;;;nan
l1353;Downs * inc list of French prisoners;calls;;;nan
l1354;damaged in storm, forced back for repairs;calls;;;nan
l1355;Jim St Helena;calls;;;nan
l1356;skirmish with French privateer La Venus, prisoners taken;calls;;;nan
l1357;parted company from the Union and not heard of aga;calls;;;nan
l1358;lost on the bar of Tonkin;calls;;;nan
l1359;arrived in England after August;calls;;;nan
l1360;captured by Dutch nr Pulo Ru;calls;;;nan
l1361;Dewas;calls;22.96585;76.05526;indian_ocean
l1362;Rio de Janeir;calls;;;nan
l1364;Trengganu;calls;5.3302;103.1408;southeast_asia
l1365;lost in the Hugli river;calls;;;nan
l1366;Salsette;calls;;;nan
l1367;Woolwich * B ff.38v;calls;;;nan
l1368;& C ff.56;calls;;;nan
l1369;57, 59y;calls;;;nan
l1370;60v action agst Angria's;calls;;;nan
l1371;captured by Dutch in Straits of Sunda 1619, recovered;calls;;;nan
l1372;in action agst Portuguese;calls;;;nan
l1373;Armagaon;calls;;;nan
l1374;off Spithead;calls;;;nan
l1375;Mary Surat;calls;;;nan
l1376;Scafareen Roads, Ireland;calls;;;nan
l1377;lost in hugli river;calls;;;nan
l1378;captured by the French in 9Â°S 91Â°E, recapturedBourbon;calls;;;nan
l1380;Java Head;calls;;;nan
l1381;lost nr St Thomas's Mou;calls;;;nan
l1382;Leith Roads;calls;;;nan
l1383;Downs * inc coastal profiles, sketch of encounter with a French ship;calls;;;nan
l1384;Jim Malacca;calls;;;nan
l1385;wrecked'Engano', Sumatra,;calls;;;nan
l1386;Banaca;calls;;;nan
l1387;Capt Francis Johnson;calls;;;nan
l1388;Capt Nathaniel Reynolds Downs;calls;;;nan
l1389;Point dc Galle;calls;;;nan
l1390;Indramayo;calls;;;nan
l1391;Woolwich LJFcb;calls;;;nan
l1392;arrived in England before;calls;;;nan
l1393;parted company from the Hector after three months, not heard of aga;calls;;;nan
l1394;Macassar Batavia;calls;;;nan
l1395;Surat, accidentally fired;calls;;;nan
l1396;Capt John Bell Downs;calls;;;nan
l1398;Brist;calls;;;nan
l1399;captured by Dutch nr Pulo Run;calls;;;nan
l1400;at Bantam in each year;calls;;;nan
l1402;Trincomale;calls;;;nan
l1403;Balambangam;calls;;;nan
l1404;Downs * inc inventory of stores;calls;;;nan
l1405;Gt Yarmouth;calls;;;nan
l1406;Amsterdam Island;calls;;;nan
l1407;Bass Straits;calls;;;nan
l1409;Sajo Island;calls;;;nan
l1410;off Newfoundland Banks;calls;;;nan
l1411;Benkulen Whampoa;calls;;;nan
l1412;St Helena Downs;calls;;;nan
l1413;Portsmouth St Helena;calls;;;nan
l1414;Second Bar Cape;calls;;;nan
l1415;Capt John Skottowe Plymouth;calls;;;nan
l1416;St Helena Whampoa;calls;;;nan
l1417;went on shoreBeachy Head Feb, returned to Thames;calls;;;nan
l1418;Cheduba;calls;;;nan
l1419;Tou;calls;;;nan
l1420;Capsmgmoon Passage;calls;;;nan
l1421;left Bengal St Helena;calls;;;nan
l1422;participated in blockade of Red Sea until;calls;;;nan
l1423;Inn Bombay;calls;;;nan
l1424;Bombay Penang;calls;;;nan
l1425;Macassar Jul, wrecked '12 leagues out;calls;;;nan
l1426;wreckedPortquin, Cornwall,;calls;;;nan
l1427;Received Royal licence;calls;;;nan
l1428;left Cowes with Tiger's Whelp pinnace;calls;;;nan
l1429;Coast of Sumatra;calls;;;nan
l1430;left for Pattani Nov, attacked by Japanese pirates, pilot John Davis killed, voyage abandoned;calls;;;nan
l1431;Portsmouth See Purchas vol. bk.3 chap. s.6 for a summary journal, and The voyages and works of John Davis the Navigator, ed Albert Hastings Markham, Hakluyt Soc 1st ser no.59;calls;;;nan
l1432;Saugor Oc;calls;;;nan
l1433;Goa Bombay;calls;;;nan
l1434;Johnna;calls;;;nan
l1435;Second I;calls;;;nan
l1436;Sao Paulo;calls;-23.5475;-46.63611;atlantic
l1437;L/MAR/B/689B Journal;calls;;;nan
l1438;1713, William Wingfield, Chief Mate Downs;calls;;;nan
l1439;Bantam, ship abandoned after death of Middleton 1613, eventually burnt by Javanese in or;calls;;;nan
l1440;Capt Thomas Sanders Downs;calls;;;nan
l1441;wrecked in the Andaman Islands;calls;;;nan
l1442;wrecked on 'Trial Rocks' leaguesWestern Australia, survivors reached Bantam;calls;;;nan
l1443;Lough Swilly, Donegal;calls;;;nan
l1444;Launched Madras;calls;;;nan
l1445;Capt Gilbert Slater Downs;calls;;;nan
l1446;Loronho Bay;calls;;;nan
l1447;Straits of Sunda;calls;;;nan
l1448;course changed on news of French warshipsBantam;calls;;;nan
l1449;Rajapore;calls;;;nan
l1450;Whampoa . Second Bar;calls;;;nan
l1451;Downs * inc sketches of Trinidad;calls;;;nan
l1452;captured by the French in Balasore Roads;calls;;;nan
l1453;Downs * inc note 'state of the sails;calls;;;nan
l1454;Dunderogipore;calls;;;nan
l1455;Straits of Banca;calls;;;nan
l1456;Rio dc Janeiro;calls;;;nan
l1457;Pulo Auroe;calls;;;nan
l1458;Downs * inc illus;calls;;;nan
l1459;parted company in China Seas and not heard of aga;calls;;;nan
l1460;London;calls;51.50853;-0.12574;british_isles
l1461;left Portsmouth for India;calls;;;nan
l1462;[to Boston via Lisbon in an u;calls;;;nan
l1463;amed vessel;calls;;;nan
l1464;Boston 1698, for Rhode Island, Newfoundland and Londo;calls;;;nan
l1465;at Tonkin Ju;calls;;;nan
l1466;wrecked nr Macao en route to Japa;calls;;;nan
l1467;Zanzibar;calls;-6.16394;39.19793;indian_ocean
l1468;wrecked on rocks of Audierne, Britanny, for lack of crew, cargo looted;calls;;;nan
l1469;Indremayo;calls;;;nan
l1470;Coringa Roads;calls;;;nan
l1471;captured by French ships La Manche and La Venus 1809. officers landedVizagapalam;calls;;;nan
l1472;Hainan;calls;;;nan
l1473;lost on He de MerchantSark [wreck discovered 1976];calls;;;nan
l1474;Monsourcottah;calls;;;nan
l1475;wreckedMaio, Cape Verde Islands;calls;;;nan
l1476;wrecked on a rock in Straits of Caspar, crew escaped in ship's boats;calls;;;nan
l1477;River Shanon;calls;;;nan
l1478;Cmdr Lt Alexander Davidson RN Calcutta;calls;;;nan
l1479;Princess Island;calls;;;nan
l1480;capturedCeylon by two French ships;calls;;;nan
l1481;Calingapatam;calls;;;nan
l1482;wrecked in a storm in Margate Roads;calls;;;nan
l1483;off Pondicherry with Admiral Cornwallis's squadron;calls;;;nan
l1484;Penang : Malacca;calls;;;nan
l1485;Diamond Island;calls;;;nan
l1487;Sapi Bay, Celebes;calls;;;nan
l1488;at St Helena;calls;;;nan
l1489;at Benkulen;calls;;;nan
l1490;captured by the French frigate La Piedmontaise in 26Â°13'S 56Â°45,W;calls;;;nan
l1491;Toonkoo Bay;calls;;;nan
l1492;Ventry Harbour, Ireland;calls;;;nan
l1493;Downs See Barlow's Journal, ed Basil Lubbock  pp.502;calls;;;nan
l1494;Chittagong river;calls;;;nan
l1495;Bimlipatam;calls;;;nan
l1496;He de Rhe;calls;;;nan
l1497;lost leaguesSura;calls;;;nan
l1498;laid upBatavia;calls;;;nan
l1499;Chow;calls;;;nan
l1500;g;calls;;;nan
l1501;LSaugor;calls;;;nan
l1502;Onraet;calls;;;nan
l1503;lost to the east of Algoa Bay in 1814, no survivors;calls;;;nan
l1504;driven on shore nr Fort St David by 'a violent storm of wind;calls;;;nan
l1505;Ingeli Mar, lost on Caspar Sands same day;calls;;;nan
l1506;ship leaky;calls;;;nan
l1507;captured by French La Venus;calls;;;nan
l1508;retaken by HMS Magicienne;calls;;;nan
l1509;captured by French La Bellona;calls;;;nan
l1510;retaken, supplied with a new crewBourbon Nov,Bourbon;calls;;;nan
l1511;Bellial, Portugal;calls;;;nan
l1512;lostMadagascar;calls;;;nan
l1513;captured by French frigate La Prenuse in Tellicherry Roads;calls;;;nan
l1514;Gressee;calls;;;nan
l1515;lost in River Shannon Oc;calls;;;nan
l1516;Onores;calls;;;nan
l1517;cSaloomah;calls;;;nan
l1518;Capt Thomas Lucas;calls;;;nan
l1519;Sold to the Sultan of Bantam;calls;;;nan
l1520;wreckedSocotra;calls;;;nan
l1521;South;ships_built_at;;;nan
l1522;Pauli;ships_built_at;;;nan
l1523;Itchenor;ships_built_at;;;nan
l1524;Whitby;ships_built_at;54.48774;-0.61498;british_isles
l1525;the;ships_built_at;-5.08917;-42.80194;atlantic
l1526;Culpe'];ships_built_at;;;nan
l1527;Ipswich;ships_built_at;52.05917;1.15545;british_isles
l1528;Harwich;ships_built_at;51.94194;1.28437;british_isles
l1529;Nov 1805 ten crew injured in skirmish with French ship;voyage_destinations;;;nan
l1530;Philippines;voyage_destinations;;;nan
l1531;From Bengal;voyage_destinations;;;nan
l1532;to remain;voyage_destinations;;;nan
l1533;Cambodia;voyage_destinations;;;nan
l1534;Japan;voyage_destinations;;;nan
l1535;eb 1650 -;voyage_destinations;;;nan
l1536;Banta;voyage_destinations;60.29414;25.04099;indian_ocean
l1537;1806/7 St Helena;voyage_destinations;;;nan
l1538;Apr 1821-30 Sep 1822;voyage_destinations;;;nan
l1539;1802-18 Dec 1803;voyage_destinations;;;nan
l1540;Borne;voyage_destinations;51.94881;11.55865;atlantic
l1541;To remain in India;voyage_destinations;;;nan
l1542;Jan 1681 -28 Aug 1682;voyage_destinations;;;nan
l1543;East Indies;voyage_destinations;;;nan
l1544;1803/4 China;voyage_destinations;;;nan
l1545;the Maldives;voyage_destinations;;;nan
l1546;1831/2 Madras;voyage_destinations;;;nan
l1547;1829/30 China;voyage_destinations;;;nan
l1548;t St David;voyage_destinations;;;nan
l1549;China 1817;voyage_destinations;;;nan
l1550;Oct 1801 recaptured Friendship snow of Vizagapatam from French;voyage_destinations;;;nan
l1551;5 1792/3 Bombay;voyage_destinations;;;nan
l1552;Dec 1700-;voyage_destinations;;;nan
l1553;2 1736/7 Madras;voyage_destinations;;;nan
l1554;Bombay (to remain);voyage_destinations;;;nan
l1555;1722 -;voyage_destinations;;;nan
l1556;Jan 1681-21 Nov 1682;voyage_destinations;;;nan
l1557;New Company voyage;voyage_destinations;;;nan
l1558;Guinea (to remain);voyage_destinations;;;nan
l1559;Mar Cape -17 Apr St Helena -13 Jul Downs 1;voyage_destinations;;;nan
l1560;1832/3 St Helena;voyage_destinations;;;nan
l1561;St Helena -17 Jul Thames;voyage_destinations;;;nan
l1562;1804/5 Madras;voyage_destinations;;;nan
l1563;West Indies;voyage_destinations;;;nan
l1564;8 1828/9 Bombay;voyage_destinations;;;nan
l1565;Jan 1677 -;voyage_destinations;32.29876;-90.18481;atlantic
l1566;Dec 1727 -11 Jun 1729;voyage_destinations;;;nan
l1567;and Bengal;voyage_destinations;;;nan
l1568;Apr Blackwall;voyage_destinations;;;nan
l1569;Nov 1717-11 Jun 1719;voyage_destinations;;;nan
l1570;6 1818/9 Madras;voyage_destinations;;;nan
l1571;(^hina;voyage_destinations;;;nan
l1572;1832/3 Madras;voyage_destinations;;;nan
l1573;815/6 Bombay;voyage_destinations;;;nan
l1574;' Bengal;voyage_destinations;;;nan
l1575;Mar 1812 St Helena -15 May Long Reach;voyage_destinations;;;nan
l1576;1801/2 China;voyage_destinations;;;nan
l1577;1831/2 Bengal;voyage_destinations;;;nan
l1578;Apr 1699 -;voyage_destinations;;;nan
l1579;Nova Scotia;voyage_destinations;;;nan
l1580;Madras L/MAM/B/698G(3) Imprest Book;voyage_destinations;;;nan
l1581;Benkulen (to remain);voyage_destinations;;;nan
l1582;North-West Passage;voyage_destinations;;;nan
l1583;India;voyage_destinations;;;nan
l1584;Sep 1681 -29 Aug 1683;voyage_destinations;;;nan
l1585;South Pacific;voyage_destinations;;;nan
l1586;9 Madras;voyage_destinations;;;nan
l1587;and China;voyage_destinations;;;nan
l1588;Surat Master Thomas Tayl;voyage_destinations;;;nan
l1589;1831/2 China;voyage_destinations;;;nan
l1590;Journal 13 May 1794-14 Sep 1795;voyage_destinations;;;nan
l1591;Bengal 1801 .;voyage_destinations;;;nan
l1592;West Africa;voyage_destinations;;;nan
l1593;1647;voyage_destinations;;;nan
l1594;1648;voyage_destinations;;;nan
l1595;to Bandar Abbas 1649 (twice);voyage_destinations;;;nan
l1596;80 Sia;voyage_destinations;16.57452;107.51066;southeast_asia
l1597;India 1784 L/MAM/B/540C(1) Ledge;voyage_destinations;;;nan
l1598;1785/6 Madras;voyage_destinations;;;nan
l1599;eb 1713 -12 Mar 1715;voyage_destinations;;;nan
l1600;1830/1 St Helena;voyage_destinations;;;nan
l1601;'For India';voyage_destinations;;;nan
l1602;Bantam Master Gilbert Grimes ?;voyage_destinations;;;nan
l1603;Pay Book;voyage_destinations;;;nan
l1604;Helena;voyage_destinations;36.54614;-98.27007;atlantic
l1605;China L/MAM/B/390J Journal 8 Dec 1786-28 Aug 1788;voyage_destinations;;;nan
l1606;Australia;voyage_destinations;;;nan
l1607;1832/3 Bombay;voyage_destinations;;;nan
l1608;Jun Downs;voyage_destinations;;;nan
l1609;Benga;voyage_destinations;;;nan
l1610;China L/MAM/B/131B Deck Log 19 Dec 1831-15 Jun 1832;voyage_destinations;;;nan
l1611;China L/MAM/B/438H Journal 14 Jan 1755-13 Sep 1757 L/MAM/B/438BB(1) Ledger L/MAM/B/438BB(2) Pay Book;voyage_destinations;;;nan
l1612;1700 Gibralta;voyage_destinations;;;nan
l1613;'India';voyage_destinations;;;nan
l1614;Benkulcn;voyage_destinations;;;nan
l1615;Mar 1678 -;voyage_destinations;;;nan
l1616;to remain as country ship;voyage_destinations;;;nan
l1617;1685 -28 Aug 1687;voyage_destinations;;;nan
l1618;Jan 1701 -17 Sep 1702;voyage_destinations;;;nan
l1619;Macassa;voyage_destinations;;;nan
l1620;South Seas;voyage_destinations;;;nan
l1621;Jan 1825-29 Jun Calcutta;voyage_destinations;;;nan
l1622;Holland;voyage_destinations;41.62172;-83.7116;atlantic
l1623;1809;voyage_destinations;;;nan
l1624;Journal on Jonas;voyage_destinations;;;nan
l1625;Lion 17 Mar 1621-22 Jul 1623;voyage_destinations;;;nan
l1626;Richard Swanley Master John Weddell;voyage_destinations;;;nan
l1627;crew;voyage_destinations;;;nan
l1628;Madagasgar;voyage_destinations;;;nan
l1629;the South Seas;voyage_destinations;;;nan
l1630;3 1745/6 Bombay;voyage_destinations;;;nan
l1631;1821/2 St Helena;voyage_destinations;;;nan
l1632;New 1699-6 Mar 1702;voyage_destinations;;;nan
l1633;Macasse;voyage_destinations;;;nan
l1634;1831/2 St Helena;voyage_destinations;;;nan
l1635;Oct Whampoa -19 Jan 1831 Second Bar -11 Apr St Helena -10 Jun Downs;voyage_destinations;;;nan
l1636;Surat (New Company);voyage_destinations;;;nan
l1637;Surat (Licensed ship);voyage_destinations;;;nan
l1638;1698 -;voyage_destinations;;;nan
l1639;eb 1715 -27 Jul 1716;voyage_destinations;;;nan
l1640;Sia;voyage_destinations;;;nan
l1641;1832/3 China;voyage_destinations;;;nan
l1642;739/40 Mokha;voyage_destinations;;;nan
l1643;3 1777/8 Bombay;voyage_destinations;;;nan
l1644;India 1782;voyage_destinations;;;nan
l1645;eb 1682 -29 Aug 1683;voyage_destinations;;;nan
l1646;and Amoy (New Company L/MAM/A/CLVn Journal 2 Dec 1700-16 Sep 1702;voyage_destinations;;;nan
l1647;from India 10 Apr 1783;voyage_destinations;;;nan
l1648;Nov 1682- 11 May 1684;voyage_destinations;;;nan
l1649;Benkulan;voyage_destinations;;;nan
l1650;Sep 1681 -29 Sep 1683;voyage_destinations;;;nan
l1651;May 1792 'stood to sea from St Helena' -19-20 May skirmish with the French fleet;voyage_destinations;;;nan
l1652;Sep Downs;voyage_destinations;;;nan
l1653;Borneo (New Company);voyage_destinations;;;nan
l1654;in England Jul 1810;voyage_destinations;;;nan
l1655;South Wales;voyage_destinations;;;nan
l1656;B;voyage_destinations;;;nan
l1657;British Columbia;voyage_destinations;;;nan
l1658;the Moluccas;voyage_destinations;;;nan
l1659;1825/6 China;voyage_destinations;;;nan
l1660;1719 -18 Mar 1729;voyage_destinations;;;nan
l1661;Bengal (to remain);voyage_destinations;;;nan
l1662;1701 -2 Apr 1703;voyage_destinations;;;nan
l1663;China (Licensed ship);voyage_destinations;;;nan
l1664;Bengal (New Company);voyage_destinations;;;nan
l1665;inc sketches of the ship;voyage_destinations;;;nan
l1666;the season's convoy;voyage_destinations;;;nan
l1667;fish;voyage_destinations;;;nan
l1668;birds;voyage_destinations;;;nan
l1669;Batavia Roads;voyage_destinations;;;nan
l1670;Aug Downs;voyage_destinations;;;nan
l1671;Nov 1683 -21 Mar 1685;voyage_destinations;;;nan
l1672;Bombay (to remain) Downs 4 May 1686-;voyage_destinations;;;nan
l1673;St Helena (to remain);voyage_destinations;;;nan
l1674;eb 1682-8 Aug 1683;voyage_destinations;;;nan
l1675;May 1681 -23 Sep 1682;voyage_destinations;;;nan
l1676;1614;voyage_destinations;;;nan
l1677;1615;voyage_destinations;;;nan
l1678;Surat (to remain);voyage_destinations;;;nan
l1679;1 From Calcutta;voyage_destinations;;;nan
l1680;Dec 1684 -28 Jul 1687;voyage_destinations;;;nan
l1681;To West Indies;voyage_destinations;;;nan
l1682;Madras (to remain);voyage_destinations;;;nan
l1683;8/9 Bengal;voyage_destinations;;;nan
l1684;LMARS 15A-B Journal 11 May 1795-24 Feb 1797;voyage_destinations;;;nan
l1685;South Atlantic;voyage_destinations;;;nan
l1686;Nov 1712-28 Jul 1717;voyage_destinations;;;nan
l1687;Jan 1719-25 Aug 1720;voyage_destinations;;;nan
l1688;Tasmania;voyage_destinations;;;nan
l1689;Jan 1716 -19 Aug 1717;voyage_destinations;;;nan
l1690;Madagasca;voyage_destinations;;;nan
l1691;India 1757;voyage_destinations;;;nan
l1692;Balambanga;voyage_destinations;;;nan
l1693;1796;voyage_destinations;;;nan
l1694;1798 St Helena -17 Mar Downs;voyage_destinations;;;nan
l1695;China (New Company);voyage_destinations;;;nan
l1696;Boston;voyage_destinations;52.97633;-0.02664;british_isles
l1697;Batavia (to remain);voyage_destinations;;;nan
l1698;1830/1 China;voyage_destinations;;;nan
l1699;ap St Mary's;persons_birth;;;nan
l1700;Mezignac nr Bordeaux;persons_birth;;;nan
l1702;Surgeon;persons_birth;;;nan
l1703;Dalgetty;persons_birth;;;nan
l1704;Bowbrickhill;persons_birth;;;nan
l1705;Craigs;persons_birth;;;nan
l1706;purser REGENT 1821/2;persons_birth;;;nan
l1707;commumeed covert Ships Honduras and African trade Aye Tighmente IRAN IENS SY ORO approved Peb Ivehyagad 32);persons_birth;;;nan
l1709;1st mate SCALEBY CASTLE 1832/3 m St Luke's;persons_birth;;;nan
l1710;Edinburgh;persons_birth;55.95206;-3.19648;british_isles
l1711;ap Ealing;persons_birth;;;nan
l1712;Maidenhall;persons_birth;;;nan
l1714;apptd Surgeon at St Helena;persons_birth;;;nan
l1715;Salemstead;persons_birth;;;nan
l1716;Greenock;persons_birth;55.94838;-4.76121;british_isles
l1717;1738;persons_birth;;;nan
l1718;run;persons_birth;;;nan
l1719;Bombay Asst Surgeon;persons_birth;;;nan
l1720;oth ielsd ANA (1804/5! Ah AOLORE RN TET 1805/6;persons_birth;;;nan
l1721;South Petherton;persons_birth;50.94829;-2.80708;british_isles
l1722;Bridgwater;persons_birth;51.12837;-3.00356;british_isles
l1723;Hurstmonceux;persons_birth;;;nan
l1724;Melton Constable;persons_birth;;;nan
l1725;3rd mate RAVENSWORTH 1785/6 (approved 1786;persons_birth;;;nan
l1726;Glasgow;persons_birth;55.86515;-4.25763;british_isles
l1727;3rd mate DUKE OF GRAFTON 1775/6;persons_birth;;;nan
l1728;Stogursey;persons_birth;;;nan
l1730;Saxthorpe;persons_birth;;;nan
l1731;1765/6 b England;persons_birth;;;nan
l1732;4th mate AIRLEY CASTLE 1787/8 (approved 1788;persons_birth;;;nan
l1733;Hendon;persons_birth;51.6;-0.21667;british_isles
l1734;Mirzapur;persons_birth;24.10287;90.09841;bengal_presidency
l1735;d;persons_birth;;;nan
l1736;Denaticon;persons_birth;;;nan
l1737;ap Waltham Lincs;persons_birth;;;nan
l1738;Sestland;persons_birth;;;nan
l1739;Stale APMERAIL GARDNER 180g/9 m St Mary's;persons_birth;;;nan
l1741;Member Bengal Medical Board & Insp-Gen of Hospitals;persons_birth;;;nan
l1742;3rd mate ROYAL BISHOP 1785/6 (approved 1726;persons_birth;;;nan
l1743;Milbrooke;persons_birth;;;nan
l1744;ap Tottenham;persons_birth;;;nan
l1745;lost im senects;persons_birth;;;nan
l1746;employed attending the wreck until;persons_birth;;;nan
l1747;Knockdrin Castle;persons_birth;;;nan
l1748;Aldham;persons_birth;;;nan
l1749;resigned active service 2nd Mysore War 1781-82;persons_birth;;;nan
l1750;4th mate PHOENIX (3) 1799/1800 (approved 1800;persons_birth;;;nan
l1751;ap St Augustine's;persons_birth;;;nan
l1752;Rottingdean;persons_birth;50.80984;-0.05939;british_isles
l1753;approved as 1st mats HIECTOR 176;persons_birth;;;nan
l1754;St Marylebone;persons_birth;;;nan
l1755;Kettle;persons_birth;;;nan
l1756;Sanguhar;persons_birth;;;nan
l1757;Redgrave;persons_birth;;;nan
l1758;Norwich;persons_birth;52.62783;1.29834;british_isles
l1759;Harley St;persons_birth;;;nan
l1760;Banff;persons_birth;57.66477;-2.52964;british_isles
l1761;Tenby;persons_birth;51.67279;-4.70447;british_isles
l1762;& Lee;persons_birth;51.45556;0.00515;british_isles
l1763;d Calcutta m Hammersmith;persons_birth;;;nan
l1764;Lambeth;persons_birth;51.49635;-0.11152;british_isles
l1765;Stratford-on-Avon;persons_birth;;;nan
l1766;seoma Gy) & 2nd mate (ly) James & Rebeses to Antique;persons_birth;;;nan
l1767;Clement's Lane;persons_birth;;;nan
l1768;South Leith;persons_birth;;;nan
l1769;resigned;persons_birth;;;nan
l1770;St Alphage's pa;persons_birth;;;nan
l1771;d Calcutta;persons_birth;;;nan
l1772;Hertford;persons_birth;51.79588;-0.07854;british_isles
l1773;Kirkaldy;persons_birth;;;nan
l1774;3nd matte MUAIRCEMUOINESS OF ELY 1821/2;persons_birth;;;nan
l1775;Milburn St Andrews;persons_birth;;;nan
l1776;Old Melton;persons_birth;;;nan
l1777;ap Whitby;persons_birth;;;nan
l1778;3rd mate PONSBORNE 1779/80;persons_birth;;;nan
l1779;d3;persons_birth;;;nan
l1780;Kinnettles;persons_birth;;;nan
l1781;St Andrew's pa;persons_birth;;;nan
l1782;St Peter Port;persons_birth;49.45981;-2.53527;british_isles
l1783;4th mate THISTLEWORTH 1718/9 (to 1720);persons_birth;;;nan
l1784;England senmem LORD CANIN (1) 1771/2;persons_birth;;;nan
l1786;d7;persons_birth;;;nan
l1787;Capt EARL OF BALCARRAS 1827/8;persons_birth;;;nan
l1788;Rhynie;persons_birth;;;nan
l1789;Kilmarnock;persons_birth;55.61171;-4.49581;british_isles
l1790;im Rotterdam;persons_birth;;;nan
l1791;Newsom;persons_birth;;;nan
l1792;resigned secvod es sumpeon to ir Eyre Covte the Carnatic;persons_birth;;;nan
l1793;Perthshire;persons_birth;;;nan
l1794;Holbrook;persons_birth;51.9834;1.15854;british_isles
l1795;(approved 1786;persons_birth;;;nan
l1796;St Martin-in-the-Fields pa;persons_birth;;;nan
l1797;4th mate CARMARTHEN 1805/6 ed as 2nd mate DUBLIN 1787;persons_birth;;;nan
l1798;Capt THOMAS GRENVILLE 1832/3 m Bridgewater;persons_birth;;;nan
l1799;3rd mate b Ireland;persons_birth;;;nan
l1800;Stockton;persons_birth;51.14528;-2.03194;british_isles
l1801;Fort William;persons_birth;56.81648;-5.11208;british_isles
l1802;Harrow;persons_birth;51.57835;-0.33208;british_isles
l1803;Englancl midshipman DAVID SCOTT (2) 1807/8;persons_birth;;;nan
l1804;d St Helena;persons_birth;;;nan
l1805;apptd Bengal Asst Surgeon (in absentia);persons_birth;;;nan
l1806;Newbyth;persons_birth;;;nan
l1807;Eccles;persons_birth;53.48333;-2.33333;british_isles
l1808;Walcot;persons_birth;;;nan
l1810;retired active service Nepal War 1815-16;persons_birth;;;nan
l1811;Crieff;persons_birth;56.37268;-3.83891;british_isles
l1812;Prestwich;persons_birth;53.53333;-2.28333;british_isles
l1813;ind mate COMDSTRIBART 1811/2 m St Stephen's Coleman Street;persons_birth;;;nan
l1814;Derby;persons_birth;52.92277;-1.47663;british_isles
l1815;Westbury;persons_birth;51.26;-2.1875;british_isles
l1816;Kirby Stephen;persons_birth;;;nan
l1817;im Wales;persons_birth;;;nan
l1818;ap Pocklington;persons_birth;;;nan
l1819;Blandford;persons_birth;;;nan
l1820;Stowmarket;persons_birth;52.18893;0.99774;british_isles
l1821;2nd mate YORK (4) 1785/6 (approved 1786;persons_birth;;;nan
l1822;St Saviour's pa;persons_birth;;;nan
l1823;Llandilo;persons_birth;-33.71286;150.7465;indian_ocean
l1824;4th mate WARREN HASTINGS (1) 1784/5 (approved 1785;persons_birth;;;nan
l1825;ap St Margaret Moses;persons_birth;;;nan
l1826;Shadbrook;persons_birth;;;nan
l1828;Cupar Angus;persons_birth;;;nan
l1829;Hickling;persons_birth;;;nan
l1830;Alford;persons_birth;53.25943;0.17625;british_isles
l1831;it England;persons_birth;;;nan
l1832;Aor Ipswich;persons_birth;;;nan
l1833;Hereford;persons_birth;52.05684;-2.71482;british_isles
l1834;Brechin;persons_birth;56.72993;-2.65729;british_isles
l1836;St Cuthbert's pa;persons_birth;;;nan
l1837;seaman EAGLE (6) packet 1779-22 when she was captured;persons_birth;;;nan
l1838;Croydon;persons_birth;51.38333;-0.1;british_isles
l1839;p23 Englamd;persons_birth;;;nan
l1840;1st mate ORWELL 1829/30 & 1831/2 m St Helena;persons_birth;;;nan
l1841;‘b;persons_birth;;;nan
l1842;Stilton;persons_birth;52.48788;-0.28894;british_isles
l1844;volunteer 1st Class;persons_birth;;;nan
l1845;Forkc;persons_birth;;;nan
l1846;Capt & Principal Managing Owner SEVERN (2) 1832/3 m St Luke's;persons_birth;;;nan
l1847;accidentally killed;persons_birth;;;nan
l1848;Nantwich;persons_birth;53.06878;-2.52051;british_isles
l1849;ur St Pancras;persons_birth;;;nan
l1850;Campsie;persons_birth;-33.9125;151.10279;indian_ocean
l1851;im Scotland;persons_birth;;;nan
l1852;Claines;persons_birth;;;nan
l1853;St Botolph's pa;persons_birth;;;nan
l1854;purser LASCELLES 1791/2;persons_birth;;;nan
l1855;Drimnasallie;persons_birth;;;nan
l1856;Monmouth;persons_birth;51.81265;-2.71363;british_isles
l1857;Moy Lamiasry;persons_birth;;;nan
l1858;Keilmoe;persons_birth;;;nan
l1859;cl767;persons_birth;;;nan
l1861;St Peter's pa;persons_birth;;;nan
l1862;dn Seatlant;persons_birth;;;nan
l1863;Ord untae HILLSBOROUGH (2) 1785/6 (gpproved Peb 1796;persons_birth;;;nan
l1864;6th mate KING WILLIAM (3) 1733/4 Carter;persons_birth;;;nan
l1865;Barton Mere;persons_birth;;;nan
l1866;Dundee;persons_birth;56.46913;-2.97489;british_isles
l1867;Fort George;persons_birth;46.18788;-123.83125;atlantic
l1868;6th mate b 1? Appr Guisborough;persons_birth;;;nan
l1869;England seaman PLASSEY West Indies ly 6m;persons_birth;;;nan
l1870;Seb nate MOT INGIAI (@) Wresy>;persons_birth;;;nan
l1871;also Principal Managing Owner BROXBORNEBURY 1824/5-1831/2 m St Marylebone;persons_birth;;;nan
l1872;pa St Olave Hart St;persons_birth;;;nan
l1873;1st mate AENISTON (@ppaoved 1806;persons_birth;;;nan
l1874;l766 Lilley nr Hitchin;persons_birth;;;nan
l1875;Capt THOMAS COUTTS 1821/2;persons_birth;;;nan
l1876;Dumfries;persons_birth;55.06959;-3.61139;british_isles
l1877;drowned;persons_birth;;;nan
l1878;1st mate KELLIE CASTLE 1832/3 m Walton-on-Thames;persons_birth;;;nan
l1879;Hill House;persons_birth;;;nan
l1880;Heston;persons_birth;51.48363;-0.37577;british_isles
l1881;Gib mats WINDSOUS (2) 1822/3;persons_birth;;;nan
l1882;Ecinbargh;persons_birth;;;nan
l1883;purser LADY MELVILLE 1821/2;persons_birth;;;nan
l1884;Samgect S;persons_birth;;;nan
l1885;resigned 1794;persons_birth;;;nan
l1886;ap Woodford;persons_birth;;;nan
l1887;Benge;persons_birth;;;nan
l1888;d Bandar Abbas;persons_birth;;;nan
l1889;pa St George's Hanover Sq;persons_birth;;;nan
l1890;Ang & bep St Mary's;persons_birth;;;nan
l1891;4th mate FORDWICH 1728/9 (from 1730);persons_birth;;;nan
l1892;North Berwick;persons_birth;56.05825;-2.7229;british_isles
l1893;2nd mate Creighton;persons_birth;;;nan
l1894;sick leave home 1806;persons_birth;;;nan
l1895;Dalkeith;persons_birth;55.89317;-3.06806;british_isles
l1896;5th mate WARREN HASTINGS (1) 1792/3;persons_birth;;;nan
l1897;Aberdeen;persons_birth;57.14369;-2.09814;british_isles
l1898;Turriff;persons_birth;57.5384;-2.45932;british_isles
l1900;3rd mate WINCHELSEA (3) 1830/1 m3 St James;persons_birth;;;nan
l1901;4th mate LASCELLES 1784/5 (approved 1785;persons_birth;;;nan
l1902;Norfolk;persons_birth;44.80089;-74.99103;atlantic
l1903;purser WILLIAM PITT (1) 1789/90;persons_birth;;;nan
l1904;Head Surgeon at Calcutta;persons_birth;;;nan
l1905;Islay;persons_birth;55.78526;-6.23886;british_isles
l1906;surgeon CASTLE HUNTLEY 1819/20;persons_birth;;;nan
l1907;Campbeltown;persons_birth;55.42583;-5.60764;british_isles
l1908;North Knabdale;persons_birth;;;nan
l1909;Kilbride Castle;persons_birth;;;nan
l1910;America;persons_birth;51.43667;5.97917;atlantic
l1911;Brooke;persons_birth;52.54175;1.37076;british_isles
l1912;Newington;persons_birth;51.35217;0.66768;british_isles
l1913;ap Lindfield;persons_birth;;;nan
l1914;Walthamstow;persons_birth;51.59067;-0.02077;british_isles
l1915;Hartland;persons_birth;43.10501;-88.34204;atlantic
l1916;1st mate HARTWELL 1786/7;persons_birth;;;nan
l1917;Capt SIR WILLIAM PULTENEY 1804/5;persons_birth;;;nan
l1918;retired;persons_birth;;;nan
l1919;Beb Dumdayell;persons_birth;;;nan
l1921;Monthrath;persons_birth;;;nan
l1923;Berkeley Sq;persons_birth;;;nan
l1924;Cockpen;persons_birth;;;nan
l1925;Perth;persons_birth;56.39522;-3.43139;british_isles
l1926;4th mate ROYAL BISHOP 1785/6 (approved 1786;persons_birth;;;nan
l1927;MARQUIS CAMDEN 1823/4;persons_birth;;;nan
l1928;Cove;persons_birth;57.1;-2.08333;british_isles
l1929;Kilmesula;persons_birth;;;nan
l1930;Scotlane;persons_birth;;;nan
l1931;Millan;persons_birth;44.09973;3.07848;atlantic
l1932;Hadley;persons_birth;52.7;-2.48333;british_isles
l1933;Asst Surgeon;persons_birth;;;nan
l1934;d m Cameron;persons_birth;;;nan
l1935;Newington Green;persons_birth;;;nan
l1936;Trevethin;persons_birth;;;nan
l1938;Bleach Field;persons_birth;;;nan
l1939;1st mate SPEAKER 1771/2 (approved 1772;persons_birth;;;nan
l1940;Kessingland;persons_birth;52.41987;1.70878;british_isles
l1941;& hep Shustoke;persons_birth;;;nan
l1942;Member of Wiedicel Board;persons_birth;;;nan
l1943;Shetland Isles;persons_birth;;;nan
l1944;3rd mate ANTELOPE (4) 1781/2 (approved 1782;persons_birth;;;nan
l1945;Illan Court;persons_birth;;;nan
l1946;Gt Ryburgh;persons_birth;;;nan
l1947;Bovey Tracey;persons_birth;50.59259;-3.67543;british_isles
l1948;Newton Bushell;persons_birth;;;nan
l1949;Tiverton;persons_birth;53.13333;-2.66667;british_isles
l1950;Bath;persons_birth;51.3751;-2.36172;british_isles
l1951;ed 1782;persons_birth;;;nan
l1952;3rd mate ROCKINGHAM (1) 1785/6 (approved 1786;persons_birth;;;nan
l1953;1st mate Heater ‘0 Jamaica (approved 1786;persons_birth;;;nan
l1954;5th mate GENERAL Totlb 1824/5;persons_birth;;;nan
l1955;Lambourn;persons_birth;51.50805;-1.53105;british_isles
l1956;Ayr;persons_birth;55.46273;-4.63393;british_isles
l1957;Whitehaven;persons_birth;54.54897;-3.58412;british_isles
l1958;Ilfracombe;persons_birth;51.2093;-4.11344;british_isles
l1959;Barnstaple;persons_birth;51.08022;-4.05808;british_isles
l1960;Hambleton;persons_birth;53.76667;-1.16667;british_isles
l1961;m7 Walcot;persons_birth;;;nan
l1964;Alloa;persons_birth;56.11586;-3.78997;british_isles
l1965;Toulouse;persons_birth;43.60426;1.44367;atlantic
l1966;& St George's Bloomsbury;persons_birth;;;nan
l1967;St Giles;persons_birth;;;nan
l1968;1748;persons_birth;;;nan
l1969;dat sea;persons_birth;;;nan
l1972;Redbridge;persons_birth;;;nan
l1973;Aylesbury;persons_birth;51.81665;-0.81458;british_isles
l1974;Sid tnate INDIAN TRADER 1794/5;persons_birth;;;nan
l1975;Virginia;persons_birth;53.83389;-7.07556;british_isles
l1976;5th mate KELLIE CASTLE 1828/9;persons_birth;;;nan
l1977;4th mate “RACRIL OL SAND WIGHT F789 (approved 1779;persons_birth;;;nan
l1978;Metz;persons_birth;49.11911;6.17269;atlantic
l1979;St John's pa;persons_birth;;;nan
l1980;Barnsley;persons_birth;53.55;-1.48333;british_isles
l1981;Bengal Asst Surgeon;persons_birth;;;nan
l1982;Tneland;persons_birth;;;nan
l1983;Haddington;persons_birth;55.95612;-2.78332;british_isles
l1984;Aberdeenshire;persons_birth;;;nan
l1985;Brettenham;persons_birth;;;nan
l1986;Gerloch;persons_birth;;;nan
l1988;approved as 3rd mate ROCKINGHAM (1) 1786;persons_birth;;;nan
l1989;m Llandygwydd;persons_birth;;;nan
l1990;Wick;persons_birth;58.43906;-3.09424;british_isles
l1991;im Rnglamd;persons_birth;;;nan
l1992;d Bombay;persons_birth;;;nan
l1993;Dunfermline;persons_birth;56.07156;-3.45887;british_isles
l1994;Chatham;persons_birth;51.37891;0.52786;british_isles
l1995;lost overboard m St Dunstan's;persons_birth;;;nan
l1996;Wormley;persons_birth;51.13622;-0.64673;british_isles
l1997;3rd mate BESSBOROUGH 1785/6 (approved 1786;persons_birth;;;nan
l1998;1st mate DUCHESS OF ATHOL 1831/2 m Cork Cathedral;persons_birth;;;nan
l1999;1740;persons_birth;;;nan
l2000;4th mate STAFFORD (2) 1777/8 (approved eb 1778;persons_birth;;;nan
l2001;Neath;persons_birth;51.66317;-3.80443;british_isles
l2002;Margate;persons_birth;51.38132;1.38617;british_isles
l2003;Ryton-upon-Dunsmore;persons_birth;;;nan
l2004;Welshpool;persons_birth;52.65973;-3.1471;british_isles
l2005;St Mary's pa;persons_birth;;;nan
l2006;1st mate LORD WALSINGHAM 1786/7 (approved 1787;persons_birth;;;nan
l2007;Enniskillen;persons_birth;54.34615;-7.64133;british_isles
l2008;Ross;persons_birth;39.31228;-84.6505;atlantic
l2010;St Altbans;persons_birth;;;nan
l2011;Capt ST HELENA b St Helen's pa;persons_birth;;;nan
l2012;surgeon HUDDART 1814/5 b England;persons_birth;;;nan
l2013;Kirk Newton;persons_birth;;;nan
l2014;ap Whorlton;persons_birth;;;nan
l2015;2nd mate MIMVIDLESEX @) 1785/6 (approved autho trade Gun;persons_birth;;;nan
l2016;at sea;persons_birth;;;nan
l2017;Cornhill;persons_birth;;;nan
l2018;Sunderland;persons_birth;54.90465;-1.38222;british_isles
l2019;lost overboard;persons_birth;;;nan
l2020;1727;persons_birth;;;nan
l2021;wounded action agst French 1759;persons_birth;;;nan
l2022;Prescot St;persons_birth;;;nan
l2023;“Kb mate LAP WING (1) Lays;persons_birth;;;nan
l2024;1774. Windsor;persons_birth;51.48333;-0.6;british_isles
l2025;Bishopsgate;persons_birth;;;nan
l2026;St Luke's pa;persons_birth;;;nan
l2027;Cumberland;persons_birth;41.96677;-71.43284;atlantic
l2028;St Stephen's Walbrook;persons_birth;;;nan
l2029;& tep St Macy';persons_birth;;;nan
l2030;appointed Asst Bombay Hospital;persons_birth;;;nan
l2031;Little Clacton;persons_birth;51.82557;1.14215;british_isles
l2032;Logie;persons_birth;;;nan
l2033;midshipman MARQUIS OF ROCKINGHAM (2) 1775/6;persons_birth;;;nan
l2035;Dores;persons_birth;;;nan
l2036;Stepney;persons_birth;51.5175;-0.04292;british_isles
l2037;seaman & 1st mate Royal Clubb and Adriatic Greenland and Newfoundland trade 7y 9m;persons_birth;;;nan
l2038;Love Lane;persons_birth;;;nan
l2039;Canterbury;persons_birth;51.27904;1.07992;british_isles
l2040;im Smgtends ome voyswe to indie;persons_birth;;;nan
l2041;Barking;persons_birth;51.53333;0.08333;british_isles
l2042;run 4th mate LADY RAFFLES 1825/6;persons_birth;;;nan
l2043;pa St Chad's;persons_birth;;;nan
l2044;Gerrard or Gerard;persons_birth;;;nan
l2045;midshipman (2y 6m);persons_birth;;;nan
l2046;d b pa Christ Church;persons_birth;;;nan
l2047;Montrose;persons_birth;56.71683;-2.46695;british_isles
l2048;4h mate NEPTUNE (4) 1785/6 (approved 1786;persons_birth;;;nan
l2049;Kirk Oswald;persons_birth;;;nan
l2050;d Macao m St Pancras;persons_birth;;;nan
l2052;5th mate GATTON 1777/8;persons_birth;;;nan
l2053;Royal Navy 8y 4m;persons_birth;;;nan
l2054;Inverness-shire;persons_birth;;;nan
l2055;Portsoy;persons_birth;57.68144;-2.68956;british_isles
l2056;4th mate EARL OF DARTMOUTH 1779/80 (approved 1780;persons_birth;;;nan
l2057;ur Ilfracombe;persons_birth;;;nan
l2058;d 1890;persons_birth;;;nan
l2059;Bordeaux;persons_birth;44.84044;-0.5805;atlantic
l2060;ur St Paul's Covent Gdn;persons_birth;;;nan
l2061;Mount Melick;persons_birth;;;nan
l2062;Grantham;persons_birth;52.91149;-0.64184;british_isles
l2063;Dominica;persons_birth;;;nan
l2064;St Peter's Close;persons_birth;;;nan
l2065;3rd mate VALENTINE (3) 1793/4 (approved 1794;persons_birth;;;nan
l2066;1st Lieutenant Achilles cutter (3m) and Job cutter (2m);persons_birth;;;nan
l2068;Carron;persons_birth;56.02611;-3.79251;british_isles
l2069;Wootton Hall;persons_birth;;;nan
l2070;Blunderston;persons_birth;;;nan
l2071;Great Yarmouth ?;persons_birth;52.60831;1.73052;british_isles
l2072;Sotheniom;persons_birth;;;nan
l2073;Stirling;persons_birth;56.11903;-3.93682;british_isles
l2074;Msg Camengate;persons_birth;;;nan
l2076;‘bap Fores;persons_birth;;;nan
l2077;Foggymill;persons_birth;;;nan
l2078;ur;persons_birth;;;nan
l2079;Johnshaven;persons_birth;;;nan
l2080;Haxbourgrace;persons_birth;;;nan
l2081;Chipping Ongar;persons_birth;51.70379;0.24548;british_isles
l2083;4th mate MARQUIS OF WELLINGTON (1) 1814/5 (approved 1814;persons_birth;;;nan
l2084;Pitfern;persons_birth;;;nan
l2085;St Swithin's pa;persons_birth;;;nan
l2086;1730;persons_birth;;;nan
l2087;2nd mate SUFFOLK (1) 1758/9;persons_birth;;;nan
l2088;purser PRINCESS CHARLOTTE OF WALES 1822/3;persons_birth;;;nan
l2089;Surgeon at Benkulen;persons_birth;;;nan
l2090;Baghent) seaman CIES @) 1792/3;persons_birth;;;nan
l2091;4th mate BELVEDERE 1800/1 (approved 1801;persons_birth;;;nan
l2092;aorington or Marington;persons_birth;;;nan
l2093;& bao  Bermondsey;persons_birth;;;nan
l2094;Spatree;persons_birth;;;nan
l2095;Kensington;persons_birth;51.50094;-0.19175;british_isles
l2096;Weybridge;persons_birth;51.37178;-0.45975;british_isles
l2097;served im Jen Charnock's war agst the Nawab af Bengal 1636-87;persons_birth;;;nan
l2098;MB 1785;persons_birth;;;nan
l2099;ur Staynton;persons_birth;;;nan
l2100;Stokesley;persons_birth;54.46998;-1.1933;british_isles
l2101;Datsham;persons_birth;;;nan
l2102;4th mate LADY BURGES 1803/4;persons_birth;;;nan
l2103;Caldecote Hall;persons_birth;;;nan
l2104;Tilbury Fort;persons_birth;51.46248;0.35856;british_isles
l2105;Kirkcaldy;persons_birth;56.11683;-3.15999;british_isles
l2106;St Andrew's;persons_birth;;;nan
l2107;Nb toate POCOCIS 1258/9;persons_birth;;;nan
l2109;went home 1757;persons_birth;;;nan
l2110;4th mate HUGH INGLIS 1815/6 (approved 1816;persons_birth;;;nan
l2111;reinstated;persons_birth;;;nan
l2112;4th mate GRENVILLE 1774/5 (approved 1775;persons_birth;;;nan
l2113;Aweltenndsy;persons_birth;;;nan
l2114;Gaicbonwugh;persons_birth;;;nan
l2115;Coylton;persons_birth;55.44528;-4.5195;british_isles
l2116;Oban;persons_birth;56.41535;-5.47184;british_isles
l2117;Kiloredtomont;persons_birth;;;nan
l2118;favo vorages to India;persons_birth;;;nan
l2119;Wigton;persons_birth;54.82482;-3.16114;british_isles
l2120;resigned 1819;persons_birth;;;nan
l2121;ap Basingstoke;persons_birth;;;nan
l2122;Capt MORLEY 1828/9 orred;persons_birth;;;nan
l2123;resigned Haskins;persons_birth;;;nan
l2124;Cestieliond;persons_birth;;;nan
l2125;co Durham;persons_birth;;;nan
l2126;4th mate ALNWICK CASTLE 1814/5 (approved 1815;persons_birth;;;nan
l2127;Liskeard;persons_birth;50.4545;-4.46517;british_isles
l2128;Dunbar;persons_birth;56.00062;-2.51418;british_isles
l2129;1785;persons_birth;;;nan
l2130;& baw $ Ape Leyton;persons_birth;;;nan
l2131;Illugan;persons_birth;;;nan
l2132;3nd mate LORD MIACARTIOSY LPS ud mats BAR OF WiCOMILE Ts6r? (approved 1787;persons_birth;;;nan
l2133;Northallerton;persons_birth;54.33901;-1.43243;british_isles
l2134;Web 17S4 Wells;persons_birth;;;nan
l2135;Musselburgh;persons_birth;55.9417;-3.04991;british_isles
l2136;Richmond;persons_birth;51.46171;-0.30633;british_isles
l2137;im Buwlend;persons_birth;;;nan
l2138;4th mate UNION (5) 1806/7;persons_birth;;;nan
l2139;Queensferry;persons_birth;55.99089;-3.39847;british_isles
l2140;3rd mate EUROPA (2) 1781/2 (approved 1782;persons_birth;;;nan
l2141;Battle;persons_birth;50.91732;0.48417;british_isles
l2142;Havre de Grace;persons_birth;39.54928;-76.09162;atlantic
l2143;2nd mate MINERVA (7) 1824/5;persons_birth;;;nan
l2144;Grange;persons_birth;-27.42251;153.01527;indian_ocean
l2145;Maidstone;persons_birth;51.26667;0.51667;british_isles
l2146;d Edinburgh active service Third Maratha War 1817-18;persons_birth;;;nan
l2147;Alva;persons_birth;56.15284;-3.80505;british_isles
l2148;b Llanbadarn;persons_birth;;;nan
l2149;Lyme Regis;persons_birth;50.72654;-2.93477;british_isles
l2150;midshipman HMS Monmouth;persons_birth;;;nan
l2151;ap Rhayader;persons_birth;;;nan
l2152;North Crescent;persons_birth;;;nan
l2153;l Cumlurg;persons_birth;;;nan
l2154;Shorwell;persons_birth;;;nan
l2155;presented as 4th mate LORD MACARTNEY 1795/6;persons_birth;;;nan
l2156;Newport;persons_birth;52.76684;-2.37734;british_isles
l2157;Swansea;persons_birth;51.62079;-3.94323;british_isles
l2158;4th mate HUGH INGLIS 1809/10 (approved 1810;persons_birth;;;nan
l2159;pa St Michael's Cornhill;persons_birth;;;nan
l2161;Ulverston;persons_birth;54.19594;-3.09626;british_isles
l2162;Bardsea;persons_birth;;;nan
l2163;ap Donagh;persons_birth;;;nan
l2164;Traquair;persons_birth;;;nan
l2165;Mainz;persons_birth;49.98419;8.2791;atlantic
l2166;Sileby;persons_birth;52.73286;-1.10773;british_isles
l2167;Madras Asst Surgeon;persons_birth;;;nan
l2168;4th mate VANSITTART 1772/3 (approved 1773;persons_birth;;;nan
l2169;Bengal Supernumerary Surgeon;persons_birth;;;nan
l2170;Harwood;persons_birth;;;nan
l2171;Burntisland;persons_birth;56.05865;-3.23664;british_isles
l2172;Hammersmith;persons_birth;51.49384;-0.22882;british_isles
l2173;Ferrybridge;persons_birth;53.71058;-1.27948;british_isles
l2174;Ramsgate;persons_birth;51.33568;1.41797;british_isles
l2175;Dingwall;persons_birth;57.59531;-4.42721;british_isles
l2176;Seo & tap St Colas;persons_birth;;;nan
l2177;Whitekirk;persons_birth;;;nan
l2178;Macias Asst Sunysem Noy 1782;persons_birth;;;nan
l2179;Eastbourne;persons_birth;50.76871;0.28453;british_isles
l2180;d LE Si Mathew's Pricey St;persons_birth;;;nan
l2181;d b Barnstaple;persons_birth;;;nan
l2182;Cape ASTELL 1823/4 & 1826/7 ‘ewin;persons_birth;;;nan
l2183;Folkestone;persons_birth;51.08169;1.16734;british_isles
l2184;4th mate RHODA 1757/8;persons_birth;;;nan
l2185;Newburgh;persons_birth;56.35079;-3.2365;british_isles
l2186;Carnwath;persons_birth;55.70036;-3.62579;british_isles
l2187;Clackmannan;persons_birth;56.10743;-3.75098;british_isles
l2188;British garrison of New York;persons_birth;;;nan
l2189;captured by French off Benkulen 794;persons_birth;;;nan
l2190;run Lyons;persons_birth;;;nan
l2191;Bengal Surgeon;persons_birth;;;nan
l2192;cl1554 Basingstoke;persons_birth;;;nan
l2193;Hunsdon;persons_birth;;;nan
l2194;North Leith;persons_birth;;;nan
l2195;1795;persons_birth;;;nan
l2196;'b Beonsteple;persons_birth;;;nan
l2197;Thorley;persons_birth;;;nan
l2198;4th mate PIGOT (2) 1792/3 (approved 1793;persons_birth;;;nan
l2199;Inch;persons_birth;;;nan
