location_id;location;category;lat;lon;region
l1;Downs;calls;51.1108;1.2923;british_isles
l3;Narsipur;calls;12.21;76.906;madras_presidency
l6;East India Dock;calls;51.30292;0.0035;british_isles
l28;Anjengo;calls;8.4833;76.9167;madras_presidency
l40;Sao Tiago;calls;15.04;-23.38;atlantic
l42;Khanderi;calls;18.7042;72.8131;bombay_presidency
l43;Colaba;calls;18.91;72.81;bombay_presidency
l47;Reunion;calls;-21.0652;55.3157;indian_ocean
l53;Lintin;calls;22.2446;113.4813;china
l75;Fort St David;calls;11.75;79.75;madras_presidency
l76;Mauritius;calls;-20.2;57.5;indian_ocean
l139;Spithead;calls;50.7514;-1.13667;british_isles
l155;Mokha;calls;13.1913;43.15;indian_ocean
l176;Cagayan Sulu;calls;6.5841;118.3047;southeast_asia
l202;Socotra;calls;12.3036;53.5512;indian_ocean
l208;Bocca Tigris;calls;22.7933;113.5979;china
l218;River Thames;calls;51.4959;0.514031;british_isles
l222;Dungeness;calls;50.55;0.58;british_isles
l233;Kedah;calls;6.0742;100.2146;southeast_asia
l242;Point de Galle;calls;6.0158;80.1256;madras_presidency
l301;Hormuz;calls;27.0403;56.2736;indian_ocean
l346;Martinique;calls;14.39;-61.0054;atlantic
l353;Mahim;calls;19.035;72.84;bombay_presidency
l369;Karrack;calls;29.1528;50.193;indian_ocean
l379;Negrais;calls;16.2;94.12;bengal_presidency
l396;Coninga;calls;16.5758;82.1518;madras_presidency
l402;Kidderpore;calls;22.536323;88.316654;bengal_presidency
l441;Delagoa Bay;calls;-25.59;32.42;indian_ocean
l447;Ryukyu Islands;calls;26.3;127.54;china
l543;Orkneys;calls;59.0;-3.0;british_isles
l588;Resolution Bay;calls;-41.0731;174.1332;indian_ocean
l589;Tahiti;calls;-17.4;-149.25;indian_ocean
l596;Canton river;calls;22.476411;113.750545;china
l965;Great Nanka;calls;-2.25;105.48;southeast_asia
l1167;Anjengo Cape;calls;8.4833;76.9167;madras_presidency
l1176;All Saints' Bay, Brazil;calls;-12.51;-38.38;atlantic
l1242;Krakatoa;calls;-6.0607;105.2523;southeast_asia
l1349;Cape Verde;calls;15.55;-23.55;atlantic
l1367;Port Cornwallis;calls;13.17;93.05;southeast_asia
l1369;Cape Augustine;calls;-8.1723;-35.0148;atlantic
l1376;Norfolk Island;calls;-29.02;167.57;indian_ocean
l1705;Newcastle-on-Tyne;people_birth;54.98;-1.61;british_isles
l1800;Tweedmouth;people_birth;55.761;-2.01;british_isles
l1825;Kilmartin;people_birth;56.133;-5.487;british_isles
l1927;Crathie;people_birth;57.0225;-3.1255;british_isles
l1935;Sorbie;people_birth;54.79;-4.43;british_isles
l2252;Berwick-upon-Tweed;people_birth;55.4609;-2.0009;british_isles
l2538;Fleet St;people_baptised;51.5138;-0.1105;british_isles
l2565;Soho;people_baptised;51.3046;-0.752;british_isles
l2575;Bloomsbury;people_baptised;51.5201;-0.1288;british_isles
l2591;Pembrokeshire;people_baptised;51.5042;-4.5032;british_isles
l576;Leith;calls;55.98;-3.17;british_isles
l933;Ireland;calls;53.2658;-7.3011;british_isles
l1037;Scilly;calls;49.55;-6.2;british_isles
l1084;Bab el Mandeb;calls;12.35;43.2;indian_ocean
l2045;Southwark;people_birth;51.4988;-0.0901;british_isles
l2422;Sotterley;people_birth;52.401;1.61;british_isles
l2445;Rodborough;people_birth;51.744;-2.215;british_isles
l2604;Wapping;people_baptised;51.5073;-0.061;british_isles
l1673;England;people_birth;52.4387;-1.3478;british_isles
l1666;Scotland;people_birth;56.6549;-4.3368;british_isles
l1936;Wales;people_birth;52.3965;-3.7382;british_isles
l1928;Inverness;people_birth;57.4778;-4.2247;british_isles
l8;Calcutta;calls;22.3403;88.2212;bengal_presidency
l2250;Kingston;people_birth;53.444;-0.1957;british_isles
l56;Madeira;calls;32.45;-17.0;atlantic
l1678;Yorkshire;people_birth;54.0;-2.0;british_isles
l4;Madras;calls;13.457;80.163;madras_presidency
l2399;Cathcart;people_birth;55.8195;-4.2679;british_isles
l2255;Midlothian;people_birth;55.5339;-3.0407;british_isles
l2218;Harris;people_birth;57.91;-6.83;british_isles
l2014;Cameron;people_birth;56.2953;-2.8529;british_isles
l1808;Guernsey;people_birth;49.45;-2.58;british_isles
l1750;Dysart;people_birth;56.13;-3.11;british_isles
l1902;Lithgow;people_birth;55.979;-3.6105;british_isles
l1864;St Andrews;people_birth;56.3404;-2.7955;british_isles
l5;St Helena;calls;-15.58;-5.42;atlantic
l2187;Alphington;people_birth;50.42;-3.32;british_isles
l2181;Applecross;people_birth;57.43304;-5.80958;british_isles
l16;Macao;calls;22.1;113.33;china
l2125;Montreal;people_birth;45.3032;-73.3315;atlantic
l86;Bantam;calls;-6.0233;106.0939;southeast_asia
l93;River Shannon;calls;52.35;-9.18;british_isles
l101;Barbados;calls;13.1012;-59.3309;atlantic
l109;West India Dock;calls;51.50347;-0.01722;british_isles
l117;Porto Praya;calls;14.918;-23.509;atlantic
l122;Crookhaven;calls;51.2747;-9.4313;british_isles
l192;Nicobars;calls;7.05;93.48;southeast_asia
l198;Comoros;calls;-12.3;43.7;indian_ocean
l200;Seychelles;calls;-4.35;55.4;indian_ocean
l827;Gambia river;calls;13.28;-16.34;atlantic
l850;Port Dauphin;calls;-25.0157;46.59;indian_ocean
l851;Masirah;calls;20.2816;58.4855;indian_ocean
l861;Lombok;calls;-8.565;116.351;southeast_asia
l897;Tristan de Cunha;calls;-37.7;-12.18;atlantic
l898;St Paul's Island;calls;-38.43;77.31;indian_ocean
l899;Condore;calls;16.4108;80.3445;madras_presidency
l913;Manila Bay;calls;14.31;120.46;southeast_asia
l953;Delagoa;calls;-25.59;32.42;indian_ocean
l962;Tristan da Cunha;calls;-37.7;-12.18;atlantic
l1180;Bay of Bulls, Newfoundland;calls;47.299;-52.781;atlantic
l1191;Nootka Sound;calls;49.41;-126.33;atlantic
l1192;Queen Charlotte's Islands;calls;-11.0;166.15;indian_ocean
l1193;Sandwich Islands;calls;20.54;-156.36;indian_ocean
l1194;Montague Island;calls;-36.15;150.13;indian_ocean
l11;Cape;calls;-34.2129;18.2832;atlantic
l19;Second Bar;calls;22.476411;113.750545;china
l20;Kedgeree;calls;12.8575;87.9115;indian_ocean
l41;Johanna;calls;-12.1254;44.253;indian_ocean
l52;False Bay;calls;-34.1347;18.3843;atlantic
l60;Moheli;calls;-12.15;43.45;indian_ocean
l115;Port Jackson;calls;-33.513;151.14;indian_ocean
l124;Balambangan;calls;7.1549;116.5321;southeast_asia
l128;Fulta;calls;19.1629;84.4843;madras_presidency
l135;Fernando de Noronha;calls;-3.5118;-32.253;atlantic
l136;Purfleet;calls;51.48;0.25;british_isles
l141;Coringa;calls;16.48;82.14;madras_presidency
l22;Batavia;calls;-6.129;106.8129;southeast_asia
l71;Ascension;calls;-7.56;-14.22;atlantic
l62;Manila;calls;14.3545;120.5838;southeast_asia
l106;Long Reach;calls;51.4415;0.3685;british_isles
l9;Saugor;calls;21.6528;88.0753;bengal_presidency
l180;Banda;calls;-4.35;129.55;southeast_asia
l126;Tenerife;calls;28.1607;-16.362;atlantic
l1113;Coromandel;calls;13.3667;80.3333;madras_presidency
l1452;Java;calls;-7.293;110.0016;southeast_asia
l58;Colombo;calls;6.5604;79.5034;madras_presidency
l131;Persia;calls;27.2532;53.8998;indian_ocean
l509;China;calls;22.449;113.915;china
l50;Deptford;calls;51.478;-0.0265;british_isles
l1333;Brest;calls;48.23;-4.29;british_isles
l288;Onore;calls;14.28;74.4439;bombay_presidency
l321;San Salvador;calls;-12.5829;-38.2836;atlantic
l917;Brazil;calls;-8.4544;-35.0359;atlantic
l322;Bourbon;calls;-21.0652;55.3157;indian_ocean
l82;Moco Moco;calls;-2.5833;101.117;southeast_asia
l83;Acheh;calls;5.3325;95.1934;southeast_asia
l118;Rodrigues;calls;-19.43;63.25;indian_ocean
l266;Newfoundland;calls;48.36;-56.2;atlantic
l268;Siam;calls;12.6414;101.021;southeast_asia
l416;Bristol Channel;calls;51.3777;-4.2291;british_isles
l446;Tidore;calls;0.41;127.24;southeast_asia
l474;Quedah;calls;6.0742;100.2146;southeast_asia
l495;Kambelu;calls;-3.08;129.3;southeast_asia
l505;Pulo Run;calls;-4.332587;129.4163;southeast_asia
l517;Annabon;calls;-1.2606;5.3815;atlantic
l519;Galway Bay;calls;53.1619;-9.0256;british_isles
l542;Ratcliffe;calls;51.512054;-0.038946;british_isles
l2;Bengal;calls;21.3623;88.0932;bengal_presidency
l54;Torbay;calls;50.278;-3.3325;british_isles
l343;Achen;calls;5.3325;95.1934;southeast_asia
;maldives;calls;4.18;73.51;indian_ocean
l102;St Augustine's Bay;calls;-23.3015;43.41;indian_ocean
l443;Red Sea;calls;20.4;38.3;indian_ocean
l453;Persian Gulf;calls;26.7;52.0;indian_ocean
l494;Ceram;calls;-3.08;129.3;southeast_asia
l520;Simon's Bay;calls;-34.1806;18.4326;atlantic
l847;Table Bay;calls;-33.51;18.27;atlantic
l1010;Pulau Run;calls;-4.332587;129.4163;southeast_asia
l121;Madagascar;calls;-18.8707;46.4362;indian_ocean
l132;Guinea;calls;10.0401;-14.0779;atlantic
l133;Lizard;calls;49.9588;-5.2076;british_isles
l1885;Wexford;persons_birth;52.3278;-6.4949;british_isles
l7;Hugh;calls;;;nan
l10;Blackwall;calls;51.50971;-0.0016;british_isles
l12;Bombay;calls;19.07283;72.88261;bombay_presidency
l13;Singapore;calls;1.28967;103.85007;southeast_asia
l14;Whampoa;calls;23.11037;113.4418;china
l15;Malacca;calls;2.196;102.2405;southeast_asia
l17;Kowloon;calls;22.31667;114.18333;china
l18;Portsmouth;calls;50.79899;-1.09125;british_isles
l21;Falmouth;calls;50.15441;-5.07113;british_isles
l23;Tiku;calls;-0.3958;99.92307;southeast_asia
l24;voyages to Sumatra 1624, Lagundy 1625, Coromandel;calls;;;nan
l25;27, Sumatra &;calls;;;nan
l26;laid up 1631, rotten;calls;;;nan
l27;Sandy Bay' Guinea;calls;;;nan
l29;Calicut;calls;11.24802;75.7804;madras_presidency
l30;Tellicherry;calls;11.74811;75.4929;madras_presidency
l31;Karwar;calls;14.81361;74.12972;bombay_presidency
l32;Mangalore;calls;12.91723;74.85603;madras_presidency
l33;Surat;calls;21.19594;72.83023;bombay_presidency
l34;voyage ended;calls;;;nan
l35;Balasore;calls;21.49266;86.93348;bengal_presidency
l36;Rogues River;calls;;;nan
l37;Benkulen;calls;-3.80044;102.26554;southeast_asia
l38;Silebar;calls;;;nan
l39;Nore;calls;45.24159;7.56983;atlantic
l44;Goa;calls;13.6978;123.4892;southeast_asia
l45;Vijayadura;calls;;;nan
l46;Cochin;calls;9.93988;76.26022;madras_presidency
l48;expedition against Angria;calls;;;nan
l49;wreckedthe Cape;calls;;;nan
l51;captured by the French near Mauritius;calls;;;nan
l55;returned to St Helena;calls;;;nan
l57;Diamond Harbour;calls;22.19101;88.19047;bengal_presidency
l59;lost on Goodwin SandsSouth Foreland;calls;;;nan
l61;Cavite;calls;15.67785;120.76978;southeast_asia
l63;Pangasinan;calls;;;nan
l64;Sulu;calls;6.05222;121.00222;southeast_asia
l65;Da;calls;;;nan
l66;nang;calls;29.04701;93.08795;indian_ocean
l67;Rio de Janeiro;calls;-22.90642;-43.18223;atlantic
l68;Tellicheny;calls;;;nan
l69;Gravesend;calls;51.44206;0.37106;british_isles
l70;Ingeli;calls;;;nan
l72;Belem;calls;19.63334;-98.79664;atlantic
l73;Scarborough;calls;54.27966;-0.40443;british_isles
l74;Erith;calls;51.48315;0.17484;british_isles
l77;Vizagapatam;calls;17.68009;83.20161;madras_presidency
l78;Culpee;calls;;;nan
l79;Bandar Abbas;calls;27.1865;56.2808;indian_ocean
l80;towards England;calls;;;nan
l81;Limehouse;calls;51.51412;-0.03282;british_isles
l84;Plymouth;calls;50.37153;-4.14305;british_isles
l85;;calls;;;nan
l87;Pattani;calls;6.86814;101.25009;southeast_asia
l88;Hirado;calls;33.36853;129.55247;china
l89;abandonedMasulipatam;calls;;;nan
l90;Masulipatam;calls;16.18747;81.13888;madras_presidency
l91;Pring;calls;;;nan
l92;Rat Island;calls;;;nan
l94;Trincomalee;calls;8.5778;81.2289;madras_presidency
l95;below Second Bar;calls;;;nan
l96;Woolwich;calls;51.491;0.0648;british_isles
l97;Quilon;calls;8.88113;76.58469;madras_presidency
l98;Ganjam;calls;19.38705;85.05079;bengal_presidency
l99;Woolwich ff.6;calls;;;nan
l100;sailing directions for the convoy leaving England;calls;;;nan
l103;captured by the FrenchScilly;calls;;;nan
l104;wrecked Polperro, Cornwall;calls;;;nan
l105;Penang;calls;5.41123;100.33543;southeast_asia
l107;City Canal;calls;;;nan
l108;Day Downs;calls;;;nan
l110;From England;calls;;;nan
l111;Cape Coast Castle;calls;5.10535;-1.2466;atlantic
l112;Accra;calls;5.55602;-0.1969;atlantic
l113;Ouidah;calls;6.36307;2.08506;atlantic
l114;captured by the French 9/10;calls;;;nan
l116;Funchal;calls;32.66568;-16.92547;atlantic
l119;Allas;calls;;;nan
l120;Saloomah;calls;;;nan
l123;Amboina;calls;-3.69583;128.18333;southeast_asia
l125;Northfleet;calls;;;nan
l127;Lisbon;calls;38.71667;-9.13333;atlantic
l129;Cork;calls;51.89797;-8.47061;british_isles
l130;Cadiz;calls;36.52672;-6.2891;atlantic
l134;wrecked north of Goa, in 'the Mallwan's country', survivors imprisoned;calls;;;nan
l137;from Bengal;calls;;;nan
l138;Faro;calls;37.01869;-7.92716;atlantic
l140;not heard of after leaving Bengal about the end of;calls;;;nan
l142;Yarmouth;calls;50.70529;-1.49929;british_isles
l143;Quebec;calls;46.81228;-71.21454;atlantic
l144;moorings;calls;;;nan
l145;Halifax;calls;53.71667;-1.85;british_isles
l146;went on shoreBerck nr Boulogne, abandoned;calls;;;nan
l147;From Bantam;calls;;;nan
l148;Delagoa river;calls;;;nan
l149;wreckedMadagascar;calls;;;nan
l150;crew reached Johanna in sloop and longboat;calls;;;nan
l151;met pirates and men deserted to them;calls;;;nan
l152;left Johanna in sloop;calls;;;nan
l153;reached Indian coast nr Vingula;calls;;;nan
l154;captured and plundered by Shivaji's forces;calls;;;nan
l156;Surat 1619, carried Sir Thomas Roe home;calls;;;nan
l157;Voyage lost, ship 'cast away' between London and Gravesend;calls;;;nan
l158;buoyed up and towed to Northfleet;calls;;;nan
l159;joined Anglo;calls;;;nan
l160;Dutch Fleet of DefenceGoa;calls;;;nan
l161;sent for Mozambique Channel;calls;;;nan
l162;Malabar;calls;-33.96216;151.24796;indian_ocean
l163;Dabhol;calls;17.58971;73.18001;bombay_presidency
l164;Jambi;calls;-1.6;103.61667;southeast_asia
l165;broken up, rotten;calls;;;nan
l166;captured by FrenchBombay;calls;;;nan
l167;Bengal river;calls;;;nan
l168;Kinsale;calls;51.7075;-8.53056;british_isles
l169;captured by the Dutch;calls;;;nan
l170;Bedthar;calls;;;nan
l171;Hugli;calls;22.90877;88.39674;bengal_presidency
l172;Cox's Island;calls;;;nan
l173;off Cape San Diego, Argentina;calls;;;nan
l174;off Cape Horn;calls;;;nan
l175;in Sulu Sea;calls;;;nan
l177;wrecked Pelew Islands;calls;;;nan
l178;built a boat, sailed;calls;;;nan
l179;Macao Seevftt account of the Pelew Islands ... George Keate;calls;;;nan
l181;Gogha;calls;;;nan
l182;Linton;calls;51.92529;-2.49669;british_isles
l183;L/MAR/B/515B Journal;calls;;;nan
l184;Alexander Stirling, Chief Mate Falmouth;calls;;;nan
l185;off Lintin;calls;;;nan
l186;Lower Hope;calls;;;nan
l187;transport;calls;;;nan
l188;see Asiatic Journal  pp.32;calls;;;nan
l189;Toibay;calls;;;nan
l190;Canaries;calls;13.90224;-61.06459;atlantic
l191;Madagascar htor;calls;;;nan
l193;at capture of San Antonio carrack in Straits of Malacca;calls;;;nan
l194;sent for England;calls;;;nan
l195;arrived;calls;;;nan
l196;Maio;calls;15.13823;-23.21158;atlantic
l197;Bandas;calls;;;nan
l199;Pemba;calls;-12.97395;40.51775;indian_ocean
l201;Aden;calls;12.77944;45.03667;indian_ocean
l203;reached Indian coast nr Mahuwa, Kathiawar;calls;;;nan
l204;sailed for Surat;calls;;;nan
l205;lost on Malacca Banks;calls;;;nan
l206;crew reached Surat;calls;;;nan
l207;Capt Elias Clapp;calls;;;nan
l209;Madras Kedgeree;calls;;;nan
l210;Qishm;calls;26.9492;56.2691;indian_ocean
l211;Padang;calls;-0.94924;100.35427;southeast_asia
l212;off St Helena took part in capture of seven Dutch ships;calls;;;nan
l213;Simons Bay;calls;;;nan
l214;Mahe;calls;11.70172;75.53474;madras_presidency
l215;Samkoke' Island;calls;;;nan
l216;lost 'in the Bengal river;calls;;;nan
l217;New Anchorage;calls;;;nan
l219;Hong Kong;calls;22.27832;114.17469;china
l220;Jim Johanna;calls;;;nan
l221;Santa Cruz;calls;15.30815;120.85318;southeast_asia
l223;Diamond Harbour Saugor;calls;;;nan
l224;Waterford;calls;52.25833;-7.11194;british_isles
l225;Sydney Cove;calls;;;nan
l226;Wliampoa;calls;;;nan
l227;Left England;calls;;;nan
l228;sent for Jambi;calls;;;nan
l229;made voyages to Jambi, the Bandas and Macassar;calls;;;nan
l230;captured by the Dutch and taken to Japan;calls;;;nan
l231;eventually handed back, but abandoned in;calls;;;nan
l232;Downs captured French ship Baronette;calls;;;nan
l234;off Point de Galle;calls;;;nan
l235;Stokes Bay;calls;;;nan
l236;Arp Cape;calls;;;nan
l237;Bantal;calls;;;nan
l238;left Bengal;calls;;;nan
l239;sent for Taiwan &;calls;;;nan
l240;lostsea during second attempt;calls;;;nan
l241;sailed for England;calls;;;nan
l243;off North Island;calls;;;nan
l244;Capt William Baker;calls;;;nan
l245;Down;calls;;;nan
l246;off Persian coast;calls;;;nan
l247;Margate;calls;51.38132;1.38617;british_isles
l248;Mozambique;calls;-15.03466;40.73447;indian_ocean
l249;lost going into Bombay;calls;;;nan
l250;Moorings;calls;;;nan
l251;Galway;calls;53.27245;-9.05095;british_isles
l252;Borneo;calls;;;nan
l253;Blackwall * passenger list in journal includes prisoners of war;calls;;;nan
l254;Ceylon;calls;;;nan
l255;Long Reach skirmish with an American ship;calls;;;nan
l256;attacked by piratesSao Tiago;calls;;;nan
l257;seized by nativesMassalege, Madagascar;calls;;;nan
l258;captured there by the Dutch;calls;;;nan
l259;v Downs;calls;;;nan
l260;home via Newfoundland Banks;calls;;;nan
l261;Prince's Island;calls;;;nan
l262;remained in East Indies;calls;;;nan
l263;captured by the French;calls;;;nan
l264;recovered;calls;;;nan
l265;Jeddah;calls;21.49012;39.18624;indian_ocean
l267;Jask;calls;25.64533;57.77552;indian_ocean
l269;feared lost;calls;;;nan
l270;Long Reach capturedthe French coast;calls;;;nan
l271;Barrabulla;calls;;;nan
l272;Fernando Nova Pina;calls;;;nan
l273;Long Reach carried the body of Sir Eyre Coote back to England;calls;;;nan
l274;Reach;calls;43.91064;-69.8206;atlantic
l275;Pondicherry;calls;11.93381;79.82979;madras_presidency
l276;Madras^;calls;;;nan
l277;Cannanore;calls;11.86752;75.35763;madras_presidency
l278;cruising between Cannanore and Mangalore;calls;;;nan
l279;disappeared after parting companyMauritius;calls;;;nan
l280;burntPoint de Galle;calls;;;nan
l281;Capt John Goldsborough;calls;;;nan
l282;Tellicheny Calicut;calls;;;nan
l283;Ruttera;calls;;;nan
l284;Brinjoan;calls;;;nan
l285;voyage ended Portsmouth;calls;;;nan
l286;home mid;calls;;;nan
l287;offered for sale to Royal Africa Company;calls;;;nan
l289;SSo Tiago;calls;;;nan
l290;Negapatam;calls;10.76377;79.84313;madras_presidency
l291;Pulicat;calls;;;nan
l292;Indrapura;calls;;;nan
l293;Muscat;calls;23.58413;58.40778;indian_ocean
l294;from Bombay;calls;;;nan
l295;captured by the French 1694, sank going into Brest;calls;;;nan
l296;Tranquebar;calls;11.02764;79.85425;madras_presidency
l297;Narsapore;calls;;;nan
l298;captured by the FrenchGanjam;calls;;;nan
l299;Texel;calls;;;nan
l300;blown upBasra;calls;;;nan
l302;Sumatra;calls;;;nan
l303;Mozambique Channel;calls;;;nan
l304;leftGoa in 1639, broken up in;calls;;;nan
l305;returned to China for repairs;calls;;;nan
l306;Whampoa Second Bar;calls;;;nan
l307;L/MAR/B/414A Journal;calls;;;nan
l308;1795, anon Penang;calls;;;nan
l309;attacked by pirates after leaving Mokha;calls;;;nan
l310;blown up by accident while engaging Sivaji pirates;calls;;;nan
l311;Diego Garcia Bay;calls;;;nan
l312;cruising Coromandel coast;calls;;;nan
l313;left China;calls;;;nan
l314;took part in battle of Pulau Aor;calls;;;nan
l315;Capt James Birkdell Downs;calls;;;nan
l316;Assada;calls;;;nan
l317;* carried planters to form colonyAssada;calls;;;nan
l318;Benjarmassin;calls;;;nan
l319;Banjarmassin;calls;;;nan
l320;off St Helena, unable to call because of French ships;calls;;;nan
l323;Portland;calls;50.56748;-2.44472;british_isles
l324;towards England', engagement with a French ship;calls;;;nan
l325;New South Wales;calls;;;nan
l326;Benguela;calls;-12.57626;13.40547;atlantic
l327;Car Nicobar;calls;;;nan
l328;Princes Island;calls;;;nan
l329;Bencoolen;calls;;;nan
l330;Pulau Pisang;calls;;;nan
l331;Manna;calls;-4.4651;102.90386;southeast_asia
l332;Nagore;calls;;;nan
l333;Jim Madras;calls;;;nan
l334;dismissed in hurricane;calls;;;nan
l335;condemnedCalcuttta;calls;;;nan
l336;lostJohanna;calls;;;nan
l337;Ipoh;calls;4.5841;101.0829;southeast_asia
l338;Laye;calls;12.53118;-1.77684;atlantic
l339;Bertoonan;calls;;;nan
l340;Madras, forced out by a French ship;calls;;;nan
l341;lost 'off the Brazils;calls;;;nan
l342;Diamond Point;calls;;;nan
l344;Downs *;calls;;;nan
l345;captured French ship Le Vengeur;calls;;;nan
l347;St Lucia;calls;-28.37622;32.41181;indian_ocean
l348;St Pierre;calls;46.77914;-56.1773;atlantic
l349;coastal cruise;calls;;;nan
l350;lost on the Goodwin Sandsthe South Foreland;calls;;;nan
l351;Capt Thomas Gilbert;calls;;;nan
l352;Kamree Roads;calls;;;nan
l354;captured by the FrenchPoint de Galle, ran ashore in Simons Bay, Cape,;calls;;;nan
l355;Cowes;calls;50.76252;-1.29781;british_isles
l356;Torbar;calls;;;nan
l357;Capt Richard Glasspoole Downs;calls;;;nan
l358;Toon;calls;33.79427;132.89011;indian_ocean
l359;koo;calls;;;nan
l360;Sing;calls;14.88786;100.40464;southeast_asia
l361;moon;calls;58.60194;23.24694;indian_ocean
l362;served in Anglo;calls;;;nan
l363;Dutch Fleet of Defence basedHirado;calls;;;nan
l364;at Lagundy in;calls;;;nan
l365;laid up in;calls;;;nan
l366;Porta Nova;calls;;;nan
l367;wreckedCadargos, Carajos Reefs nr Mauritius,;calls;;;nan
l368;captain, surgeon's mate and crew drowned;calls;;;nan
l370;Basra;calls;30.50852;47.7804;indian_ocean
l371;Fernando Loronho;calls;;;nan
l372;captured by French Oct, recovered;calls;;;nan
l373;Carrick Road;calls;;;nan
l374;Capt Jonathan Andrews;calls;;;nan
l375;Milford Haven;calls;51.71278;-5.0341;british_isles
l376;Tilbury;calls;51.46248;0.35856;british_isles
l377;Bentoonan;calls;;;nan
l378;Scindy;calls;;;nan
l380;parted companyMauritius 1809, not heard of again;calls;;;nan
l381;Greenhithe;calls;51.45026;0.28539;british_isles
l382;First Bar;calls;;;nan
l383;St Helena Long Reach;calls;;;nan
l384;Left China;calls;;;nan
l385;Timor;calls;;;nan
l386;Amoy;calls;24.47979;118.08187;china
l387;captured by French in Straits of Malacca;calls;;;nan
l388;Carrig Roads;calls;;;nan
l389;JulBalasore;calls;;;nan
l390;Semarang;calls;-6.99306;110.42083;southeast_asia
l391;Tom Borneo;calls;;;nan
l392;Bahia;calls;-0.59792;-80.42367;atlantic
l393;Malwa;calls;;;nan
l394;Second bar;calls;;;nan
l395;Finish Roads, Ireland;calls;;;nan
l397;Lantau;calls;;;nan
l398;Lampagao;calls;;;nan
l399;captured by piratesJohanna;calls;;;nan
l400;MadrasBengal;calls;;;nan
l401;Upper Hope;calls;;;nan
l403;Port Louis;calls;-20.16194;57.49889;indian_ocean
l404;Ramsgate;calls;51.33568;1.41797;british_isles
l405;Pulo Condore;calls;8.68641;106.60824;southeast_asia
l406;L/MAR/B/115C Journal;calls;;;nan
l407;1717, Francis Gostlin, Fourth Mate Lizard;calls;;;nan
l408;wrecked in Straits of Sunda;calls;;;nan
l409;crew reached Benkulen on Rochester;calls;;;nan
l410;Long Reach * fleet captured Le Franc, crew of Ceres took possession;calls;;;nan
l411;Sidney Cove;calls;;;nan
l412;captured by the French, retakenMauritius;calls;;;nan
l413;Cochin Calicut;calls;;;nan
l414;lostthe Cape;calls;;;nan
l415;Cuddalore;calls;11.75617;79.76693;madras_presidency
l417;Palembang;calls;-2.91673;104.7458;southeast_asia
l418;Surat, accidentally destroyed by fire;calls;;;nan
l419;Apr/May Maldives;calls;;;nan
l420;Tuticorin;calls;8.76735;78.13425;madras_presidency
l421;not heard of again;calls;;;nan
l422;occupied Hippin's Island in Straits of Sunda;calls;;;nan
l423;withdrew Hippin's Island settlement;calls;;;nan
l424;Bombay, negotiations with Keigwin, re;calls;;;nan
l425;occupied Bombay;calls;;;nan
l426;Chuenpi;calls;;;nan
l427;Narispore;calls;;;nan
l428;Narsipore;calls;;;nan
l429;captured by the French in 6Â° 30'N, 90Â° 30'E;calls;;;nan
l430;Augustine's Bay;calls;;;nan
l431;to remain India;calls;;;nan
l432;Jangarall Creek, Calcutta;calls;;;nan
l433;Macao islands;calls;;;nan
l434;Capt Francis Hosier;calls;;;nan
l435;Bantam, laid up in;calls;;;nan
l436;Quilton;calls;;;nan
l437;Jakarta;calls;-6.21462;106.84513;southeast_asia
l438;sent for Japara, Macassar and the Moluccas;calls;;;nan
l439;in the Goa fleet;calls;;;nan
l440;castat sea and sank;calls;;;nan
l442;Scindy Road;calls;;;nan
l444;Bachian;calls;;;nan
l445;Makian;calls;;;nan
l448;Cocos Keeling Islands;calls;;;nan
l449;Petapoli;calls;;;nan
l450;laid up in 1623, rotten;calls;;;nan
l451;St Paul;calls;;;nan
l452;Iambi;calls;;;nan
l454;Mew Bay;calls;;;nan
l455;wrecked Aug, struck a rock entering False Bay;calls;;;nan
l456;returned to Calcutta;calls;;;nan
l457;captured north of Madeira Jul, recovered;calls;;;nan
l458;at Masulipatam;calls;;;nan
l459;captured and burnt in Malabars;calls;;;nan
l460;Rangoon;calls;16.80528;96.15611;southeast_asia
l461;Jiddah;calls;21.49012;39.18624;indian_ocean
l462;burntBenkulen;calls;;;nan
l463;sent for Macasser, Amboina and Bandas;calls;;;nan
l464;backBantam;calls;;;nan
l465;sent for Celebes and Bandas;calls;;;nan
l466;withdrew in face of Dutch opposition;calls;;;nan
l467;scuttledBatavia;calls;;;nan
l468;St Laurence;calls;;;nan
l469;Moluccas;calls;;;nan
l470;Buton;calls;-5.4633;122.6024;southeast_asia
l471;Dartmouth;calls;50.3522;-3.5794;british_isles
l472;Trinidade;calls;;;nan
l473;Tumala Punta;calls;;;nan
l475;Capshee Bay;calls;;;nan
l476;Catherine and Planter lost company;calls;;;nan
l477;Planter rejoined;calls;;;nan
l478;Discovery sent back to England, Anne sent for India alone;calls;;;nan
l479;Goa, joined there by Catherine and Anne, left;calls;;;nan
l480;Planter sent back to England;calls;;;nan
l481;Anunghol;calls;;;nan
l482;captured Chinese fort;calls;;;nan
l483;Tiger Island;calls;;;nan
l484;fought Chinese junks;calls;;;nan
l485;Macao, Anne sold there, CatherineDec, Dragon and Sun;calls;;;nan
l486;Gibraltar;calls;36.14474;-5.35257;atlantic
l487;lost on voyage to Taiwan;calls;;;nan
l488;captured by French in 50Â° 21'N. 17Â°W;calls;;;nan
l489;Long Reach * engagement with three French ships;calls;;;nan
l490;Bearhaven;calls;;;nan
l491;Deal;calls;51.22316;1.4028;british_isles
l492;free ship to trade in the country;calls;;;nan
l493;blockaded Mokha until;calls;;;nan
l496;Macassar;calls;-5.14861;119.43194;southeast_asia
l497;Sukadana;calls;-5.06446;105.54869;southeast_asia
l498;Pattani, laid up there;calls;;;nan
l499;Thames;calls;-37.13832;175.54011;indian_ocean
l500;expedition agst Angria pirates;calls;;;nan
l501;lost north of Sadras;calls;;;nan
l502;Capt Marmaduke Rawdon;calls;;;nan
l503;Howrah;calls;-42.88728;147.40554;indian_ocean
l504;lost in the Hugli;calls;;;nan
l506;seized by Dutch;calls;;;nan
l507;in reported laid up as a wreck in the Bandas;calls;;;nan
l508;left Madras;calls;;;nan
l510;Taverapatam;calls;;;nan
l511;left Benkulen;calls;;;nan
l512;Fulla;calls;;;nan
l513;Tambomeo;calls;;;nan
l514;burntBenkulen to prevent her capture by the French;calls;;;nan
l515;Whampoa St Helena;calls;;;nan
l516;off Ascension;calls;;;nan
l518;Diamond Creek;calls;-37.66667;145.15;indian_ocean
l521;Pipli;calls;;;nan
l522;the Gore;calls;41.96677;-71.43284;atlantic
l523;Westcott Bay;calls;;;nan
l524;captured by Angria;calls;;;nan
l525;remained in India;calls;;;nan
l526;Tellicherry Bombay;calls;;;nan
l527;Portsmouth Ar;calls;;;nan
l528;Bombay Goa;calls;;;nan
l529;wrecked in Saugor Roads;calls;;;nan
l530;Dutch Fleet of DefenceMalabar 1622/3;calls;;;nan
l531;at Lagundy Mar/Apr;calls;;;nan
l532;laid up as a careening hulk early;calls;;;nan
l533;Capt Thomas Woodcock Downs;calls;;;nan
l534;Left Bengal;calls;;;nan
l535;Limerick;calls;52.66472;-8.62306;british_isles
l536;Ramsey, Pembrokeshire;calls;;;nan
l537;Morardava;calls;;;nan
l538;Massaleige;calls;;;nan
l539;Prawdar;calls;;;nan
l540;Boyne Harbour;calls;;;nan
l541;Tuloa;calls;;;nan
l544;off Greenland;calls;;;nan
l545;Warwick's Foreland;calls;;;nan
l546;penetrated Hudson's Strait, driven out and south;calls;;;nan
l547;voyage abandoned;calls;;;nan
l548;off Scilly;calls;;;nan
l549;back in England by;calls;;;nan
l550;sacked Bombay;calls;;;nan
l551;Surat Cape;calls;;;nan
l552;Mozamibique Channel;calls;;;nan
l553;lost on homeward voyage;calls;;;nan
l554;Left Bantam;calls;;;nan
l555;cruising;calls;;;nan
l556;The wreck was located and 'salvaged' in 1977/8;calls;;;nan
l557;Clive's lost treasure, Geoffrey & David Allen;calls;;;nan
l558;Rajapur;calls;16.65679;73.51701;bombay_presidency
l559;voyage ended * attacked by pirate in Straits of Malacca;calls;;;nan
l560;Long Reach * assisted in capture of French ship;calls;;;nan
l561;Macasser;calls;;;nan
l562;voyages to Jambi and Masulipatam;calls;;;nan
l563;Diu;calls;20.71405;70.98224;bombay_presidency
l564;permission to garrison Macao refuseed;calls;;;nan
l565;Sambroke;calls;;;nan
l566;Long Reach * recaptured ^4Rainier from French;calls;;;nan
l567;Temate;calls;;;nan
l568;met Hector in Straits of Sunda and returned;calls;;;nan
l569;Swally;calls;;;nan
l570;captured by DutchTiku;calls;;;nan
l571;detained by Dutch;calls;;;nan
l572;subsequently lost;calls;;;nan
l573;soldMadras;calls;;;nan
l574;Banjarmassin Tambomeo;calls;;;nan
l575;Madura;calls;9.919;78.11953;madras_presidency
l577;Morandava;calls;;;nan
l578;Morungary river;calls;;;nan
l579;Moco Moco Benkulen;calls;;;nan
l580;M Malacca;calls;;;nan
l581;Downs * insert A short formula for longitude, having the linear tables etc Samuel Dunn;calls;;;nan
l582;Point de Gale;calls;;;nan
l583;Bali Straits;calls;;;nan
l584;Gorec, Holland;calls;;;nan
l585;Jim New Anchorage;calls;;;nan
l586;Matavai;calls;-14.03208;-171.64768;indian_ocean
l587;Tonga;calls;4.96667;10.7;atlantic
l590;Pisang;calls;;;nan
l591;lost on Long Sand in the river Hugli 25/26;calls;;;nan
l592;burnt in Madras Roads;calls;;;nan
l593;Bonavista;calls;48.64989;-53.11474;atlantic
l594;Portsmouth Long Reach;calls;;;nan
l595;cape;calls;;;nan
l597;Ar Mokha;calls;;;nan
l598;lost in Ayoffe Bay, Cape Verde,;calls;;;nan
l599;Bombay Surat;calls;;;nan
l600;burntCeylon;calls;;;nan
l601;Pulo Bay;calls;;;nan
l602;Capt Torbay;calls;;;nan
l603;Downs Penang;calls;;;nan
l604;Urmston's Bay;calls;;;nan
l605;Chaul;calls;;;nan
l606;Enth;calls;;;nan
l607;driven on shore by a hurricane;calls;;;nan
l608;condemnedCalcutta;calls;;;nan
l609;Bantry Bay;calls;;;nan
l610;Galloway;calls;;;nan
l611;Second Bar â–  St Helena;calls;;;nan
l612;Lone Reach WreckedPlymouth;calls;;;nan
l613;in action against Portuguese;calls;;;nan
l614;voyages between Surat and Java in 1627, and;calls;;;nan
l615;laid upBantam;calls;;;nan
l616;Downs _ , i _.;calls;;;nan
l617;Borneo river;calls;;;nan
l618;Londonderry;calls;43.22646;-72.80649;atlantic
l619;burnt before;calls;;;nan
l620;Broken Ground' Bengal;calls;;;nan
l621;Kedgeree â–  Saugor;calls;;;nan
l622;burnt in the river Hugh;calls;;;nan
l623;lost in the river Hugh;calls;;;nan
l624;lost on the Shambles;calls;;;nan
l625;Ingeh;calls;;;nan
l626;Portsmouth as transport with HMS Salisbury and Seahorse under Commodore Sir Edward Hughes;calls;;;nan
l627;lost in Madras Roads;calls;;;nan
l628;lost on the Camicobar Jim;calls;;;nan
l629;Moco;calls;;;nan
l630;Shannon;calls;52.70389;-8.86417;british_isles
l631;Onroot;calls;;;nan
l632;Pulau Pisang Cape;calls;;;nan
l633;All Saints' Bay;calls;;;nan
l634;Downs * witnessed burning of Duke of Kingston, received survivors;calls;;;nan
l635;SWSMW1772;calls;;;nan
l636;Portsmouth June;calls;;;nan
l637;M Whampoa;calls;;;nan
l638;Pulo Massey;calls;;;nan
l639;PortsmouthSMay;calls;;;nan
l640;Severndroog;calls;;;nan
l641;Bancoot;calls;;;nan
l642;Portsmouth3 oÂ°Mar;calls;;;nan
l643;Teliicheriy;calls;;;nan
l644;Long Reach rescued crew of sinking Ganges;calls;;;nan
l645;Portlmmrth 8Â°May ^OS11;calls;;;nan
l646;pCS0r:â€œ;calls;;;nan
l647;saugor;calls;;;nan
l648;Downs capture of Mangalore fort from French;calls;;;nan
l649;lost on the Perates, South China Sea,;calls;;;nan
l650;wrecked south of the Paracels 1763, some survivors reached Canton See G/12/195 ff.30;calls;;;nan
l651;Sural;calls;;;nan
l652;Teilicherry;calls;;;nan
l653;Culpce;calls;;;nan
l654;Ingcli;calls;;;nan
l655;Kinsaie;calls;;;nan
l656;Eddystone;calls;39.86011;-75.34436;atlantic
l657;L/MAR/B/aSB Journal;calls;;;nan
l658;1741, Gabriel Steward [CapCI Portsmouth;calls;;;nan
l659;Chusan;calls;;;nan
l660;See G/12/16 Chusan Diary;calls;;;nan
l661;Port Dauphin, Madagascar;calls;;;nan
l662;off Newfoundland;calls;;;nan
l663;Downs See G/17/3 ff.81;calls;;;nan
l664;for invoices etcMokha;calls;;;nan
l665;Whampoa Downs;calls;;;nan
l666;Banjarmasin;calls;-3.31987;114.59075;southeast_asia
l667;Inseli;calls;;;nan
l668;Pernambuco;calls;-8.05389;-34.88111;atlantic
l669;Myapore;calls;;;nan
l670;Garden Reach;calls;;;nan
l671;Downs * inc Cargo Book;calls;;;nan
l672;Downs engagement with French privateer La Venus;calls;;;nan
l673;with Anglo;calls;;;nan
l674;Dutch Fleet of Defence from Japan;calls;;;nan
l675;All Saints5 Bay;calls;;;nan
l676;burnt in China;calls;;;nan
l677;Liverpool;calls;53.41058;-2.97794;british_isles
l678;Capt Thomas Forrest;calls;;;nan
l679;burntWhampoa;calls;;;nan
l680;remained in India, voyages to Bandar Abbas;calls;;;nan
l681;1647, Pegu 1648, Bantam;calls;;;nan
l682;Master Edmund Seaman;calls;;;nan
l683;Master Janus Couchman;calls;;;nan
l684;Mew Island;calls;;;nan
l685;Alguarda;calls;;;nan
l686;Tnncomalee;calls;;;nan
l687;return to Bombay;calls;;;nan
l688;St St Helena;calls;;;nan
l689;Colombo Roads;calls;;;nan
l690;lostDondra Head, Ceylon,;calls;;;nan
l691;Bushire;calls;28.96887;50.83657;indian_ocean
l692;Bar;calls;49.07362;27.67404;indian_ocean
l693;Bajalar;calls;;;nan
l694;St Salvadore;calls;;;nan
l695;jun Penang;calls;;;nan
l696;captured by French 1809, re;calls;;;nan
l697;capturedMauritius;calls;;;nan
l698;Dutch Fleet of DefenceMalabar;calls;;;nan
l699;DowwMarll^Batavia;calls;;;nan
l700;Priaman;calls;;;nan
l701;Mauntius;calls;;;nan
l702;DownsDec;calls;;;nan
l703;Tappanooly Bay;calls;;;nan
l704;Portsitmuth nS^lSlO;calls;;;nan
l705;Calcutta 2^13^96^24 Saugor;calls;;;nan
l706;Capt Nathaniel Owen;calls;;;nan
l707;BL: Sloane Ms Journal;calls;;;nan
l708;1682, Thomas Crompton Cape;calls;;;nan
l709;Botun;calls;;;nan
l710;voyage ended summer;calls;;;nan
l711;Dhufar;calls;;;nan
l712;landed Sir Robert Sherleymouth of Indus;calls;;;nan
l713;Downs late;calls;;;nan
l714;broken up;calls;;;nan
l715;James Fort, Gambia;calls;;;nan
l716;Bay of Ayoffe;calls;;;nan
l717;James Fort;calls;;;nan
l718;voyage ended To look for survivors of Duke of Cumberland, lost in Bay of Ayoffe;calls;;;nan
l719;Belfast;calls;54.59682;-5.92541;british_isles
l720;Taiwan;calls;;;nan
l721;Pescadores;calls;;;nan
l722;captured by Dutch in Straits of Banca;calls;;;nan
l723;Anjengo St Helena;calls;;;nan
l724;parted company with the fleet in a gale in 8Â°80'S by 80'E, not heard of again;calls;;;nan
l725;lost in the river Hugli;calls;;;nan
l726;burnt in Bombay harbour;calls;;;nan
l727;Samarang;calls;-6.99306;110.42083;southeast_asia
l728;Bantam SoldBatavia;calls;;;nan
l729;capturedthe Lizard by a Flushing man;calls;;;nan
l730;of;calls;;;nan
l731;war and taken to Bergen;calls;;;nan
l732;wreckedBombay;calls;;;nan
l733;Hughli;calls;;;nan
l734;Sen Benkuien;calls;;;nan
l735;Jui St Helena;calls;;;nan
l736;Clyde;calls;41.30422;-82.97519;atlantic
l737;Blackwail;calls;;;nan
l738;stranded on Sogar Bank, Bengal,;calls;;;nan
l739;bt Helena;calls;;;nan
l740;captured on her passage to Bengal by the French frigate Piedmontaise;calls;;;nan
l741;London;calls;51.50853;-0.12574;british_isles
l742;Hong Kong Bay;calls;;;nan
l743;Jim Bombay;calls;;;nan
l744;Ganges;calls;43.93419;3.70797;atlantic
l745;L/MAM/A/LXXIV pp.52;calls;;;nan
l746;Journal;calls;;;nan
l747;Bangkok;calls;13.75398;100.50144;southeast_asia
l748;Ayutthaya;calls;14.35167;100.57739;southeast_asia
l749;Capt Richard Gosfright;calls;;;nan
l750;L/MAE/A/LXXIV pp.125;calls;;;nan
l751;Tonkin;calls;;;nan
l752;engagment with FrenchSao Tiago;calls;;;nan
l753;Cockelee;calls;;;nan
l754;captured by French frigate La Fine;calls;;;nan
l755;Capt Thomas Smith Downs;calls;;;nan
l756;Tcllicherry;calls;;;nan
l757;Plymouth * during the voyage there were deaths;calls;;;nan
l758;Barrabulla, Sumatra;calls;;;nan
l759;nampoa;calls;;;nan
l760;Andamans;calls;;;nan
l761;Balambang;calls;;;nan
l762;˜East Indies;calls;;;nan
l763;left Madras for Benkulen 1791, not heard of again See;calls;;;nan
l764;Bristol;calls;51.45523;-2.59665;british_isles
l765;Sulu Roads;calls;;;nan
l766;Carrick Roads;calls;;;nan
l767;Capt Thomas Newsham Portsmouth;calls;;;nan
l768;iph;calls;;;nan
l769;captured by French privateer L 'Aventure, crew placed on American ship Henry;calls;;;nan
l770;Long Beach;calls;33.91045;-78.11777;atlantic
l771;Goree;calls;;;nan
l772;Broken Ground;calls;;;nan
l773;Camicobar;calls;;;nan
l774;lostSt Vincent;calls;;;nan
l775;captured, with the Godfrey, Hillsborough, Mountstuart and Royal George, by the combined Franco;calls;;;nan
l776;Spanish fleet in 36028'N & 15Â°20'W;calls;;;nan
l777;lost on the Dutch coast;calls;;;nan
l778;Downs * assisted in capture of three Dutch shipsSt Helena;calls;;;nan
l779;Malaca;calls;36.72016;-4.42034;atlantic
l780;Whmpoa;calls;;;nan
l781;Chumpee;calls;;;nan
l782;L/MAR/B/290A Journal;calls;;;nan
l783;1795, anonChina;calls;;;nan
l784;Fernando Noronha;calls;;;nan
l785;Hugli river;calls;;;nan
l786;Downs St Helena;calls;;;nan
l787;Batavia St Helena;calls;;;nan
l788;Poole;calls;50.71429;-1.98458;british_isles
l789;Benguella;calls;-12.57626;13.40547;atlantic
l790;River Plate;calls;;;nan
l791;Quang Nam;calls;15.88853;108.25447;southeast_asia
l792;Bouro;calls;;;nan
l793;Sumbava;calls;;;nan
l794;off Ceylon;calls;;;nan
l795;Pattani,for Ayutthaya;calls;;;nan
l796;returned to Pattani,again;calls;;;nan
l797;voyage ended late;calls;;;nan
l798;Engano;calls;;;nan
l799;laid upBatavia 1623, rotten;calls;;;nan
l800;parted company in a gale in 8Â°30'S 80'E and not heard of again;calls;;;nan
l801;Capt Philip Browne Plymouth;calls;;;nan
l802;lost;calls;;;nan
l803;captured  by the combined Franco;calls;;;nan
l804;Spanish fleet in 36Â°28'N IS^O'W;calls;;;nan
l805;lostBombay;calls;;;nan
l806;Ryapore;calls;;;nan
l807;attempted mutiny;calls;;;nan
l808;penetrated Hudson's Strait but driven out and south;calls;;;nan
l809;Capt John North;calls;;;nan
l810;Capt James Cook;calls;;;nan
l811;Jim;calls;7.67344;36.83441;indian_ocean
l812;Capt Robert Potter Downs;calls;;;nan
l813;sold in India;calls;;;nan
l814;Assembledthe Cape by the Fourth Voyage;calls;;;nan
l815;blownSocotra, ran ashore on Gujarat coast about Aug, crew deserted;calls;;;nan
l816;Capt James Murvell;calls;;;nan
l817;lost in Bengal;calls;;;nan
l818;not heard of since the storm in Bengal;calls;;;nan
l819;˜English coast;calls;;;nan
l820;off Dungeness;calls;;;nan
l821;Sillebar;calls;;;nan
l822;Downs See D/99 ff.5;calls;;;nan
l823;for a crew list;calls;;;nan
l824;Maldives;calls;;;nan
l825;Sheemess;calls;;;nan
l826;lostFolkestone;calls;;;nan
l828;captured by the Frenchthe Cape;calls;;;nan
l829;Gravesend * attacked by piratesJohanna;calls;;;nan
l830;Managalore;calls;;;nan
l831;Erith See D/98 ff.250;calls;;;nan
l832;Downs See E/3/21 no.2081;calls;;;nan
l833;ship lostthe 'island of Zelo;calls;;;nan
l834;Whampo;calls;;;nan
l835;wreckedPondoland, South Africa,;calls;;;nan
l836;Sydney;calls;46.1351;-60.1831;atlantic
l837;lost between Peverill Point and St Alban's Head, Isle of Purbeck See A circumstantial narrative of the loss of the Halsewell...;calls;;;nan
l838;Point de Gallc;calls;;;nan
l839;captured by the Dutch in the Banka Straits;calls;;;nan
l840;disappeared between Balasore and Masulipatam;calls;;;nan
l841;Morendavia Bay;calls;;;nan
l842;Jim Fort St David;calls;;;nan
l843;Capt Edmund Scott;calls;;;nan
l844;Tenerife ~ Madras;calls;;;nan
l845;Pondicheny;calls;;;nan
l846;Aceh;calls;;;nan
l848;Downs * pen & ink sketch of the ship;calls;;;nan
l849;burntCalcutta;calls;;;nan
l852;Sohar;calls;24.34745;56.70937;indian_ocean
l853;Lagundy;calls;;;nan
l854;Japara;calls;-6.5924;110.671;southeast_asia
l855;Downs * journal includes sketches;calls;;;nan
l856;voyage ended by;calls;;;nan
l857;Bowns;calls;;;nan
l858;Sind;calls;46.58333;23.71667;indian_ocean
l859;remained in India ?;calls;;;nan
l860;lostBonavista;calls;;;nan
l862;returned to Benkulen, gale damaged;calls;;;nan
l863;portsmouth;calls;;;nan
l864;Malabar coast;calls;;;nan
l865;lost in the Bab el Mandeb;calls;;;nan
l866;11May St Helena;calls;;;nan
l867;took part in capture of San Antonio carrack in Straits of Malacca;calls;;;nan
l868;river Tapti;calls;;;nan
l869;Red Sea blockade;calls;;;nan
l870;Bantam, abandoned, rotten;calls;;;nan
l871;coast of Sindey;calls;;;nan
l872;Bally Town;calls;;;nan
l873;lost on Bembridge Ledge, Isle of Wight,;calls;;;nan
l874;â– 51 St Helena;calls;;;nan
l875;Lintin Roads;calls;;;nan
l876;"Whampoa "" Second Bar";calls;;;nan
l877;Karakaul;calls;;;nan
l878;Dublin;calls;53.33306;-6.24889;british_isles
l879;fought with French warships, blown upJohanna;calls;;;nan
l880;Capt Richard Chadsley Downs;calls;;;nan
l881;Bassein;calls;16.77919;94.73212;bengal_presidency
l882;Poolo Bay;calls;;;nan
l883;Dock;calls;;;nan
l884;1^26 St Helena;calls;;;nan
l885;Singapaore;calls;;;nan
l886;Cap Sing Moon;calls;;;nan
l887;Capt William Morris Downs;calls;;;nan
l888;Capt John Hazlewood;calls;;;nan
l889;lost in Persia;calls;;;nan
l890;The Hope;calls;;;nan
l891;captured with Gatton, Godfrey, Mountstuart and Royal George by combined Franco;calls;;;nan
l892;Spanish fleet in 36Â°28'N 15Â°20'W;calls;;;nan
l893;lost in the Bengal river;calls;;;nan
l894;repairedcoast of China;calls;;;nan
l895;Srat;calls;;;nan
l896;voyages between Bantam and Surat;calls;;;nan
l900;Cochin China;calls;;;nan
l901;off Teinchin;calls;;;nan
l902;Capt George Millett Fortmouth;calls;;;nan
l903;Anger;calls;47.27422;15.69139;atlantic
l904;Killybeg' Ireland;calls;;;nan
l905;Dutch Fleet of Defence based in Japan;calls;;;nan
l906;L/MAR/B/168;calls;;;nan
l907;I Journal;calls;;;nan
l908;1806, anon Left Bengal;calls;;;nan
l909;St Margaret's Orkney;calls;;;nan
l910;Labrador;calls;16.02812;120.14424;southeast_asia
l911;presumably laid up, rotten;calls;;;nan
l912;Princes' Island;calls;;;nan
l914;captured by the DutchPattani;calls;;;nan
l915;Gomes Island;calls;;;nan
l916;Rendezvous Island' Borneo;calls;;;nan
l918;broughtsettlers after Dutch capture of St Helena on;calls;;;nan
l919;towards England' HURLEY;calls;;;nan
l920;Cap Sing Moon Bay;calls;;;nan
l921;Bandar Abbas Bombay;calls;;;nan
l922;Hobart;calls;44.49925;-88.14986;atlantic
l923;Capt Robert Hill;calls;;;nan
l924;to remain;calls;;;nan
l925;New York;calls;42.55779;-88.86511;atlantic
l926;Hamburg;calls;42.71589;-78.82948;atlantic
l927;Cap Sprat;calls;;;nan
l928;from England;calls;;;nan
l929;Whampa;calls;;;nan
l930;Pattern;calls;;;nan
l931;Scillies;calls;;;nan
l932;Sierra Leone;calls;;;nan
l934;Downs Broken up in;calls;;;nan
l935;Tanjayang;calls;;;nan
l936;Capt John Balchen;calls;;;nan
l937;Dutch Fleet of Defence based m Japan;calls;;;nan
l938;Trimdade;calls;;;nan
l939;returned to Bantam;calls;;;nan
l940;Jim Madeira;calls;;;nan
l941;Amboyna;calls;-3.69583;128.18333;southeast_asia
l942;Colvin's Ghat;calls;;;nan
l943;Capl Michael Martin;calls;;;nan
l944;St Salvadorc;calls;;;nan
l945;parted companyMauritius and not heard of again;calls;;;nan
l946;Masuhpatam;calls;;;nan
l947;Masulipalam;calls;;;nan
l948;left Bantam for Surat summer 1641. not heard of again;calls;;;nan
l949;wrecked Cape Aghulas. South Africa;calls;;;nan
l950;Downs Muckncll seized the ship on behalf of Charles I;calls;;;nan
l951;Bandar Abbas ' Surat;calls;;;nan
l952;left Bantam and not heard of again;calls;;;nan
l954;Cascais;calls;38.69681;-9.42147;atlantic
l955;voyage ended Bristol;calls;;;nan
l956;Djapara;calls;;;nan
l957;Madapollam;calls;;;nan
l958;Johore river;calls;;;nan
l959;Lmtin;calls;;;nan
l960;voyage ended Downs;calls;;;nan
l961;Cape Verde Islands;calls;;;nan
l963;Kmsale;calls;;;nan
l964;Indialee;calls;;;nan
l966;Pnng Manna;calls;;;nan
l967;captured by a French privateerthe Sand Heads;calls;;;nan
l968;burnt in the Bay of Biscay;calls;;;nan
l969;Acension;calls;;;nan
l970;Cape St Mary, Madagascar;calls;;;nan
l971;"Erith [""this concludes a long and dangerous voyage""]";calls;;;nan
l972;Tellicherty;calls;;;nan
l973;lostMadras;calls;;;nan
l974;North Island;calls;;;nan
l975;Coopers Bay;calls;;;nan
l976;Madras â–  Madras;calls;;;nan
l977;wrecked on Leytons Rock, south;calls;;;nan
l978;west of Bonavista island;calls;;;nan
l979;Culpee Madras;calls;;;nan
l980;Capt Henry Becher Portsmouth;calls;;;nan
l981;Saugor St Helena Downs;calls;;;nan
l982;Algoa Bay;calls;;;nan
l983;Benkulen St Helena;calls;;;nan
l984;Capt George Simpson Torbay;calls;;;nan
l985;Downs * journal contains a chart of New South Wales;calls;;;nan
l986;Released by the French in Simons Bay;calls;;;nan
l987;Banca Straits;calls;;;nan
l988;Borneo coast;calls;;;nan
l989;off Madagascar;calls;;;nan
l990;sold in Bengal;calls;;;nan
l991;Eastern Channel;calls;;;nan
l992;Caipang Bay;calls;;;nan
l993;Tasmama;calls;;;nan
l994;in action agst French ships;calls;;;nan
l995;Capt James Shrive;calls;;;nan
l996;Pulau Condore;calls;;;nan
l997;lostMozambique;calls;;;nan
l998;Dunnose;calls;;;nan
l999;St Eustatia;calls;;;nan
l1000;Jim Mauritius;calls;;;nan
l1001;off Pondicherry;calls;;;nan
l1002;driven on shore near Fort St David by a violent wind, abandoned;calls;;;nan
l1003;fired herself m action agst PortugueseBandar Abbas;calls;;;nan
l1004;Moheli Madras;calls;;;nan
l1005;Telhcherry;calls;;;nan
l1006;Portland Bill;calls;;;nan
l1007;Hollis Bay;calls;;;nan
l1008;St Helena, to settle the island;calls;;;nan
l1009;Makassar;calls;-5.14861;119.43194;southeast_asia
l1011;Downs * includes 'Directions from Bantam to Makassar' by John Edwards;calls;;;nan
l1012;Capt John Privett;calls;;;nan
l1013;Capt Joseph Eaton;calls;;;nan
l1014;Johore;calls;1.4655;103.7578;southeast_asia
l1015;off Parcelar;calls;;;nan
l1016;Portsmouth Dock;calls;;;nan
l1017;Madras, to remain;calls;;;nan
l1018;Second Bar St Helena;calls;;;nan
l1019;run down by HMS RussellBerry Head, total loss;calls;;;nan
l1020;capture of French ship Ceres;calls;;;nan
l1021;Downs * log includes crew list of Regent;calls;;;nan
l1022;went ashoreKedgeree in a hurricane, condemned;calls;;;nan
l1023;off Bantam;calls;;;nan
l1024;Culpee, to remain in India;calls;;;nan
l1025;St George's Channel;calls;;;nan
l1026;DootTm S7l763;calls;;;nan
l1027;Madias;calls;;;nan
l1028;lost nine miles to southwards of Boulogne;calls;;;nan
l1029;Cupee;calls;;;nan
l1030;ship lost;calls;;;nan
l1031;taken by French privateer Bellona;calls;;;nan
l1032;recaptured by HMS Colossus;calls;;;nan
l1033;Capt William Hambly Portsmouth;calls;;;nan
l1034;SÃ£o Tiago;calls;;;nan
l1035;Boeton;calls;-5.4633;122.6024;southeast_asia
l1036;Downs April;calls;;;nan
l1038;Rogue's River;calls;;;nan
l1039;M;calls;;;nan
l1040;Capt Nathamel Horseman;calls;;;nan
l1041;Downs * f. lOv sketch of Table Bay;calls;;;nan
l1042;Miapore;calls;;;nan
l1043;Leith Road;calls;;;nan
l1044;Fultah;calls;;;nan
l1045;Sagor;calls;;;nan
l1046;St Croix;calls;17.72751;-64.74698;atlantic
l1047;Bankshall;calls;;;nan
l1048;attacked by three French warships nr Ganjam;calls;;;nan
l1049;Rogues Rrver;calls;;;nan
l1050;Cox s Island;calls;;;nan
l1051;burnt in the Thames;calls;;;nan
l1052;Luanda;calls;0.31354;34.07146;indian_ocean
l1053;Downs * The shipPortsmouth 1804, to remain in India;calls;;;nan
l1054;Ar St Helena;calls;;;nan
l1055;wreckedMadras * journal includes minutes of enquiry into the loss;calls;;;nan
l1056;Dover;calls;51.12598;1.31257;british_isles
l1057;^ Saugor;calls;;;nan
l1058;went aground in the Bombay harbour;calls;;;nan
l1059;lost on Margate Sands;calls;;;nan
l1060;wrecked in the Hugli;calls;;;nan
l1061;San Thome;calls;;;nan
l1062;forced back to St Augustine's Bay;calls;;;nan
l1063;Capt Matthew Crover;calls;;;nan
l1064;The Nore;calls;;;nan
l1065;Tellicherxy;calls;;;nan
l1066;Downs * journal includes coastline profiles of St Helena;calls;;;nan
l1067;Downs * includes cargo book;calls;;;nan
l1068;sailing between the island, the Cape and Madagascar;calls;;;nan
l1069;Portsmouth M;calls;;;nan
l1070;Sao Thome;calls;0.33654;6.72732;atlantic
l1071;Bandar;calls;2.05;99.75;southeast_asia
l1072;Capt Roger Paxton;calls;;;nan
l1073;Frith;calls;;;nan
l1074;Southampton;calls;50.90395;-1.40428;british_isles
l1075;turned pirate after leaving Bombay;calls;;;nan
l1076;lost in a hurricane;calls;;;nan
l1077;Burah Bazaar;calls;;;nan
l1078;Surabaya;calls;-4.67122;105.72571;southeast_asia
l1079;Downs * & engagements with Angria pirates;calls;;;nan
l1080;coasting;calls;;;nan
l1081;blown upDiamond Point;calls;;;nan
l1082;joined Fleet of Defence based in Japan;calls;;;nan
l1083;wrecked in Dover Roads;calls;;;nan
l1085;captured by Algerine pirates;calls;;;nan
l1086;driven from anchors in a storm and wrecked on 'Fly Island', Holland;calls;;;nan
l1087;July Madras;calls;;;nan
l1088;2i jun Whampoa;calls;;;nan
l1089;Cor;calls;;;nan
l1090;captured with the Gatton, Godfrey, Hillsborough and Royal George by the combined Franco;calls;;;nan
l1091;Left India;calls;;;nan
l1092;lost with all handsRoscvear, Scilly;calls;;;nan
l1093;Kinsalc;calls;;;nan
l1094;Beachy Head;calls;;;nan
l1095;Dee Ingcli;calls;;;nan
l1096;Culpcc;calls;;;nan
l1097;Ingcli Dee;calls;;;nan
l1098;sank leaguesthe Lizard;calls;;;nan
l1099;Dee Bombay;calls;;;nan
l1100;Dee Sural;calls;;;nan
l1101;Banlal;calls;;;nan
l1102;Bcnkulcn;calls;;;nan
l1103;Dee Cuddalorc;calls;;;nan
l1104;Texcl;calls;;;nan
l1105;Dee Benkulen;calls;;;nan
l1106;Manduta;calls;;;nan
l1107;downs;calls;;;nan
l1108;in the Channel;calls;;;nan
l1109;lost'Manacaree;calls;;;nan
l1110;Ballamboan;calls;;;nan
l1111;Downs * diagram of fleet's sailing order;calls;;;nan
l1112;Rajah Basa Roads;calls;;;nan
l1114;laid up, rotten;calls;;;nan
l1115;Capt William Mackett Downs;calls;;;nan
l1116;list of men transfer to the Nonsuch after the wreck of the Vansittart 'Sangee Booloo' Bay;calls;;;nan
l1117;Dublin Bay;calls;;;nan
l1118;Madasgascar;calls;;;nan
l1119;S2o Tiago;calls;;;nan
l1120;disappeared after leaving Madras on;calls;;;nan
l1121;blown upsea;calls;;;nan
l1122;parted from the Hardwick in a violent storm about leagues east of Bourbon and not heard of again;calls;;;nan
l1123;˜At China;calls;;;nan
l1124;Porthsmouth;calls;;;nan
l1125;Oc Bombay;calls;;;nan
l1126;San Salvadore;calls;;;nan
l1127;Downs * includes a letter from Dutch EIC agents about prisoners of war,;calls;;;nan
l1128;lost in Margate Road;calls;;;nan
l1129;Lankeet Flat;calls;;;nan
l1130;struck reef of Kalata 7Â°9,S 121Â°E, ship scuttled Feb,island in small boats;calls;;;nan
l1131;off Chumpee;calls;;;nan
l1132;Port Philip;calls;;;nan
l1133;at Port Jackson;calls;;;nan
l1134;burnt in the river Hugli;calls;;;nan
l1135;II Cape;calls;;;nan
l1136;Bomay;calls;;;nan
l1137;Balassore;calls;;;nan
l1138;San Savadore;calls;;;nan
l1139;captured by French ship La Forte of guns, badly damaged, allowed to proceed;calls;;;nan
l1140;reclaimed as a prize by La Sybille, allowed to proceed;calls;;;nan
l1141;Mozamibique;calls;;;nan
l1142;Mozambique Chanel;calls;;;nan
l1143;voyage ended mid;calls;;;nan
l1144;at Cape;calls;;;nan
l1145;left Priaman;calls;;;nan
l1146;at Ceylon in;calls;;;nan
l1147;left for England 1613, arrived in the autumn;calls;;;nan
l1148;Armagon;calls;;;nan
l1149;laid upBantam in;calls;;;nan
l1150;not heard of since the storm in the river Hugli;calls;;;nan
l1151;towards Lisbon;calls;;;nan
l1152;blockadeAden;calls;;;nan
l1153;Starits of Sunda;calls;;;nan
l1154;laid up in Java as a careening hulk;calls;;;nan
l1155;Downs * sketches f.22 Trinidade, f.32 Cape;calls;;;nan
l1156;blown upMadras;calls;;;nan
l1157;lostScilly;calls;;;nan
l1158;lost near Cape Comorin;calls;;;nan
l1159;Colombo Bombay;calls;;;nan
l1160;Madras Downs;calls;;;nan
l1161;manna;calls;;;nan
l1162;captured French brig La France;calls;;;nan
l1163;captured by French and taken into Mauritius, prisoners freedBombay;calls;;;nan
l1164;Downs * see 'The voyage of the Pitt;calls;;;nan
l1165;a turning point in the East India navigation', R P Crowhurst, Mariner's Mirror  pp.43;calls;;;nan
l1166;Trinidale;calls;;;nan
l1168;Capt Benjamin Fisher Portsmouth;calls;;;nan
l1169;Balasore Calcutta;calls;;;nan
l1170;Batticaloa;calls;7.7102;81.6924;madras_presidency
l1171;Hog River Creek, Bengal;calls;;;nan
l1172;wrecked 9/11 Helston Rocks, Mount's Bay, Cornwall;calls;;;nan
l1173;Porto Novo;calls;17.01969;-25.06471;atlantic
l1174;Do Ingeli;calls;;;nan
l1175;returned to Pondicheny;calls;;;nan
l1177;Manabulle;calls;;;nan
l1178;Natal;calls;0.5632;99.1099;southeast_asia
l1179;Lye Road;calls;;;nan
l1181;not heard of after the;calls;;;nan
l1182;Tynemouth;calls;55.01788;-1.42559;british_isles
l1183;King's Channel;calls;;;nan
l1184;Tamborneo;calls;;;nan
l1185;Teignmouth;calls;50.54581;-3.49671;british_isles
l1186;Iceland;calls;;;nan
l1187;Gunfleet;calls;;;nan
l1188;Malacca Whampoa;calls;;;nan
l1189;Isle of Wight;calls;36.90765;-76.70773;atlantic
l1190;New Year's Island;calls;;;nan
l1195;off Morotai;calls;;;nan
l1196;off Taiwan;calls;;;nan
l1197;left Madras and foundered in a gale;calls;;;nan
l1198;Portsmouth Madras;calls;;;nan
l1199;Capt John Innes Downs;calls;;;nan
l1200;Madras, decoyed and captured there bv the French;calls;;;nan
l1201;burntPigeon Island;calls;;;nan
l1202;taken by the French;calls;;;nan
l1203;Straits of New Guinea;calls;;;nan
l1204;returned to Macao;calls;;;nan
l1205;Pearl River;calls;32.78347;-89.22784;atlantic
l1206;Bab el Mandel;calls;;;nan
l1207;captured by a French frigate in Vizagapatam Roads;calls;;;nan
l1208;lost on a reefMaio, Cape Verde Islands;calls;;;nan
l1209;returned to Kinsale;calls;;;nan
l1210;capturedMadras by the French;calls;;;nan
l1211;returned to Penang;calls;;;nan
l1212;Culpeee;calls;;;nan
l1213;off Beachy Head;calls;;;nan
l1214;off Java Head;calls;;;nan
l1215;captured by the FrenchAnger Point;calls;;;nan
l1216;Croce;calls;;;nan
l1217;Geriah;calls;;;nan
l1218;East India Docks;calls;;;nan
l1219;taken by the FrenchSt Helena;calls;;;nan
l1220;burntSan Salvadore;calls;;;nan
l1221;along Sumatra coast;calls;;;nan
l1222;* inc coastline sketches;calls;;;nan
l1223;Cape Lagullas, False Cape, St Helena;calls;;;nan
l1224;off Bankshall;calls;;;nan
l1225;returned by;calls;;;nan
l1226;captured in Tellicheny Roads by French frigate Prenuse;calls;;;nan
l1227;Downs Dee;calls;;;nan
l1228;Downs Jim;calls;;;nan
l1229;Dee Calcutta;calls;;;nan
l1230;Surat Dee;calls;;;nan
l1231;Mohcli;calls;;;nan
l1232;Bantam, foundered May, broken up;calls;;;nan
l1233;lost nr Manila;calls;;;nan
l1234;6'Aug Penang;calls;;;nan
l1235;Capt Francis Wilshaw;calls;;;nan
l1236;lost in a storm in Balasore Roads between;calls;;;nan
l1237;off Bengal;calls;;;nan
l1238;gap;calls;44.55858;6.07868;atlantic
l1239;Cock Island;calls;;;nan
l1240;Island;calls;;;nan
l1241;Nagasaki;calls;32.75;129.88333;china
l1243;A Downs;calls;;;nan
l1244;Pulo Timan;calls;;;nan
l1245;Capt William Dyke;calls;;;nan
l1246;Capt John Bromwell;calls;;;nan
l1247;Kitow;calls;;;nan
l1248;Capt William Browne;calls;;;nan
l1249;Kisnapatam;calls;;;nan
l1250;Downs Sankher anchorsGarden Island, Western Australia, 1831. Her emigrant passengers established the settlement Rockingham Town.;calls;;;nan
l1251;Coromandel Coast;calls;;;nan
l1252;in England by;calls;;;nan
l1253;at Priaman and Tiku in;calls;;;nan
l1254;at Surat and Mokha in;calls;;;nan
l1255;at Batavia and Masulipatam in;calls;;;nan
l1256;ran ashore nr Masulipatam in 1626, burnt;calls;;;nan
l1257;captured a French slaver;calls;;;nan
l1258;Jaggemaickpuram;calls;;;nan
l1259;Barrier Islands;calls;;;nan
l1260;lost on shoalsPalawan;calls;;;nan
l1261;longboat reached Balambangan;calls;;;nan
l1262;crew home on Syren;calls;;;nan
l1263;Pulao Bay;calls;;;nan
l1264;Jim Downs;calls;;;nan
l1265;enaged in siege of Pondicherry in;calls;;;nan
l1266;Calderoon Bay;calls;;;nan
l1267;Cabinda Bay, Angola;calls;;;nan
l1268;captured, with the Gatton, Godfrey, Hillsborough and Mountstuart, by the combined Franco;calls;;;nan
l1269;Spanish fleet in 26Â°28'N & 15Â°20'W;calls;;;nan
l1270;Uockelee;calls;;;nan
l1271;Straits of Malacca;calls;;;nan
l1272;Downs * inc col sketches of islands in Straits of Malacca;calls;;;nan
l1273;journal ends 1689, northwards of Batavia;calls;;;nan
l1274;wrecked Bay of Bengal;calls;;;nan
l1275;L/MAR/A/XCVIII Journal;calls;;;nan
l1276;Sutanati;calls;;;nan
l1277;Capt William Blundell;calls;;;nan
l1278;Downs Sold;calls;;;nan
l1279;Capt John Barber Downs;calls;;;nan
l1280;lost'Mayota;calls;;;nan
l1281;Capt John Hitchings Calcutta;calls;;;nan
l1282;Capt Anthony Ryan;calls;;;nan
l1283;Angra Pequena;calls;;;nan
l1284;captured by 'the desperado Don Antonio Constanti' 1830, saved by the carpenter and remaining five crew, reached Sierra Leone;calls;;;nan
l1285;cruising with Harrington;calls;;;nan
l1286;Tellicheriy;calls;;;nan
l1287;St Paul's, Luanda;calls;;;nan
l1288;Culpee Ingeli;calls;;;nan
l1289;Downs Guinea;calls;;;nan
l1290;Madras wrecked between Masulipatam and Madapollam;calls;;;nan
l1291;Downs Bantam;calls;;;nan
l1292;off Batavia;calls;;;nan
l1293;f.32 sketches of Cape of Good Hope and Cape False ff.101;calls;;;nan
l1294;navigational rules;calls;;;nan
l1295;Capt Anthony Earning Downs;calls;;;nan
l1296;Kharg;calls;;;nan
l1297;off the Lizard;calls;;;nan
l1298;abandoned in the Atlantic 1610, empty;calls;;;nan
l1299;Surat, attacked by Portuguese Dec, fired to prevent her capture;calls;;;nan
l1300;captured by French, ransomed;calls;;;nan
l1301;hugli river;calls;;;nan
l1302;˜Caracf;calls;;;nan
l1303;Genoa;calls;41.51811;-83.35909;atlantic
l1304;Leghorn;calls;43.54427;10.32615;atlantic
l1305;Capt Simon Cumberland;calls;;;nan
l1306;Kenmair river, Ireland;calls;;;nan
l1307;Second â–  St Helena;calls;;;nan
l1308;Spithcad;calls;;;nan
l1309;Anjcngo;calls;;;nan
l1310;encounter with William Kidd the pirate in the Bab cl Mandeb;calls;;;nan
l1311;Downs * f.7v list of officers, against each name an armorial seal;calls;;;nan
l1312;wreckedNash Point, Bristol Channel.;calls;;;nan
l1313;Capt Thomas Woodcock;calls;;;nan
l1314;Borrum;calls;;;nan
l1315;Aden, abandoned there in;calls;;;nan
l1316;Okinawa;calls;26.33583;127.80139;china
l1317;cPulau Laurotf;calls;;;nan
l1318;did not return;calls;;;nan
l1319;L/MAR/B/340A Journal;calls;;;nan
l1320;1803, anon Calcutta;calls;;;nan
l1321;Culpec;calls;;;nan
l1322;Capt Richard Wouldhave;calls;;;nan
l1323;Hog River;calls;;;nan
l1324;Downs * inc list of French prisoners;calls;;;nan
l1325;damaged in storm, forced back for repairs;calls;;;nan
l1326;Jim St Helena;calls;;;nan
l1327;skirmish with French privateer La Venus, prisoners taken;calls;;;nan
l1328;parted company from the Union and not heard of again;calls;;;nan
l1329;lost on the bar of Tonkin;calls;;;nan
l1330;arrived in England after August;calls;;;nan
l1331;captured by Dutch nr Pulo Run;calls;;;nan
l1332;Dewas;calls;22.96585;76.05526;indian_ocean
l1334;Trengganu;calls;5.3302;103.1408;southeast_asia
l1335;lost in the Hugli river;calls;;;nan
l1336;Salsette;calls;;;nan
l1337;Woolwich * B ff.38v;calls;;;nan
l1338;& C ff.56;calls;;;nan
l1339;57, 59y;calls;;;nan
l1340;60v action agst Angria's fleet;calls;;;nan
l1341;captured by Dutch in Straits of Sunda 1619, recovered;calls;;;nan
l1342;in action agst Portuguese;calls;;;nan
l1343;Armagaon;calls;;;nan
l1344;off Spithead;calls;;;nan
l1345;Mary Surat;calls;;;nan
l1346;Scafareen Roads, Ireland;calls;;;nan
l1347;lost in hugli river;calls;;;nan
l1348;captured by the French in 9Â°S 91Â°E, recapturedBourbon;calls;;;nan
l1350;Java Head;calls;;;nan
l1351;lost nr St Thomas's Mount;calls;;;nan
l1352;Leith Roads;calls;;;nan
l1353;Downs * inc coastal profiles, sketch of encounter with a French ship;calls;;;nan
l1354;Jim Malacca;calls;;;nan
l1355;wrecked'Engano', Sumatra,;calls;;;nan
l1356;Banaca;calls;;;nan
l1357;Capt Francis Johnson;calls;;;nan
l1358;Capt Nathaniel Reynolds Downs;calls;;;nan
l1359;Point dc Galle;calls;;;nan
l1360;Indramayo;calls;;;nan
l1361;Woolwich LJFcb;calls;;;nan
l1362;arrived in England before;calls;;;nan
l1363;parted company from the Hector after three months, not heard of again;calls;;;nan
l1364;Macassar Batavia;calls;;;nan
l1365;Surat, accidentally fired;calls;;;nan
l1366;Capt John Bell Downs;calls;;;nan
l1368;at Bantam in each year;calls;;;nan
l1370;Trincomale;calls;;;nan
l1371;Balambangam;calls;;;nan
l1372;Downs * inc inventory of stores;calls;;;nan
l1373;Gt Yarmouth;calls;;;nan
l1374;Amsterdam Island;calls;;;nan
l1375;Bass Straits;calls;;;nan
l1377;Sajo Island;calls;;;nan
l1378;off Newfoundland Banks;calls;;;nan
l1379;Benkulen Whampoa;calls;;;nan
l1380;St Helena Downs;calls;;;nan
l1381;Portsmouth St Helena;calls;;;nan
l1382;Second Bar Cape;calls;;;nan
l1383;Capt John Skottowe Plymouth;calls;;;nan
l1384;St Helena Whampoa;calls;;;nan
l1385;went on shoreBeachy Head Feb, returned to Thames;calls;;;nan
l1386;Cheduba;calls;;;nan
l1387;Toun;calls;46.75118;7.62166;atlantic
l1388;Capsmgmoon Passage;calls;;;nan
l1389;left Bengal St Helena;calls;;;nan
l1390;participated in blockade of Red Sea until;calls;;;nan
l1391;Inn Bombay;calls;;;nan
l1392;Bombay Penang;calls;;;nan
l1393;Macassar Jul, wrecked '12 leagues out;calls;;;nan
l1394;wreckedPortquin, Cornwall,;calls;;;nan
l1395;Received Royal licence;calls;;;nan
l1396;left Cowes with Tiger's Whelp pinnace;calls;;;nan
l1397;Coast of Sumatra;calls;;;nan
l1398;left for Pattani Nov, attacked by Japanese pirates, pilot John Davis killed, voyage abandoned;calls;;;nan
l1399;Portsmouth See Purchas vol. bk.3 chap. s.6 for a summary journal, and The voyages and works of John Davis the Navigator, ed Albert Hastings Markham, Hakluyt Soc 1st ser no.59;calls;;;nan
l1400;Goa Bombay;calls;;;nan
l1401;Johnna;calls;;;nan
l1402;Second I;calls;;;nan
l1403;Sao Paulo;calls;-23.5475;-46.63611;atlantic
l1404;L/MAR/B/689B Journal;calls;;;nan
l1405;1713, William Wingfield, Chief Mate Downs;calls;;;nan
l1406;Bantam, ship abandoned after death of Middleton 1613, eventually burnt by Javanese in or;calls;;;nan
l1407;Capt Thomas Sanders Downs;calls;;;nan
l1408;wrecked in the Andaman Islands;calls;;;nan
l1409;wrecked on 'Trial Rocks' leaguesWestern Australia, survivors reached Bantam;calls;;;nan
l1410;Lough Swilly, Donegal;calls;;;nan
l1411;Launched Madras;calls;;;nan
l1412;Capt Gilbert Slater Downs;calls;;;nan
l1413;Loronho Bay;calls;;;nan
l1414;Straits of Sunda;calls;;;nan
l1415;course changed on news of French warshipsBantam;calls;;;nan
l1416;Rajapore;calls;;;nan
l1417;Whampoa . Second Bar;calls;;;nan
l1418;Downs * inc sketches of Trinidade;calls;;;nan
l1419;captured by the French in Balasore Roads;calls;;;nan
l1420;Downs * inc note 'state of the sails;calls;;;nan
l1421;Dunderogipore;calls;;;nan
l1422;Straits of Banca;calls;;;nan
l1423;Rio dc Janeiro;calls;;;nan
l1424;Pulo Auroe;calls;;;nan
l1425;Downs * inc illus;calls;;;nan
l1426;parted company in China Seas and not heard of again;calls;;;nan
l1427;left Portsmouth for India;calls;;;nan
l1428;[to Boston via Lisbon in an un;calls;;;nan
l1429;named vessel;calls;;;nan
l1430;Boston 1698, for Rhode Island, Newfoundland and London;calls;;;nan
l1431;at Tonkin;calls;;;nan
l1432;wrecked nr Macao en route to Japan;calls;;;nan
l1433;Zanzibar;calls;-6.16394;39.19793;indian_ocean
l1434;wrecked on rocks of Audierne, Britanny, for lack of crew, cargo looted;calls;;;nan
l1435;Indremayo;calls;;;nan
l1436;Coringa Roads;calls;;;nan
l1437;captured by French ships La Manche and La Venus 1809. officers landedVizagapalam;calls;;;nan
l1438;Hainan;calls;;;nan
l1439;lost on He de MerchantSark [wreck discovered 1976];calls;;;nan
l1440;Monsourcottah;calls;;;nan
l1441;wreckedMaio, Cape Verde Islands;calls;;;nan
l1442;wrecked on a rock in Straits of Caspar, crew escaped in ship's boats;calls;;;nan
l1443;River Shanon;calls;;;nan
l1444;Cmdr Lt Alexander Davidson RN Calcutta;calls;;;nan
l1445;Princess Island;calls;;;nan
l1446;capturedCeylon by two French ships;calls;;;nan
l1447;Calingapatam;calls;;;nan
l1448;wrecked in a storm in Margate Roads;calls;;;nan
l1449;off Pondicherry with Admiral Cornwallis's squadron;calls;;;nan
l1450;Penang : Malacca;calls;;;nan
l1451;Diamond Island;calls;;;nan
l1453;Sapi Bay, Celebes;calls;;;nan
l1454;at St Helena;calls;;;nan
l1455;at Benkulen;calls;;;nan
l1456;captured by the French frigate La Piedmontaise in 26Â°13'S 56Â°45,W;calls;;;nan
l1457;Toonkoo Bay;calls;;;nan
l1458;Ventry Harbour, Ireland;calls;;;nan
l1459;Downs See Barlow's Journal, ed Basil Lubbock  pp.502;calls;;;nan
l1460;Chittagong river;calls;;;nan
l1461;Bimlipatam;calls;;;nan
l1462;He de Rhe;calls;;;nan
l1463;lost leaguesSurat;calls;;;nan
l1464;laid upBatavia;calls;;;nan
l1465;Chow;calls;;;nan
l1466;long;calls;18.07422;99.83073;indian_ocean
l1467;LSaugor;calls;;;nan
l1468;Onraet;calls;;;nan
l1469;lost to the east of Algoa Bay in 1814, no survivors;calls;;;nan
l1470;driven on shore nr Fort St David by 'a violent storm of wind;calls;;;nan
l1471;Ingeli Mar, lost on Caspar Sands same day;calls;;;nan
l1472;ship leaky;calls;;;nan
l1473;captured by French La Venus;calls;;;nan
l1474;retaken by HMS Magicienne;calls;;;nan
l1475;captured by French La Bellona;calls;;;nan
l1476;retaken, supplied with a new crewBourbon Nov,Bourbon;calls;;;nan
l1477;Bellial, Portugal;calls;;;nan
l1478;lostMadagascar;calls;;;nan
l1479;captured by French frigate La Prenuse in Tellicherry Roads;calls;;;nan
l1480;Gressee;calls;;;nan
l1481;lost in River Shannon;calls;;;nan
l1482;Onores;calls;;;nan
l1483;cSaloomah;calls;;;nan
l1484;Capt Thomas Lucas;calls;;;nan
l1485;Sold to the Sultan of Bantam;calls;;;nan
l1486;wreckedSocotra;calls;;;nan
l1487;South;ships_built_at;;;nan
l1488;Pauli;ships_built_at;;;nan
l1489;Itchenor;ships_built_at;;;nan
l1490;Whitby;ships_built_at;54.48774;-0.61498;british_isles
l1491;the;ships_built_at;-5.08917;-42.80194;atlantic
l1492;Culpe'];ships_built_at;;;nan
l1493;Ipswich;ships_built_at;52.05917;1.15545;british_isles
l1494;Harwich;ships_built_at;51.94194;1.28437;british_isles
l1495;Nov 1805 ten crew injured in skirmish with French ship;voyage_destinations;;;nan
l1496;Philippines;voyage_destinations;;;nan
l1497;From Bengal;voyage_destinations;;;nan
l1498;Cambodia;voyage_destinations;;;nan
l1499;Japan;voyage_destinations;;;nan
l1500;eb 1650 -;voyage_destinations;;;nan
l1501;Banta;voyage_destinations;60.29414;25.04099;indian_ocean
l1502;1806/7 St Helena;voyage_destinations;;;nan
l1503;Apr 1821-30 Sep 1822;voyage_destinations;;;nan
l1504;1802-18 Dec 1803;voyage_destinations;;;nan
l1505;Borne;voyage_destinations;51.94881;11.55865;atlantic
l1506;To remain in India;voyage_destinations;;;nan
l1507;Jan 1681 -28 Aug 1682;voyage_destinations;;;nan
l1508;East Indies;voyage_destinations;;;nan
l1509;1803/4 China;voyage_destinations;;;nan
l1510;the Maldives;voyage_destinations;;;nan
l1511;1831/2 Madras;voyage_destinations;;;nan
l1512;1829/30 China;voyage_destinations;;;nan
l1513;t St David;voyage_destinations;;;nan
l1514;China 1817;voyage_destinations;;;nan
l1515;Oct 1801 recaptured Friendship snow of Vizagapatam from French;voyage_destinations;;;nan
l1516;5 1792/3 Bombay;voyage_destinations;;;nan
l1517;Dec 1700-;voyage_destinations;;;nan
l1518;2 1736/7 Madras;voyage_destinations;;;nan
l1519;Bombay (to remain);voyage_destinations;;;nan
l1520;1722 -;voyage_destinations;;;nan
l1521;Jan 1681-21 Nov 1682;voyage_destinations;;;nan
l1522;New Company voyage;voyage_destinations;;;nan
l1523;Guinea (to remain);voyage_destinations;;;nan
l1524;Mar Cape -17 Apr St Helena -13 Jul Downs 1;voyage_destinations;;;nan
l1525;1832/3 St Helena;voyage_destinations;;;nan
l1526;St Helena -17 Jul Thames;voyage_destinations;;;nan
l1527;1804/5 Madras;voyage_destinations;;;nan
l1528;West Indies;voyage_destinations;;;nan
l1529;8 1828/9 Bombay;voyage_destinations;;;nan
l1530;Jan 1677 -;voyage_destinations;32.29876;-90.18481;atlantic
l1531;Dec 1727 -11 Jun 1729;voyage_destinations;;;nan
l1532;and Bengal;voyage_destinations;;;nan
l1533;Apr Blackwall;voyage_destinations;;;nan
l1534;Nov 1717-11 Jun 1719;voyage_destinations;;;nan
l1535;6 1818/9 Madras;voyage_destinations;;;nan
l1536;(^hina;voyage_destinations;;;nan
l1537;1832/3 Madras;voyage_destinations;;;nan
l1538;815/6 Bombay;voyage_destinations;;;nan
l1539;' Bengal;voyage_destinations;;;nan
l1540;Mar 1812 St Helena -15 May Long Reach;voyage_destinations;;;nan
l1541;1801/2 China;voyage_destinations;;;nan
l1542;1831/2 Bengal;voyage_destinations;;;nan
l1543;Apr 1699 -;voyage_destinations;;;nan
l1544;Nova Scotia;voyage_destinations;;;nan
l1545;Madras L/MAM/B/698G(3) Imprest Book;voyage_destinations;;;nan
l1546;Benkulen (to remain);voyage_destinations;;;nan
l1547;North-West Passage;voyage_destinations;;;nan
l1548;India;voyage_destinations;;;nan
l1549;Sep 1681 -29 Aug 1683;voyage_destinations;;;nan
l1550;South Pacific;voyage_destinations;;;nan
l1551;9 Madras;voyage_destinations;;;nan
l1552;and China;voyage_destinations;;;nan
l1553;Surat Master Thomas Tayl;voyage_destinations;;;nan
l1554;1831/2 China;voyage_destinations;;;nan
l1555;Journal 13 May 1794-14 Sep 1795;voyage_destinations;;;nan
l1556;Bengal 1801 .;voyage_destinations;;;nan
l1557;West Africa;voyage_destinations;;;nan
l1558;1647;voyage_destinations;;;nan
l1559;1648;voyage_destinations;;;nan
l1560;to Bandar Abbas 1649 (twice);voyage_destinations;;;nan
l1561;80 Sia;voyage_destinations;16.57452;107.51066;southeast_asia
l1562;India 1784 L/MAM/B/540C(1) Ledge;voyage_destinations;;;nan
l1563;1785/6 Madras;voyage_destinations;;;nan
l1564;eb 1713 -12 Mar 1715;voyage_destinations;;;nan
l1565;1830/1 St Helena;voyage_destinations;;;nan
l1566;'For India';voyage_destinations;;;nan
l1567;Bantam Master Gilbert Grimes ?;voyage_destinations;;;nan
l1568;Pay Book;voyage_destinations;;;nan
l1569;Helena;voyage_destinations;36.54614;-98.27007;atlantic
l1570;China L/MAM/B/390J Journal 8 Dec 1786-28 Aug 1788;voyage_destinations;;;nan
l1571;Australia;voyage_destinations;;;nan
l1572;1832/3 Bombay;voyage_destinations;;;nan
l1573;Jun Downs;voyage_destinations;;;nan
l1574;Benga;voyage_destinations;;;nan
l1575;China L/MAM/B/131B Deck Log 19 Dec 1831-15 Jun 1832;voyage_destinations;;;nan
l1576;China L/MAM/B/438H Journal 14 Jan 1755-13 Sep 1757 L/MAM/B/438BB(1) Ledger L/MAM/B/438BB(2) Pay Book;voyage_destinations;;;nan
l1577;1700 Gibralta;voyage_destinations;;;nan
l1578;'India';voyage_destinations;;;nan
l1579;Benkulcn;voyage_destinations;;;nan
l1580;Mar 1678 -;voyage_destinations;;;nan
l1581;to remain as country ship;voyage_destinations;;;nan
l1582;1685 -28 Aug 1687;voyage_destinations;;;nan
l1583;Jan 1701 -17 Sep 1702;voyage_destinations;;;nan
l1584;Macassa;voyage_destinations;;;nan
l1585;South Seas;voyage_destinations;;;nan
l1586;Jan 1825-29 Jun Calcutta;voyage_destinations;;;nan
l1587;Holland;voyage_destinations;41.62172;-83.7116;atlantic
l1588;1809;voyage_destinations;;;nan
l1589;Journal on Jonas;voyage_destinations;;;nan
l1590;Lion 17 Mar 1621-22 Jul 1623;voyage_destinations;;;nan
l1591;Richard Swanley Master John Weddell;voyage_destinations;;;nan
l1592;crew;voyage_destinations;;;nan
l1593;Madagasgar;voyage_destinations;;;nan
l1594;the South Seas;voyage_destinations;;;nan
l1595;3 1745/6 Bombay;voyage_destinations;;;nan
l1596;1821/2 St Helena;voyage_destinations;;;nan
l1597;New 1699-6 Mar 1702;voyage_destinations;;;nan
l1598;Macasse;voyage_destinations;;;nan
l1599;1831/2 St Helena;voyage_destinations;;;nan
l1600;Oct Whampoa -19 Jan 1831 Second Bar -11 Apr St Helena -10 Jun Downs;voyage_destinations;;;nan
l1601;Surat (New Company);voyage_destinations;;;nan
l1602;Surat (Licensed ship);voyage_destinations;;;nan
l1603;1698 -;voyage_destinations;;;nan
l1604;eb 1715 -27 Jul 1716;voyage_destinations;;;nan
l1605;Sia;voyage_destinations;;;nan
l1606;1832/3 China;voyage_destinations;;;nan
l1607;739/40 Mokha;voyage_destinations;;;nan
l1608;3 1777/8 Bombay;voyage_destinations;;;nan
l1609;India 1782;voyage_destinations;;;nan
l1610;eb 1682 -29 Aug 1683;voyage_destinations;;;nan
l1611;and Amoy (New Company L/MAM/A/CLVn Journal 2 Dec 1700-16 Sep 1702;voyage_destinations;;;nan
l1612;from India 10 Apr 1783;voyage_destinations;;;nan
l1613;Nov 1682- 11 May 1684;voyage_destinations;;;nan
l1614;Benkulan;voyage_destinations;;;nan
l1615;Sep 1681 -29 Sep 1683;voyage_destinations;;;nan
l1616;May 1792 'stood to sea from St Helena' -19-20 May skirmish with the French fleet;voyage_destinations;;;nan
l1617;Sep Downs;voyage_destinations;;;nan
l1618;Borneo (New Company);voyage_destinations;;;nan
l1619;in England Jul 1810;voyage_destinations;;;nan
l1620;South Wales;voyage_destinations;;;nan
l1621;B;voyage_destinations;;;nan
l1622;British Columbia;voyage_destinations;;;nan
l1623;the Moluccas;voyage_destinations;;;nan
l1624;1825/6 China;voyage_destinations;;;nan
l1625;1719 -18 Mar 1729;voyage_destinations;;;nan
l1626;Bengal (to remain);voyage_destinations;;;nan
l1627;1701 -2 Apr 1703;voyage_destinations;;;nan
l1628;China (Licensed ship);voyage_destinations;;;nan
l1629;Bengal (New Company);voyage_destinations;;;nan
l1630;inc sketches of the ship;voyage_destinations;;;nan
l1631;the season's convoy;voyage_destinations;;;nan
l1632;fish;voyage_destinations;;;nan
l1633;birds;voyage_destinations;;;nan
l1634;Batavia Roads;voyage_destinations;;;nan
l1635;Aug Downs;voyage_destinations;;;nan
l1636;Nov 1683 -21 Mar 1685;voyage_destinations;;;nan
l1637;Bombay (to remain) Downs 4 May 1686-;voyage_destinations;;;nan
l1638;St Helena (to remain);voyage_destinations;;;nan
l1639;eb 1682-8 Aug 1683;voyage_destinations;;;nan
l1640;May 1681 -23 Sep 1682;voyage_destinations;;;nan
l1641;1614;voyage_destinations;;;nan
l1642;1615;voyage_destinations;;;nan
l1643;Surat (to remain);voyage_destinations;;;nan
l1644;1 From Calcutta;voyage_destinations;;;nan
l1645;Dec 1684 -28 Jul 1687;voyage_destinations;;;nan
l1646;To West Indies;voyage_destinations;;;nan
l1647;Madras (to remain);voyage_destinations;;;nan
l1648;8/9 Bengal;voyage_destinations;;;nan
l1649;LMARS 15A-B Journal 11 May 1795-24 Feb 1797;voyage_destinations;;;nan
l1650;South Atlantic;voyage_destinations;;;nan
l1651;Nov 1712-28 Jul 1717;voyage_destinations;;;nan
l1652;Jan 1719-25 Aug 1720;voyage_destinations;;;nan
l1653;Tasmania;voyage_destinations;;;nan
l1654;Jan 1716 -19 Aug 1717;voyage_destinations;;;nan
l1655;Madagasca;voyage_destinations;;;nan
l1656;India 1757;voyage_destinations;;;nan
l1657;Balambanga;voyage_destinations;;;nan
l1658;1796;voyage_destinations;;;nan
l1659;1798 St Helena -17 Mar Downs;voyage_destinations;;;nan
l1660;China (New Company);voyage_destinations;;;nan
l1661;Boston;voyage_destinations;52.97633;-0.02664;british_isles
l1662;Batavia (to remain);voyage_destinations;;;nan
l1663;1830/1 China;voyage_destinations;;;nan
l1664;ap St Mary's;persons_birth;;;nan
l1665;Mezignac nr Bordeaux;persons_birth;;;nan
l1667;Surgeon;persons_birth;;;nan
l1668;Dalgetty;persons_birth;;;nan
l1669;Bowbrickhill;persons_birth;;;nan
l1670;Craigs;persons_birth;;;nan
l1671;purser REGENT 1821/2;persons_birth;;;nan
l1672;commumeed covert Ships Honduras and African trade Aye Tighmente IRAN IENS SY ORO approved Peb Ivehyagad 32);persons_birth;;;nan
l1674;1st mate SCALEBY CASTLE 1832/3 m St Luke's;persons_birth;;;nan
l1675;Edinburgh;persons_birth;55.95206;-3.19648;british_isles
l1676;ap Ealing;persons_birth;;;nan
l1677;Maidenhall;persons_birth;;;nan
l1679;apptd Surgeon at St Helena;persons_birth;;;nan
l1680;Salemstead;persons_birth;;;nan
l1681;Greenock;persons_birth;55.94838;-4.76121;british_isles
l1682;1738;persons_birth;;;nan
l1683;run;persons_birth;;;nan
l1684;Bombay Asst Surgeon;persons_birth;;;nan
l1685;oth ielsd ANA (1804/5! Ah AOLORE RN TET 1805/6;persons_birth;;;nan
l1686;South Petherton;persons_birth;50.94829;-2.80708;british_isles
l1687;Bridgwater;persons_birth;51.12837;-3.00356;british_isles
l1688;Hurstmonceux;persons_birth;;;nan
l1689;Melton Constable;persons_birth;;;nan
l1690;3rd mate RAVENSWORTH 1785/6 (approved 1786;persons_birth;;;nan
l1691;Glasgow;persons_birth;55.86515;-4.25763;british_isles
l1692;3rd mate DUKE OF GRAFTON 1775/6;persons_birth;;;nan
l1693;Stogursey;persons_birth;;;nan
l1694;France;persons_birth;;;nan
l1695;Saxthorpe;persons_birth;;;nan
l1696;1765/6 b England;persons_birth;;;nan
l1697;4th mate AIRLEY CASTLE 1787/8 (approved 1788;persons_birth;;;nan
l1698;Hendon;persons_birth;51.6;-0.21667;british_isles
l1699;Mirzapur;persons_birth;24.10287;90.09841;bengal_presidency
l1700;d;persons_birth;;;nan
l1701;Denaticon;persons_birth;;;nan
l1702;ap Waltham Lincs;persons_birth;;;nan
l1703;Sestland;persons_birth;;;nan
l1704;Stale APMERAIL GARDNER 180g/9 m St Mary's;persons_birth;;;nan
l1706;Member Bengal Medical Board & Insp-Gen of Hospitals;persons_birth;;;nan
l1707;3rd mate ROYAL BISHOP 1785/6 (approved 1726;persons_birth;;;nan
l1708;Milbrooke;persons_birth;;;nan
l1709;ap Tottenham;persons_birth;;;nan
l1710;lost im senects;persons_birth;;;nan
l1711;employed attending the wreck until;persons_birth;;;nan
l1712;Knockdrin Castle;persons_birth;;;nan
l1713;Aldham;persons_birth;;;nan
l1714;resigned active service 2nd Mysore War 1781-82;persons_birth;;;nan
l1715;4th mate PHOENIX (3) 1799/1800 (approved 1800;persons_birth;;;nan
l1716;ap St Augustine's;persons_birth;;;nan
l1717;Rottingdean;persons_birth;50.80984;-0.05939;british_isles
l1718;approved as 1st mats HIECTOR 176;persons_birth;;;nan
l1719;St Marylebone;persons_birth;;;nan
l1720;Kettle;persons_birth;;;nan
l1721;Sanguhar;persons_birth;;;nan
l1722;Redgrave;persons_birth;;;nan
l1723;Norwich;persons_birth;52.62783;1.29834;british_isles
l1724;Harley St;persons_birth;;;nan
l1725;Banff;persons_birth;57.66477;-2.52964;british_isles
l1726;Tenby;persons_birth;51.67279;-4.70447;british_isles
l1727;& Lee;persons_birth;51.45556;0.00515;british_isles
l1728;d Calcutta m Hammersmith;persons_birth;;;nan
l1729;Lambeth;persons_birth;51.49635;-0.11152;british_isles
l1730;Stratford-on-Avon;persons_birth;;;nan
l1731;seoma Gy) & 2nd mate (ly) James & Rebeses to Antique;persons_birth;;;nan
l1732;Clement's Lane;persons_birth;;;nan
l1733;South Leith;persons_birth;;;nan
l1734;resigned;persons_birth;;;nan
l1735;St Alphage's pa;persons_birth;;;nan
l1736;d Calcutta;persons_birth;;;nan
l1737;Hertford;persons_birth;51.79588;-0.07854;british_isles
l1738;Kirkaldy;persons_birth;;;nan
l1739;3nd matte MUAIRCEMUOINESS OF ELY 1821/2;persons_birth;;;nan
l1740;Milburn St Andrews;persons_birth;;;nan
l1741;Old Melton;persons_birth;;;nan
l1742;ap Whitby;persons_birth;;;nan
l1743;3rd mate PONSBORNE 1779/80;persons_birth;;;nan
l1744;d3;persons_birth;;;nan
l1745;Kinnettles;persons_birth;;;nan
l1746;St Andrew's pa;persons_birth;;;nan
l1747;St Peter Port;persons_birth;49.45981;-2.53527;british_isles
l1748;4th mate THISTLEWORTH 1718/9 (to 1720);persons_birth;;;nan
l1749;England senmem LORD CANIN (1) 1771/2;persons_birth;;;nan
l1751;d7;persons_birth;;;nan
l1752;Capt EARL OF BALCARRAS 1827/8;persons_birth;;;nan
l1753;Rhynie;persons_birth;;;nan
l1754;Kilmarnock;persons_birth;55.61171;-4.49581;british_isles
l1755;im Rotterdam;persons_birth;;;nan
l1756;Newsom;persons_birth;;;nan
l1757;resigned secvod es sumpeon to ir Eyre Covte the Carnatic;persons_birth;;;nan
l1758;Perthshire;persons_birth;;;nan
l1759;Holbrook;persons_birth;51.9834;1.15854;british_isles
l1760;(approved 1786;persons_birth;;;nan
l1761;St Martin-in-the-Fields pa;persons_birth;;;nan
l1762;4th mate CARMARTHEN 1805/6 ed as 2nd mate DUBLIN 1787;persons_birth;;;nan
l1763;Capt THOMAS GRENVILLE 1832/3 m Bridgewater;persons_birth;;;nan
l1764;3rd mate b Ireland;persons_birth;;;nan
l1765;Stockton;persons_birth;51.14528;-2.03194;british_isles
l1766;Fort William;persons_birth;56.81648;-5.11208;british_isles
l1767;Harrow;persons_birth;51.57835;-0.33208;british_isles
l1768;Englancl midshipman DAVID SCOTT (2) 1807/8;persons_birth;;;nan
l1769;d St Helena;persons_birth;;;nan
l1770;apptd Bengal Asst Surgeon (in absentia);persons_birth;;;nan
l1771;Newbyth;persons_birth;;;nan
l1772;Eccles;persons_birth;53.48333;-2.33333;british_isles
l1773;Walcot;persons_birth;;;nan
l1774;Leadhills;persons_birth;;;nan
l1775;retired active service Nepal War 1815-16;persons_birth;;;nan
l1776;Crieff;persons_birth;56.37268;-3.83891;british_isles
l1777;Prestwich;persons_birth;53.53333;-2.28333;british_isles
l1778;ind mate COMDSTRIBART 1811/2 m St Stephen's Coleman Street;persons_birth;;;nan
l1779;Derby;persons_birth;52.92277;-1.47663;british_isles
l1780;Westbury;persons_birth;51.26;-2.1875;british_isles
l1781;Kirby Stephen;persons_birth;;;nan
l1782;im Wales;persons_birth;;;nan
l1783;ap Pocklington;persons_birth;;;nan
l1784;Blandford;persons_birth;;;nan
l1785;Stowmarket;persons_birth;52.18893;0.99774;british_isles
l1786;2nd mate YORK (4) 1785/6 (approved 1786;persons_birth;;;nan
l1787;St Saviour's pa;persons_birth;;;nan
l1788;Llandilo;persons_birth;-33.71286;150.7465;indian_ocean
l1789;4th mate WARREN HASTINGS (1) 1784/5 (approved 1785;persons_birth;;;nan
l1790;ap St Margaret Moses;persons_birth;;;nan
l1791;Shadbrook;persons_birth;;;nan
l1792;Isle of Skye;persons_birth;;;nan
l1793;Cupar Angus;persons_birth;;;nan
l1794;Hickling;persons_birth;;;nan
l1795;Alford;persons_birth;53.25943;0.17625;british_isles
l1796;it England;persons_birth;;;nan
l1797;Aor Ipswich;persons_birth;;;nan
l1798;Hereford;persons_birth;52.05684;-2.71482;british_isles
l1799;Brechin;persons_birth;56.72993;-2.65729;british_isles
l1801;St Cuthbert's pa;persons_birth;;;nan
l1802;seaman EAGLE (6) packet 1779-22 when she was captured;persons_birth;;;nan
l1803;Croydon;persons_birth;51.38333;-0.1;british_isles
l1804;p23 Englamd;persons_birth;;;nan
l1805;1st mate ORWELL 1829/30 & 1831/2 m St Helena;persons_birth;;;nan
l1806;‘b;persons_birth;;;nan
l1807;Stilton;persons_birth;52.48788;-0.28894;british_isles
l1809;volunteer 1st Class;persons_birth;;;nan
l1810;Forkc;persons_birth;;;nan
l1811;Capt & Principal Managing Owner SEVERN (2) 1832/3 m St Luke's;persons_birth;;;nan
l1812;accidentally killed;persons_birth;;;nan
l1813;Nantwich;persons_birth;53.06878;-2.52051;british_isles
l1814;ur St Pancras;persons_birth;;;nan
l1815;Campsie;persons_birth;-33.9125;151.10279;indian_ocean
l1816;im Scotland;persons_birth;;;nan
l1817;Claines;persons_birth;;;nan
l1818;St Botolph's pa;persons_birth;;;nan
l1819;purser LASCELLES 1791/2;persons_birth;;;nan
l1820;Drimnasallie;persons_birth;;;nan
l1821;Monmouth;persons_birth;51.81265;-2.71363;british_isles
l1822;Moy Lamiasry;persons_birth;;;nan
l1823;Keilmoe;persons_birth;;;nan
l1824;cl767;persons_birth;;;nan
l1826;St Peter's pa;persons_birth;;;nan
l1827;dn Seatlant;persons_birth;;;nan
l1828;Ord untae HILLSBOROUGH (2) 1785/6 (gpproved Peb 1796;persons_birth;;;nan
l1829;6th mate KING WILLIAM (3) 1733/4 Carter;persons_birth;;;nan
l1830;Barton Mere;persons_birth;;;nan
l1831;Dundee;persons_birth;56.46913;-2.97489;british_isles
l1832;Fort George;persons_birth;46.18788;-123.83125;atlantic
l1833;6th mate b 1? Appr Guisborough;persons_birth;;;nan
l1834;England seaman PLASSEY West Indies ly 6m;persons_birth;;;nan
l1835;Seb nate MOT INGIAI (@) Wresy>;persons_birth;;;nan
l1836;also Principal Managing Owner BROXBORNEBURY 1824/5-1831/2 m St Marylebone;persons_birth;;;nan
l1837;pa St Olave Hart St;persons_birth;;;nan
l1838;1st mate AENISTON (@ppaoved 1806;persons_birth;;;nan
l1839;l766 Lilley nr Hitchin;persons_birth;;;nan
l1840;Capt THOMAS COUTTS 1821/2;persons_birth;;;nan
l1841;Dumfries;persons_birth;55.06959;-3.61139;british_isles
l1842;drowned;persons_birth;;;nan
l1843;1st mate KELLIE CASTLE 1832/3 m Walton-on-Thames;persons_birth;;;nan
l1844;Hill House;persons_birth;;;nan
l1845;Heston;persons_birth;51.48363;-0.37577;british_isles
l1846;Gib mats WINDSOUS (2) 1822/3;persons_birth;;;nan
l1847;Ecinbargh;persons_birth;;;nan
l1848;purser LADY MELVILLE 1821/2;persons_birth;;;nan
l1849;Samgect S;persons_birth;;;nan
l1850;resigned 1794;persons_birth;;;nan
l1851;ap Woodford;persons_birth;;;nan
l1852;Benge;persons_birth;;;nan
l1853;d Bandar Abbas;persons_birth;;;nan
l1854;pa St George's Hanover Sq;persons_birth;;;nan
l1855;Ang & bep St Mary's;persons_birth;;;nan
l1856;4th mate FORDWICH 1728/9 (from 1730);persons_birth;;;nan
l1857;North Berwick;persons_birth;56.05825;-2.7229;british_isles
l1858;2nd mate Creighton;persons_birth;;;nan
l1859;sick leave home 1806;persons_birth;;;nan
l1860;Dalkeith;persons_birth;55.89317;-3.06806;british_isles
l1861;5th mate WARREN HASTINGS (1) 1792/3;persons_birth;;;nan
l1862;Aberdeen;persons_birth;57.14369;-2.09814;british_isles
l1863;Turriff;persons_birth;57.5384;-2.45932;british_isles
l1865;3rd mate WINCHELSEA (3) 1830/1 m3 St James;persons_birth;;;nan
l1866;4th mate LASCELLES 1784/5 (approved 1785;persons_birth;;;nan
l1867;Norfolk;persons_birth;44.80089;-74.99103;atlantic
l1868;purser WILLIAM PITT (1) 1789/90;persons_birth;;;nan
l1869;Head Surgeon at Calcutta;persons_birth;;;nan
l1870;Islay;persons_birth;55.78526;-6.23886;british_isles
l1871;surgeon CASTLE HUNTLEY 1819/20;persons_birth;;;nan
l1872;Campbeltown;persons_birth;55.42583;-5.60764;british_isles
l1873;North Knabdale;persons_birth;;;nan
l1874;Kilbride Castle;persons_birth;;;nan
l1875;America;persons_birth;51.43667;5.97917;atlantic
l1876;Brooke;persons_birth;52.54175;1.37076;british_isles
l1877;Newington;persons_birth;51.35217;0.66768;british_isles
l1878;ap Lindfield;persons_birth;;;nan
l1879;Walthamstow;persons_birth;51.59067;-0.02077;british_isles
l1880;Hartland;persons_birth;43.10501;-88.34204;atlantic
l1881;1st mate HARTWELL 1786/7;persons_birth;;;nan
l1882;Capt SIR WILLIAM PULTENEY 1804/5;persons_birth;;;nan
l1883;retired;persons_birth;;;nan
l1884;Beb Dumdayell;persons_birth;;;nan
l1886;Monthrath;persons_birth;;;nan
l1887;Binnington;persons_birth;;;nan
l1888;Berkeley Sq;persons_birth;;;nan
l1889;Cockpen;persons_birth;;;nan
l1890;Perth;persons_birth;56.39522;-3.43139;british_isles
l1891;4th mate ROYAL BISHOP 1785/6 (approved 1786;persons_birth;;;nan
l1892;MARQUIS CAMDEN 1823/4;persons_birth;;;nan
l1893;Cove;persons_birth;57.1;-2.08333;british_isles
l1894;Kilmesula;persons_birth;;;nan
l1895;Scotlane;persons_birth;;;nan
l1896;Millan;persons_birth;44.09973;3.07848;atlantic
l1897;Hadley;persons_birth;52.7;-2.48333;british_isles
l1898;Asst Surgeon;persons_birth;;;nan
l1899;d m Cameron;persons_birth;;;nan
l1900;Newington Green;persons_birth;;;nan
l1901;Trevethin;persons_birth;;;nan
l1903;Bleach Field;persons_birth;;;nan
l1904;1st mate SPEAKER 1771/2 (approved 1772;persons_birth;;;nan
l1905;Kessingland;persons_birth;52.41987;1.70878;british_isles
l1906;& hep Shustoke;persons_birth;;;nan
l1907;Member of Wiedicel Board;persons_birth;;;nan
l1908;Shetland Isles;persons_birth;;;nan
l1909;3rd mate ANTELOPE (4) 1781/2 (approved 1782;persons_birth;;;nan
l1910;Illan Court;persons_birth;;;nan
l1911;3rd mate ASIA (3) 1780/1;persons_birth;;;nan
l1912;Bovey Tracey;persons_birth;50.59259;-3.67543;british_isles
l1913;Newton Bushell;persons_birth;;;nan
l1914;Tiverton;persons_birth;53.13333;-2.66667;british_isles
l1915;Bath;persons_birth;51.3751;-2.36172;british_isles
l1916;ed 1782;persons_birth;;;nan
l1917;3rd mate ROCKINGHAM (1) 1785/6 (approved 1786;persons_birth;;;nan
l1918;1st mate Heater ‘0 Jamaica (approved 1786;persons_birth;;;nan
l1919;5th mate GENERAL Totlb 1824/5;persons_birth;;;nan
l1920;Lambourn;persons_birth;51.50805;-1.53105;british_isles
l1921;Ayr;persons_birth;55.46273;-4.63393;british_isles
l1922;Whitehaven;persons_birth;54.54897;-3.58412;british_isles
l1923;Ilfracombe;persons_birth;51.2093;-4.11344;british_isles
l1924;Barnstaple;persons_birth;51.08022;-4.05808;british_isles
l1925;Hambleton;persons_birth;53.76667;-1.16667;british_isles
l1926;m7 Walcot;persons_birth;;;nan
l1929;Alloa;persons_birth;56.11586;-3.78997;british_isles
l1930;Toulouse;persons_birth;43.60426;1.44367;atlantic
l1931;& St George's Bloomsbury;persons_birth;;;nan
l1932;St Giles;persons_birth;;;nan
l1933;1748;persons_birth;;;nan
l1934;dat sea;persons_birth;;;nan
l1937;Redbridge;persons_birth;;;nan
l1938;Aylesbury;persons_birth;51.81665;-0.81458;british_isles
l1939;Sid tnate INDIAN TRADER 1794/5;persons_birth;;;nan
l1940;Virginia;persons_birth;53.83389;-7.07556;british_isles
l1941;5th mate KELLIE CASTLE 1828/9;persons_birth;;;nan
l1942;4th mate “RACRIL OL SAND WIGHT F789 (approved 1779;persons_birth;;;nan
l1943;Metz;persons_birth;49.11911;6.17269;atlantic
l1944;St John's pa;persons_birth;;;nan
l1945;Barnsley;persons_birth;53.55;-1.48333;british_isles
l1946;Bengal Asst Surgeon;persons_birth;;;nan
l1947;Tneland;persons_birth;;;nan
l1948;Haddington;persons_birth;55.95612;-2.78332;british_isles
l1949;Aberdeenshire;persons_birth;;;nan
l1950;Brettenham;persons_birth;;;nan
l1951;Gerloch;persons_birth;;;nan
l1952;Sicily;persons_birth;;;nan
l1953;approved as 3rd mate ROCKINGHAM (1) 1786;persons_birth;;;nan
l1954;m Llandygwydd;persons_birth;;;nan
l1955;Wick;persons_birth;58.43906;-3.09424;british_isles
l1956;im Rnglamd;persons_birth;;;nan
l1957;d Bombay;persons_birth;;;nan
l1958;Chatham;persons_birth;51.37891;0.52786;british_isles
l1959;lost overboard m St Dunstan's;persons_birth;;;nan
l1960;Wormley;persons_birth;51.13622;-0.64673;british_isles
l1961;3rd mate BESSBOROUGH 1785/6 (approved 1786;persons_birth;;;nan
l1962;1st mate DUCHESS OF ATHOL 1831/2 m Cork Cathedral;persons_birth;;;nan
l1963;1740;persons_birth;;;nan
l1964;4th mate STAFFORD (2) 1777/8 (approved eb 1778;persons_birth;;;nan
l1965;Neath;persons_birth;51.66317;-3.80443;british_isles
l1966;Ryton-upon-Dunsmore;persons_birth;;;nan
l1967;Welshpool;persons_birth;52.65973;-3.1471;british_isles
l1968;St Mary's pa;persons_birth;;;nan
l1969;1st mate LORD WALSINGHAM 1786/7 (approved 1787;persons_birth;;;nan
l1970;Enniskillen;persons_birth;54.34615;-7.64133;british_isles
l1971;Ross;persons_birth;39.31228;-84.6505;atlantic
l1972;Selborne;persons_birth;;;nan
l1973;St Altbans;persons_birth;;;nan
l1974;Capt ST HELENA b St Helen's pa;persons_birth;;;nan
l1975;surgeon HUDDART 1814/5 b England;persons_birth;;;nan
l1976;Kirk Newton;persons_birth;;;nan
l1977;ap Whorlton;persons_birth;;;nan
l1978;2nd mate MIMVIDLESEX @) 1785/6 (approved autho trade Gun;persons_birth;;;nan
l1979;at sea;persons_birth;;;nan
l1980;Cornhill;persons_birth;;;nan
l1981;Sunderland;persons_birth;54.90465;-1.38222;british_isles
l1982;lost overboard;persons_birth;;;nan
l1983;1727;persons_birth;;;nan
l1984;wounded action agst French 1759;persons_birth;;;nan
l1985;Prescot St;persons_birth;;;nan
l1986;“Kb mate LAP WING (1) Lays;persons_birth;;;nan
l1987;1774. Windsor;persons_birth;51.48333;-0.6;british_isles
l1988;Bishopsgate;persons_birth;;;nan
l1989;St Luke's pa;persons_birth;;;nan
l1990;Cumberland;persons_birth;41.96677;-71.43284;atlantic
l1991;St Stephen's Walbrook;persons_birth;;;nan
l1992;& tep St Macy';persons_birth;;;nan
l1993;appointed Asst Bombay Hospital;persons_birth;;;nan
l1994;Little Clacton;persons_birth;51.82557;1.14215;british_isles
l1995;Logie;persons_birth;;;nan
l1996;midshipman MARQUIS OF ROCKINGHAM (2) 1775/6;persons_birth;;;nan
l1997;Sweden;persons_birth;;;nan
l1998;Dores;persons_birth;;;nan
l1999;Stepney;persons_birth;51.5175;-0.04292;british_isles
l2000;seaman & 1st mate Royal Clubb and Adriatic Greenland and Newfoundland trade 7y 9m;persons_birth;;;nan
l2001;Love Lane;persons_birth;;;nan
l2002;Canterbury;persons_birth;51.27904;1.07992;british_isles
l2003;im Smgtends ome voyswe to indie;persons_birth;;;nan
l2004;Barking;persons_birth;51.53333;0.08333;british_isles
l2005;run 4th mate LADY RAFFLES 1825/6;persons_birth;;;nan
l2006;pa St Chad's;persons_birth;;;nan
l2007;Gerrard or Gerard;persons_birth;;;nan
l2008;midshipman (2y 6m);persons_birth;;;nan
l2009;d b pa Christ Church;persons_birth;;;nan
l2010;Montrose;persons_birth;56.71683;-2.46695;british_isles
l2011;4h mate NEPTUNE (4) 1785/6 (approved 1786;persons_birth;;;nan
l2012;Kirk Oswald;persons_birth;;;nan
l2013;d Macao m St Pancras;persons_birth;;;nan
l2015;5th mate GATTON 1777/8;persons_birth;;;nan
l2016;Royal Navy 8y 4m;persons_birth;;;nan
l2017;Inverness-shire;persons_birth;;;nan
l2018;Portsoy;persons_birth;57.68144;-2.68956;british_isles
l2019;4th mate EARL OF DARTMOUTH 1779/80 (approved 1780;persons_birth;;;nan
l2020;ur Ilfracombe;persons_birth;;;nan
l2021;d 1890;persons_birth;;;nan
l2022;Bordeaux;persons_birth;44.84044;-0.5805;atlantic
l2023;ur St Paul's Covent Gdn;persons_birth;;;nan
l2024;Mount Melick;persons_birth;;;nan
l2025;Grantham;persons_birth;52.91149;-0.64184;british_isles
l2026;Dominica;persons_birth;;;nan
l2027;St Peter's Close;persons_birth;;;nan
l2028;3rd mate VALENTINE (3) 1793/4 (approved 1794;persons_birth;;;nan
l2029;1st Lieutenant Achilles cutter (3m) and Job cutter (2m);persons_birth;;;nan
l2030;Isle of Man;persons_birth;;;nan
l2031;Carron;persons_birth;56.02611;-3.79251;british_isles
l2032;Wootton Hall;persons_birth;;;nan
l2033;Blunderston;persons_birth;;;nan
l2034;Great Yarmouth ?;persons_birth;52.60831;1.73052;british_isles
l2035;Sotheniom;persons_birth;;;nan
l2036;Stirling;persons_birth;56.11903;-3.93682;british_isles
l2037;Msg Camengate;persons_birth;;;nan
l2038;Canongate;persons_birth;;;nan
l2039;‘bap Fores;persons_birth;;;nan
l2040;Foggymill;persons_birth;;;nan
l2041;ur;persons_birth;;;nan
l2042;Johnshaven;persons_birth;;;nan
l2043;Haxbourgrace;persons_birth;;;nan
l2044;Chipping Ongar;persons_birth;51.70379;0.24548;british_isles
l2046;4th mate MARQUIS OF WELLINGTON (1) 1814/5 (approved 1814;persons_birth;;;nan
l2047;Pitfern;persons_birth;;;nan
l2048;St Swithin's pa;persons_birth;;;nan
l2049;1730;persons_birth;;;nan
l2050;2nd mate SUFFOLK (1) 1758/9;persons_birth;;;nan
l2051;purser PRINCESS CHARLOTTE OF WALES 1822/3;persons_birth;;;nan
l2052;Surgeon at Benkulen;persons_birth;;;nan
l2053;Baghent) seaman CIES @) 1792/3;persons_birth;;;nan
l2054;4th mate BELVEDERE 1800/1 (approved 1801;persons_birth;;;nan
l2055;aorington or Marington;persons_birth;;;nan
l2056;& bao  Bermondsey;persons_birth;;;nan
l2057;Spatree;persons_birth;;;nan
l2058;Kensington;persons_birth;51.50094;-0.19175;british_isles
l2059;Weybridge;persons_birth;51.37178;-0.45975;british_isles
l2060;served im Jen Charnock's war agst the Nawab af Bengal 1636-87;persons_birth;;;nan
l2061;MB 1785;persons_birth;;;nan
l2062;ur Staynton;persons_birth;;;nan
l2063;Stokesley;persons_birth;54.46998;-1.1933;british_isles
l2064;Datsham;persons_birth;;;nan
l2065;4th mate LADY BURGES 1803/4;persons_birth;;;nan
l2066;Caldecote Hall;persons_birth;;;nan
l2067;Tilbury Fort;persons_birth;51.46248;0.35856;british_isles
l2068;Kirkcaldy;persons_birth;56.11683;-3.15999;british_isles
l2069;St Andrew's;persons_birth;;;nan
l2070;Nb toate POCOCIS 1258/9;persons_birth;;;nan
l2071;Westdown;persons_birth;;;nan
l2072;went home 1757;persons_birth;;;nan
l2073;4th mate HUGH INGLIS 1815/6 (approved 1816;persons_birth;;;nan
l2074;reinstated;persons_birth;;;nan
l2075;4th mate GRENVILLE 1774/5 (approved 1775;persons_birth;;;nan
l2076;Aweltenndsy;persons_birth;;;nan
l2077;Gaicbonwugh;persons_birth;;;nan
l2078;Coylton;persons_birth;55.44528;-4.5195;british_isles
l2079;Oban;persons_birth;56.41535;-5.47184;british_isles
l2080;Kiloredtomont;persons_birth;;;nan
l2081;favo vorages to India;persons_birth;;;nan
l2082;Wigton;persons_birth;54.82482;-3.16114;british_isles
l2083;resigned 1819;persons_birth;;;nan
l2084;ap Basingstoke;persons_birth;;;nan
l2085;Capt MORLEY 1828/9 orred;persons_birth;;;nan
l2086;resigned Haskins;persons_birth;;;nan
l2087;Cestieliond;persons_birth;;;nan
l2088;co Durham;persons_birth;;;nan
l2089;4th mate ALNWICK CASTLE 1814/5 (approved 1815;persons_birth;;;nan
l2090;Liskeard;persons_birth;50.4545;-4.46517;british_isles
l2091;Dunbar;persons_birth;56.00062;-2.51418;british_isles
l2092;1785;persons_birth;;;nan
l2093;& baw $ Ape Leyton;persons_birth;;;nan
l2094;Illugan;persons_birth;;;nan
l2095;3nd mate LORD MIACARTIOSY LPS ud mats BAR OF WiCOMILE Ts6r? (approved 1787;persons_birth;;;nan
l2096;Northallerton;persons_birth;54.33901;-1.43243;british_isles
l2097;Web 17S4 Wells;persons_birth;;;nan
l2098;Musselburgh;persons_birth;55.9417;-3.04991;british_isles
l2099;Richmond;persons_birth;51.46171;-0.30633;british_isles
l2100;im Buwlend;persons_birth;;;nan
l2101;4th mate UNION (5) 1806/7;persons_birth;;;nan
l2102;Queensferry;persons_birth;55.99089;-3.39847;british_isles
l2103;3rd mate EUROPA (2) 1781/2 (approved 1782;persons_birth;;;nan
l2104;Battle;persons_birth;50.91732;0.48417;british_isles
l2105;b Havre de Grace;persons_birth;;;nan
l2106;1st mate DUKE OF YORK (2) 1826/7 & 1828/9;persons_birth;;;nan
l2107;2nd mate MINERVA (7) 1824/5;persons_birth;;;nan
l2108;Grange;persons_birth;-27.42251;153.01527;indian_ocean
l2109;Maidstone;persons_birth;51.26667;0.51667;british_isles
l2110;d Edinburgh active service Third Maratha War 1817-18;persons_birth;;;nan
l2111;Alva;persons_birth;56.15284;-3.80505;british_isles
l2112;b Llanbadarn;persons_birth;;;nan
l2113;Lyme Regis;persons_birth;50.72654;-2.93477;british_isles
l2114;midshipman HMS Monmouth;persons_birth;;;nan
l2115;ap Rhayader;persons_birth;;;nan
l2116;North Crescent;persons_birth;;;nan
l2117;& hep St ives;persons_birth;;;nan
l2118;Shorwell;persons_birth;;;nan
l2119;presented as 4th mate LORD MACARTNEY 1795/6;persons_birth;;;nan
l2120;Newport;persons_birth;52.76684;-2.37734;british_isles
l2121;Swansea;persons_birth;51.62079;-3.94323;british_isles
l2122;4th mate HUGH INGLIS 1809/10 (approved 1810;persons_birth;;;nan
l2123;im England;persons_birth;;;nan
l2124;pa St Michael's Cornhill;persons_birth;;;nan
l2126;Ulverston;persons_birth;54.19594;-3.09626;british_isles
l2127;Bardsea;persons_birth;;;nan
l2128;ap Donagh;persons_birth;;;nan
l2129;Sileby;persons_birth;52.73286;-1.10773;british_isles
l2130;Madras Asst Surgeon;persons_birth;;;nan
l2131;4th mate VANSITTART 1772/3 (approved 1773;persons_birth;;;nan
l2132;Bengal Supernumerary Surgeon;persons_birth;;;nan
l2133;Harwood;persons_birth;;;nan
l2134;Burntisland;persons_birth;56.05865;-3.23664;british_isles
l2135;Hammersmith;persons_birth;51.49384;-0.22882;british_isles
l2136;y & tap episcopal Chapel;persons_birth;;;nan
l2137;Dingwall;persons_birth;57.59531;-4.42721;british_isles
l2138;Seo & tap St Colas;persons_birth;;;nan
l2139;Whitekirk;persons_birth;;;nan
l2140;Macias Asst Sunysem Noy 1782;persons_birth;;;nan
l2141;Eastbourne;persons_birth;50.76871;0.28453;british_isles
l2142;d LE Si Mathew's Pricey St;persons_birth;;;nan
l2143;d b Barnstaple;persons_birth;;;nan
l2144;Cape ASTELL 1823/4 & 1826/7 ‘ewin;persons_birth;;;nan
l2145;Folkestone;persons_birth;51.08169;1.16734;british_isles
l2146;4th mate RHODA 1757/8;persons_birth;;;nan
l2147;Newburgh;persons_birth;56.35079;-3.2365;british_isles
l2148;Carnwath;persons_birth;55.70036;-3.62579;british_isles
l2149;Clackmannan;persons_birth;56.10743;-3.75098;british_isles
l2150;British garrison of New York;persons_birth;;;nan
l2151;captured by French off Benkulen 794;persons_birth;;;nan
l2152;run Lyons;persons_birth;;;nan
l2153;Bengal Surgeon;persons_birth;;;nan
l2154;cl1554 Basingstoke;persons_birth;;;nan
l2155;Hunsdon;persons_birth;;;nan
l2156;North Leith;persons_birth;;;nan
l2157;1795;persons_birth;;;nan
l2158;'b Beonsteple;persons_birth;;;nan
l2159;Thorley;persons_birth;;;nan
l2160;4th mate PIGOT (2) 1792/3 (approved 1793;persons_birth;;;nan
l2161;Inch;persons_birth;;;nan
l2162;1st mate DEVONSHIRE (2) 1771/2 (approved 1772;persons_birth;;;nan
l2163;m South Mims;persons_birth;;;nan
l2164;Llanereth Mead;persons_birth;;;nan
l2165;Cramond;persons_birth;;;nan
l2166;ap St John's;persons_birth;;;nan
l2167;purser BOMBAY CASTLE (2) 1804/5;persons_birth;;;nan
l2168;ret;persons_birth;;;nan
l2169;6th mate COUTTS 1813/4;persons_birth;;;nan
l2170;Markhal;persons_birth;;;nan
l2171;Kelmelir;persons_birth;;;nan
l2172;Inveraray;persons_birth;;;nan
l2173;Killea;persons_birth;;;nan
l2174;Dalrymple;persons_birth;55.39757;-4.59169;british_isles
l2175;Ardwally;persons_birth;;;nan
l2176;d19 Fsb ig;persons_birth;;;nan
l2177;Ll South Bnd;persons_birth;;;nan
l2178;Whitehorn;persons_birth;;;nan
l2179;Kirkgunzion;persons_birth;;;nan
l2180;4b mate COUMLING 1808/3;persons_birth;;;nan
l2182;Glenluce;persons_birth;;;nan
l2183;1805;persons_birth;;;nan
l2184;d L761 Cape;persons_birth;;;nan
l2185;4th mate HECTOR (3) 1775/6 (approved 1776;persons_birth;;;nan
l2186;Capt CHARLES GRANT 1/2 oe jut Presents;persons_birth;;;nan
l2188;Cullen;persons_birth;57.69045;-2.81818;british_isles
l2189;Dorking;persons_birth;51.23228;-0.3338;british_isles
l2190;ap Totnes;persons_birth;;;nan
l2191;Sap Reb St Dansten's;persons_birth;;;nan
l2192;Leuchars;persons_birth;56.38174;-2.88253;british_isles
l2193;resigned 1771;persons_birth;;;nan
l2194;Penningham;persons_birth;;;nan
l2195;or Drummagh;persons_birth;;;nan
l2196;Canonbie;persons_birth;;;nan
l2197;Islington;persons_birth;51.53622;-0.10304;british_isles
l2198;1G Aberdloons MRCS;persons_birth;;;nan
l2199;Upper Borlunce;persons_birth;;;nan
l2200;approved as 3rd mate LORD MACARTNEY 1782;persons_birth;;;nan
l2201;ur Dittisham;persons_birth;;;nan
l2202;ap Bavarian Chapel;persons_birth;;;nan
l2203;Bratton;persons_birth;51.27056;-2.12444;british_isles
l2204;Twyford;persons_birth;51.47518;-0.86037;british_isles
l2205;pa St Benet's;persons_birth;;;nan
l2206;St Paul's pa;persons_birth;;;nan
l2207;Kilfinan;persons_birth;;;nan
l2208;Dollerie;persons_birth;;;nan
