location_id;location;category;lat;lon;region
l1;Downs;calls;51.1108;1.2923;british_isles
l3;Narsipur;calls;12.21;76.906;madras_presidency
l6;East India Dock;calls;51.30292;0.0035;british_isles
l28;Anjengo;calls;8.4833;76.9167;madras_presidency
l40;Sao Tiago;calls;15.04;-23.38;atlantic
l42;Khanderi;calls;18.7042;72.8131;bombay_presidency
l43;Colaba;calls;18.91;72.81;bombay_presidency
l47;Reunion;calls;-21.0652;55.3157;indian_ocean
l53;Lintin;calls;22.2446;113.4813;china
l75;Fort St David;calls;11.75;79.75;madras_presidency
l76;Mauritius;calls;-20.2;57.5;indian_ocean
l140;Spithead;calls;50.7514;-1.13667;british_isles
l156;Mokha;calls;13.1913;43.15;indian_ocean
l177;Cagayan Sulu;calls;6.5841;118.3047;southeast_asia
l203;Socotra;calls;12.3036;53.5512;indian_ocean
l209;Bocca Tigris;calls;22.7933;113.5979;china
l219;River Thames;calls;51.4959;0.514031;british_isles
l223;Dungeness;calls;50.55;0.58;british_isles
l234;Kedah;calls;6.0742;100.2146;southeast_asia
l243;Point de Galle;calls;6.0158;80.1256;madras_presidency
l301;Hormuz;calls;27.0403;56.2736;indian_ocean
l346;Martinique;calls;14.39;-61.0054;atlantic
l353;Mahim;calls;19.035;72.84;bombay_presidency
l369;Karrack;calls;29.1528;50.193;indian_ocean
l380;Negrais;calls;16.2;94.12;bengal_presidency
l397;Coninga;calls;16.5758;82.1518;madras_presidency
l403;Kidderpore;calls;22.536323;88.316654;bengal_presidency
l443;Delagoa Bay;calls;-25.59;32.42;indian_ocean
l449;Ryukyu Islands;calls;26.3;127.54;china
l545;Orkneys;calls;59.0;-3.0;british_isles
l591;Resolution Bay;calls;-41.0731;174.1332;indian_ocean
l592;Tahiti;calls;-17.4;-149.25;indian_ocean
l599;Canton river;calls;22.476411;113.750545;china
l977;Great Nanka;calls;-2.25;105.48;southeast_asia
l1177;Anjengo Cape;calls;8.4833;76.9167;madras_presidency
l1186;All Saints' Bay, Brazil;calls;-12.51;-38.38;atlantic
l1252;Krakatoa;calls;-6.0607;105.2523;southeast_asia
l1359;Cape Verde;calls;15.55;-23.55;atlantic
l1377;Port Cornwallis;calls;13.17;93.05;southeast_asia
l1379;Cape Augustine;calls;-8.1723;-35.0148;atlantic
l1386;Norfolk Island;calls;-29.02;167.57;indian_ocean
l1715;Newcastle-on-Tyne;people_birth;54.98;-1.61;british_isles
l1810;Tweedmouth;people_birth;55.761;-2.01;british_isles
l1835;Kilmartin;people_birth;56.133;-5.487;british_isles
l1939;Crathie;people_birth;57.0225;-3.1255;british_isles
l1947;Sorbie;people_birth;54.79;-4.43;british_isles
l2261;Berwick-upon-Tweed;people_birth;55.4609;-2.0009;british_isles
l2544;Fleet St;people_baptised;51.5138;-0.1105;british_isles
l2570;Soho;people_baptised;51.3046;-0.752;british_isles
l2581;Bloomsbury;people_baptised;51.5201;-0.1288;british_isles
l2597;Pembrokeshire;people_baptised;51.5042;-4.5032;british_isles
l579;Leith;calls;55.98;-3.17;british_isles
l945;Ireland;calls;53.2658;-7.3011;british_isles
l1048;Scilly;calls;49.55;-6.2;british_isles
l1095;Bab el Mandeb;calls;12.35;43.2;indian_ocean
l2056;Southwark;people_birth;51.4988;-0.0901;british_isles
l2431;Sotterley;people_birth;52.401;1.61;british_isles
l2454;Rodborough;people_birth;51.744;-2.215;british_isles
l2610;Wapping;people_baptised;51.5073;-0.061;british_isles
l1683;England;people_birth;52.4387;-1.3478;british_isles
l1676;Scotland;people_birth;56.6549;-4.3368;british_isles
l1948;Wales;people_birth;52.3965;-3.7382;british_isles
l1940;Inverness;people_birth;57.4778;-4.2247;british_isles
l8;Calcutta;calls;22.3403;88.2212;bengal_presidency
l2259;Kingston;people_birth;53.444;-0.1957;british_isles
l56;Madeira;calls;32.45;-17.0;atlantic
l1688;Yorkshire;people_birth;54.0;-2.0;british_isles
l4;Madras;calls;13.457;80.163;madras_presidency
l2408;Cathcart;people_birth;55.8195;-4.2679;british_isles
l2264;Midlothian;people_birth;55.5339;-3.0407;british_isles
l2227;Harris;people_birth;57.91;-6.83;british_isles
l2025;Cameron;people_birth;56.2953;-2.8529;british_isles
l1818;Guernsey;people_birth;49.45;-2.58;british_isles
l1760;Dysart;people_birth;56.13;-3.11;british_isles
l1912;Lithgow;people_birth;55.979;-3.6105;british_isles
l1874;St Andrews;people_birth;56.3404;-2.7955;british_isles
l5;St Helena;calls;-15.58;-5.42;atlantic
l2196;Alphington;people_birth;50.42;-3.32;british_isles
l2190;Applecross;people_birth;57.43304;-5.80958;british_isles
l16;Macao;calls;22.1;113.33;china
l2134;Montreal;people_birth;45.3032;-73.3315;atlantic
l86;Bantam;calls;-6.0233;106.0939;southeast_asia
l93;River Shannon;calls;52.35;-9.18;british_isles
l101;Barbados;calls;13.1012;-59.3309;atlantic
l109;West India Dock;calls;51.50347;-0.01722;british_isles
l117;Porto Praya;calls;14.918;-23.509;atlantic
l122;Crookhaven;calls;51.2747;-9.4313;british_isles
l193;Nicobars;calls;7.05;93.48;southeast_asia
l199;Comoros;calls;-12.3;43.7;indian_ocean
l201;Seychelles;calls;-4.35;55.4;indian_ocean
l833;Gambia river;calls;13.28;-16.34;atlantic
l861;Port Dauphin;calls;-25.0157;46.59;indian_ocean
l862;Masirah;calls;20.2816;58.4855;indian_ocean
l872;Lombok;calls;-8.565;116.351;southeast_asia
l909;Tristan de Cunha;calls;-37.7;-12.18;atlantic
l910;St Paul's Island;calls;-38.43;77.31;indian_ocean
l911;Condore;calls;16.4108;80.3445;madras_presidency
l925;Manila Bay;calls;14.31;120.46;southeast_asia
l965;Delagoa;calls;-25.59;32.42;indian_ocean
l974;Tristan da Cunha;calls;-37.7;-12.18;atlantic
l1190;Bay of Bulls, Newfoundland;calls;47.299;-52.781;atlantic
l1201;Nootka Sound;calls;49.41;-126.33;atlantic
l1202;Queen Charlotte's Islands;calls;-11.0;166.15;indian_ocean
l1203;Sandwich Islands;calls;20.54;-156.36;indian_ocean
l1204;Montague Island;calls;-36.15;150.13;indian_ocean
l11;Cape;calls;-34.2129;18.2832;atlantic
l19;Second Bar;calls;22.476411;113.750545;china
l20;Kedgeree;calls;12.8575;87.9115;indian_ocean
l41;Johanna;calls;-12.1254;44.253;indian_ocean
l52;False Bay;calls;-34.1347;18.3843;atlantic
l60;Moheli;calls;-12.15;43.45;indian_ocean
l115;Port Jackson;calls;-33.513;151.14;indian_ocean
l124;Balambangan;calls;7.1549;116.5321;southeast_asia
l128;Fulta;calls;19.1629;84.4843;madras_presidency
l136;Fernando de Noronha;calls;-3.5118;-32.253;atlantic
l137;Purfleet;calls;51.48;0.25;british_isles
l142;Coringa;calls;16.48;82.14;madras_presidency
l22;Batavia;calls;-6.129;106.8129;southeast_asia
l71;Ascension;calls;-7.56;-14.22;atlantic
l62;Manila;calls;14.3545;120.5838;southeast_asia
l106;Long Reach;calls;51.4415;0.3685;british_isles
l9;Saugor;calls;21.6528;88.0753;bengal_presidency
l181;Banda;calls;-4.35;129.55;southeast_asia
l126;Tenerife;calls;28.1607;-16.362;atlantic
l1124;Coromandel;calls;13.3667;80.3333;madras_presidency
l1462;Java;calls;-7.293;110.0016;southeast_asia
l58;Colombo;calls;6.5604;79.5034;madras_presidency
l132;Persia;calls;27.2532;53.8998;indian_ocean
l511;China;calls;22.449;113.915;china
l50;Deptford;calls;51.478;-0.0265;british_isles
l1343;Brest;calls;48.23;-4.29;british_isles
l288;Onore;calls;14.28;74.4439;bombay_presidency
l321;San Salvador;calls;-12.5829;-38.2836;atlantic
l929;Brazil;calls;-8.4544;-35.0359;atlantic
l322;Bourbon;calls;-21.0652;55.3157;indian_ocean
l82;Moco Moco;calls;-2.5833;101.117;southeast_asia
l83;Acheh;calls;5.3325;95.1934;southeast_asia
l118;Rodrigues;calls;-19.43;63.25;indian_ocean
l266;Newfoundland;calls;48.36;-56.2;atlantic
l268;Siam;calls;12.6414;101.021;southeast_asia
l417;Bristol Channel;calls;51.3777;-4.2291;british_isles
l448;Tidore;calls;0.41;127.24;southeast_asia
l476;Quedah;calls;6.0742;100.2146;southeast_asia
l497;Kambelu;calls;-3.08;129.3;southeast_asia
l507;Pulo Run;calls;-4.332587;129.4163;southeast_asia
l519;Annabon;calls;-1.2606;5.3815;atlantic
l521;Galway Bay;calls;53.1619;-9.0256;british_isles
l544;Ratcliffe;calls;51.512054;-0.038946;british_isles
l2;Bengal;calls;;;nan
l7;Hugh;calls;;;nan
l10;Blackwall;calls;51.50971;-0.0016;british_isles
l12;Bombay;calls;19.07283;72.88261;bombay_presidency
l13;Singapore;calls;1.28967;103.85007;southeast_asia
l14;Whampoa;calls;23.11037;113.4418;china
l15;Malacca;calls;2.196;102.2405;southeast_asia
l17;Kowloon;calls;22.31667;114.18333;china
l18;Portsmouth;calls;50.79899;-1.09125;british_isles
l21;Falmouth;calls;50.15441;-5.07113;british_isles
l23;Tiku;calls;-0.3958;99.92307;southeast_asia
l24;voyages to Sumatra 1624, Lagundy 1625, Coromandel;calls;;;nan
l25;27, Sumatra &;calls;;;nan
l26;laid up 1631, rotten;calls;;;nan
l27;Sandy Bay' Guinea;calls;;;nan
l29;Calicut;calls;11.24802;75.7804;madras_presidency
l30;Tellicherry;calls;11.74811;75.4929;madras_presidency
l31;Karwar;calls;14.81361;74.12972;bombay_presidency
l32;Mangalore;calls;12.91723;74.85603;madras_presidency
l33;Surat;calls;21.19594;72.83023;bombay_presidency
l34;voyage ended;calls;;;nan
l35;Balasore;calls;21.49266;86.93348;bengal_presidency
l36;Rogues River;calls;;;nan
l37;Benkulen;calls;-3.80044;102.26554;southeast_asia
l38;Silebar;calls;;;nan
l39;Nore;calls;45.24159;7.56983;atlantic
l44;Goa;calls;13.6978;123.4892;southeast_asia
l45;Vijayadura;calls;;;nan
l46;Cochin;calls;9.93988;76.26022;madras_presidency
l48;expedition against Angria;calls;;;nan
l49;wreckedthe Cape;calls;;;nan
l51;captured by the French near Mauritius;calls;;;nan
l54;Torbay;calls;47.66659;-52.73135;atlantic
l55;returned to St Helena;calls;;;nan
l57;Diamond Harbour;calls;22.19101;88.19047;bengal_presidency
l59;lost on Goodwin SandsSouth Foreland;calls;;;nan
l61;Cavite;calls;15.67785;120.76978;southeast_asia
l63;Pangasinan;calls;;;nan
l64;Sulu;calls;6.05222;121.00222;southeast_asia
l65;Da;calls;;;nan
l66;nang;calls;29.04701;93.08795;indian_ocean
l67;Rio de Janeiro;calls;-22.90642;-43.18223;atlantic
l68;Tellicheny;calls;;;nan
l69;Gravesend;calls;51.44206;0.37106;british_isles
l70;Ingeli;calls;;;nan
l72;Belem;calls;19.63334;-98.79664;atlantic
l73;Scarborough;calls;54.27966;-0.40443;british_isles
l74;Erith;calls;51.48315;0.17484;british_isles
l77;Vizagapatam;calls;17.68009;83.20161;madras_presidency
l78;Culpee;calls;;;nan
l79;Bandar Abbas;calls;27.1865;56.2808;indian_ocean
l80;towards England;calls;;;nan
l81;Limehouse;calls;51.51412;-0.03282;british_isles
l84;Plymouth;calls;50.37153;-4.14305;british_isles
l85;;calls;;;nan
l87;Pattani;calls;6.86814;101.25009;southeast_asia
l88;Hirado;calls;33.36853;129.55247;china
l89;abandonedMasulipatam;calls;;;nan
l90;Masulipatam;calls;16.18747;81.13888;madras_presidency
l91;Pring;calls;;;nan
l92;Rat Island;calls;;;nan
l94;Trincomalee;calls;8.5778;81.2289;madras_presidency
l95;below Second Bar;calls;;;nan
l96;Woolwich;calls;51.491;0.0648;british_isles
l97;Quilon;calls;8.88113;76.58469;madras_presidency
l98;Ganjam;calls;19.38705;85.05079;bengal_presidency
l99;Woolwich ff.6;calls;;;nan
l100;sailing directions for the convoy leaving England;calls;;;nan
l102;St Augustine's Bay;calls;;;nan
l103;captured by the FrenchScilly;calls;;;nan
l104;wrecked Polperro, Cornwall;calls;;;nan
l105;Penang;calls;5.41123;100.33543;southeast_asia
l107;City Canal;calls;;;nan
l108;Day Downs;calls;;;nan
l110;From England;calls;;;nan
l111;Cape Coast Castle;calls;5.10535;-1.2466;atlantic
l112;Accra;calls;5.55602;-0.1969;atlantic
l113;Ouidah;calls;6.36307;2.08506;atlantic
l114;captured by the French 9/10;calls;;;nan
l116;Funchal;calls;32.66568;-16.92547;atlantic
l119;Allas;calls;;;nan
l120;Saloomah;calls;;;nan
l121;Madagascar;calls;;;nan
l123;Amboina;calls;-3.69583;128.18333;southeast_asia
l125;Northfleet;calls;;;nan
l127;Lisbon;calls;38.71667;-9.13333;atlantic
l129;Cork;calls;51.89797;-8.47061;british_isles
l130;Down;calls;;;nan
l131;Cadiz;calls;36.52672;-6.2891;atlantic
l133;Guinea;calls;;;nan
l134;Lizard;calls;;;nan
l135;wrecked north of Goa, in 'the Mallwan's country', survivors imprisoned;calls;;;nan
l138;from Bengal;calls;;;nan
l139;Faro;calls;37.01869;-7.92716;atlantic
l141;not heard of after leaving Bengal about the end of;calls;;;nan
l143;Yarmouth;calls;50.70529;-1.49929;british_isles
l144;Quebec;calls;46.81228;-71.21454;atlantic
l145;moorings;calls;;;nan
l146;Halifax;calls;53.71667;-1.85;british_isles
l147;went on shoreBerck nr Boulogne, abandoned;calls;;;nan
l148;From Bantam;calls;;;nan
l149;Delagoa river;calls;;;nan
l150;wreckedMadagascar;calls;;;nan
l151;crew reached Johanna in sloop and longboat;calls;;;nan
l152;met pirates and men deserted to them;calls;;;nan
l153;left Johanna in sloop;calls;;;nan
l154;reached Indian coast nr Vingula;calls;;;nan
l155;captured and plundered by Shivaji's forces;calls;;;nan
l157;Surat 1619, carried Sir Thomas Roe home;calls;;;nan
l158;Voyage lost, ship 'cast away' between London and Gravesend;calls;;;nan
l159;buoyed up and towed to Northfleet;calls;;;nan
l160;joined Anglo;calls;;;nan
l161;Dutch Fleet of DefenceGoa;calls;;;nan
l162;sent for Mozambique Channel;calls;;;nan
l163;Malabar;calls;-33.96216;151.24796;indian_ocean
l164;Dabhol;calls;17.58971;73.18001;bombay_presidency
l165;Jambi;calls;-1.6;103.61667;southeast_asia
l166;broken up, rotten;calls;;;nan
l167;captured by FrenchBombay;calls;;;nan
l168;Bengal river;calls;;;nan
l169;Kinsale;calls;51.7075;-8.53056;british_isles
l170;captured by the Dutch;calls;;;nan
l171;Bedthar;calls;;;nan
l172;Hugli;calls;22.90877;88.39674;bengal_presidency
l173;Cox's Island;calls;;;nan
l174;off Cape San Diego, Argentina;calls;;;nan
l175;off Cape Horn;calls;;;nan
l176;in Sulu Sea;calls;;;nan
l178;wrecked Pelew Islands;calls;;;nan
l179;built a boat, sailed;calls;;;nan
l180;Macao Seevftt account of the Pelew Islands ... George Keate;calls;;;nan
l182;Gogha;calls;;;nan
l183;Linton;calls;51.92529;-2.49669;british_isles
l184;L/MAR/B/515B Journal;calls;;;nan
l185;Alexander Stirling, Chief Mate Falmouth;calls;;;nan
l186;off Lintin;calls;;;nan
l187;Lower Hope;calls;;;nan
l188;transport;calls;;;nan
l189;see Asiatic Journal  pp.32;calls;;;nan
l190;Toibay;calls;;;nan
l191;Canaries;calls;13.90224;-61.06459;atlantic
l192;Madagascar htor;calls;;;nan
l194;at capture of San Antonio carrack in Straits of Malacca;calls;;;nan
l195;sent for England;calls;;;nan
l196;arrived;calls;;;nan
l197;Maio;calls;15.13823;-23.21158;atlantic
l198;Bandas;calls;;;nan
l200;Pemba;calls;-12.97395;40.51775;indian_ocean
l202;Aden;calls;12.77944;45.03667;indian_ocean
l204;reached Indian coast nr Mahuwa, Kathiawar;calls;;;nan
l205;sailed for Surat;calls;;;nan
l206;lost on Malacca Banks;calls;;;nan
l207;crew reached Surat;calls;;;nan
l208;Capt Elias Clapp;calls;;;nan
l210;Madras Kedgeree;calls;;;nan
l211;Qishm;calls;26.9492;56.2691;indian_ocean
l212;Padang;calls;-0.94924;100.35427;southeast_asia
l213;off St Helena took part in capture of seven Dutch ships;calls;;;nan
l214;Simons Bay;calls;;;nan
l215;Mahe;calls;11.70172;75.53474;madras_presidency
l216;Samkoke' Island;calls;;;nan
l217;lost 'in the Bengal river;calls;;;nan
l218;New Anchorage;calls;;;nan
l220;Hong Kong;calls;22.27832;114.17469;china
l221;Jim Johanna;calls;;;nan
l222;Santa Cruz;calls;15.30815;120.85318;southeast_asia
l224;Diamond Harbour Saugor;calls;;;nan
l225;Waterford;calls;52.25833;-7.11194;british_isles
l226;Sydney Cove;calls;;;nan
l227;Wliampoa;calls;;;nan
l228;Left England;calls;;;nan
l229;sent for Jambi;calls;;;nan
l230;made voyages to Jambi, the Bandas and Macassar;calls;;;nan
l231;captured by the Dutch and taken to Japan;calls;;;nan
l232;eventually handed back, but abandoned in;calls;;;nan
l233;Downs captured French ship Baronette;calls;;;nan
l235;off Point de Galle;calls;;;nan
l236;Stokes Bay;calls;;;nan
l237;Arp Cape;calls;;;nan
l238;Bantal;calls;;;nan
l239;left Bengal;calls;;;nan
l240;sent for Taiwan &;calls;;;nan
l241;lostsea during second attempt;calls;;;nan
l242;sailed for England;calls;;;nan
l244;off North Island;calls;;;nan
l245;Capt William Baker;calls;;;nan
l246;off Persian coast;calls;;;nan
l247;Margate;calls;51.38132;1.38617;british_isles
l248;Mozambique;calls;-15.03466;40.73447;indian_ocean
l249;lost going into Bombay;calls;;;nan
l250;Moorings;calls;;;nan
l251;Galway;calls;53.27245;-9.05095;british_isles
l252;Borneo;calls;;;nan
l253;Blackwall * passenger list in journal includes prisoners of war;calls;;;nan
l254;Ceylon;calls;;;nan
l255;Long Reach skirmish with an American ship;calls;;;nan
l256;attacked by piratesSao Tiago;calls;;;nan
l257;seized by nativesMassalege, Madagascar;calls;;;nan
l258;captured there by the Dutch;calls;;;nan
l259;v Downs;calls;;;nan
l260;home via Newfoundland Banks;calls;;;nan
l261;Prince's Island;calls;;;nan
l262;remained in East Indies;calls;;;nan
l263;captured by the French;calls;;;nan
l264;recovered;calls;;;nan
l265;Jeddah;calls;21.49012;39.18624;indian_ocean
l267;Jask;calls;25.64533;57.77552;indian_ocean
l269;feared lost;calls;;;nan
l270;Long Reach capturedthe French coast;calls;;;nan
l271;Barrabulla;calls;;;nan
l272;Fernando Nova Pina;calls;;;nan
l273;Long Reach carried the body of Sir Eyre Coote back to England;calls;;;nan
l274;Reach;calls;43.91064;-69.8206;atlantic
l275;Pondicherry;calls;11.93381;79.82979;madras_presidency
l276;Madras^;calls;;;nan
l277;Cannanore;calls;11.86752;75.35763;madras_presidency
l278;cruising between Cannanore and Mangalore;calls;;;nan
l279;disappeared after parting companyMauritius;calls;;;nan
l280;burntPoint de Galle;calls;;;nan
l281;Capt John Goldsborough;calls;;;nan
l282;Tellicheny Calicut;calls;;;nan
l283;Ruttera;calls;;;nan
l284;Brinjoan;calls;;;nan
l285;voyage ended Portsmouth;calls;;;nan
l286;home mid;calls;;;nan
l287;offered for sale to Royal Africa Company;calls;;;nan
l289;SSo Tiago;calls;;;nan
l290;Negapatam;calls;10.76377;79.84313;madras_presidency
l291;Pulicat;calls;;;nan
l292;Indrapura;calls;;;nan
l293;Muscat;calls;23.58413;58.40778;indian_ocean
l294;from Bombay;calls;;;nan
l295;captured by the French 1694, sank going into Brest;calls;;;nan
l296;Tranquebar;calls;11.02764;79.85425;madras_presidency
l297;Narsapore;calls;;;nan
l298;captured by the FrenchGanjam;calls;;;nan
l299;Texel;calls;;;nan
l300;blown upBasra;calls;;;nan
l302;Sumatra;calls;;;nan
l303;Mozambique Channel;calls;;;nan
l304;leftGoa in 1639, broken up in;calls;;;nan
l305;returned to China for repairs;calls;;;nan
l306;Whampoa Second Bar;calls;;;nan
l307;L/MAR/B/414A Journal;calls;;;nan
l308;1795, anon Penang;calls;;;nan
l309;attacked by pirates after leaving Mokha;calls;;;nan
l310;blown up by accident while engaging Sivaji pirates;calls;;;nan
l311;Diego Garcia Bay;calls;;;nan
l312;cruising Coromandel coast;calls;;;nan
l313;left China;calls;;;nan
l314;took part in battle of Pulau Aor;calls;;;nan
l315;Capt James Birkdell Downs;calls;;;nan
l316;Assada;calls;;;nan
l317;* carried planters to form colonyAssada;calls;;;nan
l318;Benjarmassin;calls;;;nan
l319;Banjarmassin;calls;;;nan
l320;off St Helena, unable to call because of French ships;calls;;;nan
l323;Portland;calls;50.56748;-2.44472;british_isles
l324;towards England', engagement with a French ship;calls;;;nan
l325;New South Wales;calls;;;nan
l326;Benguela;calls;-12.57626;13.40547;atlantic
l327;Car Nicobar;calls;;;nan
l328;Princes Island;calls;;;nan
l329;Bencoolen;calls;;;nan
l330;Pulau Pisang;calls;;;nan
l331;Manna;calls;-4.4651;102.90386;southeast_asia
l332;Nagore;calls;;;nan
l333;Jim Madras;calls;;;nan
l334;dismissed in hurricane;calls;;;nan
l335;condemnedCalcuttta;calls;;;nan
l336;lostJohanna;calls;;;nan
l337;Ipoh;calls;4.5841;101.0829;southeast_asia
l338;Laye;calls;12.53118;-1.77684;atlantic
l339;Bertoonan;calls;;;nan
l340;Madras, forced out by a French ship;calls;;;nan
l341;lost 'off the Brazils;calls;;;nan
l342;Diamond Point;calls;;;nan
l343;Achen;calls;50.77664;6.08342;atlantic
l344;Downs *;calls;;;nan
l345;captured French ship Le Vengeur;calls;;;nan
l347;St Lucia;calls;-28.37622;32.41181;indian_ocean
l348;St Pierre;calls;46.77914;-56.1773;atlantic
l349;coastal cruise;calls;;;nan
l350;lost on the Goodwin Sandsthe South Foreland;calls;;;nan
l351;Capt Thomas Gilbert;calls;;;nan
l352;Kamree Roads;calls;;;nan
l354;captured by the FrenchPoint de Galle, ran ashore in Simons Bay, Cape,;calls;;;nan
l355;Cowes;calls;50.76252;-1.29781;british_isles
l356;Torbar;calls;;;nan
l357;Capt Richard Glasspoole Downs;calls;;;nan
l358;Toon;calls;33.79427;132.89011;indian_ocean
l359;koo;calls;;;nan
l360;Sing;calls;14.88786;100.40464;southeast_asia
l361;moon;calls;58.60194;23.24694;indian_ocean
l362;served in Anglo;calls;;;nan
l363;Dutch Fleet of Defence basedHirado;calls;;;nan
l364;at Lagundy in;calls;;;nan
l365;laid up in;calls;;;nan
l366;Porta Nova;calls;;;nan
l367;wreckedCadargos, Carajos Reefs nr Mauritius,;calls;;;nan
l368;captain, surgeon's mate and crew drowned;calls;;;nan
l370;Basra;calls;30.50852;47.7804;indian_ocean
l371;Whampaoa;calls;;;nan
l372;Fernando Loronho;calls;;;nan
l373;captured by French Oct, recovered;calls;;;nan
l374;Carrick Road;calls;;;nan
l375;Capt Jonathan Andrews;calls;;;nan
l376;Milford Haven;calls;51.71278;-5.0341;british_isles
l377;Tilbury;calls;51.46248;0.35856;british_isles
l378;Bentoonan;calls;;;nan
l379;Scindy;calls;;;nan
l381;parted companyMauritius 1809, not heard of again;calls;;;nan
l382;Greenhithe;calls;51.45026;0.28539;british_isles
l383;First Bar;calls;;;nan
l384;St Helena Long Reach;calls;;;nan
l385;Left China;calls;;;nan
l386;Timor;calls;;;nan
l387;Amoy;calls;24.47979;118.08187;china
l388;captured by French in Straits of Malacca;calls;;;nan
l389;Carrig Roads;calls;;;nan
l390;JulBalasore;calls;;;nan
l391;Semarang;calls;-6.99306;110.42083;southeast_asia
l392;Tom Borneo;calls;;;nan
l393;Bahia;calls;-0.59792;-80.42367;atlantic
l394;Malwa;calls;;;nan
l395;Second bar;calls;;;nan
l396;Finish Roads, Ireland;calls;;;nan
l398;Lantau;calls;;;nan
l399;Lampagao;calls;;;nan
l400;captured by piratesJohanna;calls;;;nan
l401;MadrasBengal;calls;;;nan
l402;Upper Hope;calls;;;nan
l404;Port Louis;calls;-20.16194;57.49889;indian_ocean
l405;Ramsgate;calls;51.33568;1.41797;british_isles
l406;Pulo Condore;calls;8.68641;106.60824;southeast_asia
l407;L/MAR/B/115C Journal;calls;;;nan
l408;1717, Francis Gostlin, Fourth Mate Lizard;calls;;;nan
l409;wrecked in Straits of Sunda;calls;;;nan
l410;crew reached Benkulen on Rochester;calls;;;nan
l411;Long Reach * fleet captured Le Franc, crew of Ceres took possession;calls;;;nan
l412;Sidney Cove;calls;;;nan
l413;captured by the French, retakenMauritius;calls;;;nan
l414;Cochin Calicut;calls;;;nan
l415;lostthe Cape;calls;;;nan
l416;Cuddalore;calls;11.75617;79.76693;madras_presidency
l418;Palembang;calls;-2.91673;104.7458;southeast_asia
l419;Surat, accidentally destroyed by fire;calls;;;nan
l420;Apr/May Maldives;calls;;;nan
l421;Tuticorin;calls;8.76735;78.13425;madras_presidency
l422;not heard of again;calls;;;nan
l423;occupied Hippin's Island in Straits of Sunda;calls;;;nan
l424;withdrew Hippin's Island settlement;calls;;;nan
l425;Bombay, negotiations with Keigwin, re;calls;;;nan
l426;occupied Bombay;calls;;;nan
l427;Chuenpi;calls;;;nan
l428;Narispore;calls;;;nan
l429;Narsipore;calls;;;nan
l430;captured by the French in 6Â° 30'N, 90Â° 30'E;calls;;;nan
l431;Augustine's Bay;calls;;;nan
l432;to remain India;calls;;;nan
l433;Jangarall Creek, Calcutta;calls;;;nan
l434;Macao islands;calls;;;nan
l435;Capt Francis Hosier;calls;;;nan
l436;Bantam, laid up in;calls;;;nan
l437;Quilton;calls;;;nan
l438;Kidderporc;calls;;;nan
l439;Jakatra;calls;;;nan
l440;sent for Japara, Macassar and the Moluccas;calls;;;nan
l441;in the Goa fleet;calls;;;nan
l442;castat sea and sank;calls;;;nan
l444;Scindy Road;calls;;;nan
l445;Red Sea;calls;;;nan
l446;Bachian;calls;;;nan
l447;Makian;calls;;;nan
l450;Cocos Keeling Islands;calls;;;nan
l451;Petapoli;calls;;;nan
l452;laid up in 1623, rotten;calls;;;nan
l453;St Paul;calls;;;nan
l454;Iambi;calls;;;nan
l455;Persian Gulf;calls;;;nan
l456;Mew Bay;calls;;;nan
l457;wrecked Aug, struck a rock entering False Bay;calls;;;nan
l458;returned to Calcutta;calls;;;nan
l459;captured north of Madeira Jul, recovered;calls;;;nan
l460;at Masulipatam;calls;;;nan
l461;captured and burnt in Malabars;calls;;;nan
l462;Rangoon;calls;16.80528;96.15611;southeast_asia
l463;Jiddah;calls;21.49012;39.18624;indian_ocean
l464;burntBenkulen;calls;;;nan
l465;sent for Macasser, Amboina and Bandas;calls;;;nan
l466;backBantam;calls;;;nan
l467;sent for Celebes and Bandas;calls;;;nan
l468;withdrew in face of Dutch opposition;calls;;;nan
l469;scuttledBatavia;calls;;;nan
l470;St Laurence;calls;;;nan
l471;Moluccas;calls;;;nan
l472;Buton;calls;-5.4633;122.6024;southeast_asia
l473;Dartmouth;calls;50.3522;-3.5794;british_isles
l474;Trinidade;calls;;;nan
l475;Tumala Punta;calls;;;nan
l477;Capshee Bay;calls;;;nan
l478;Catherine and Planter lost company;calls;;;nan
l479;Planter rejoined;calls;;;nan
l480;Discovery sent back to England, Anne sent for India alone;calls;;;nan
l481;Goa, joined there by Catherine and Anne, left;calls;;;nan
l482;Planter sent back to England;calls;;;nan
l483;Anunghol;calls;;;nan
l484;captured Chinese fort;calls;;;nan
l485;Tiger Island;calls;;;nan
l486;fought Chinese junks;calls;;;nan
l487;Macao, Anne sold there, CatherineDec, Dragon and Sun;calls;;;nan
l488;Gibraltar;calls;36.14474;-5.35257;atlantic
l489;lost on voyage to Taiwan;calls;;;nan
l490;captured by French in 50Â° 21'N. 17Â°W;calls;;;nan
l491;Long Reach * engagement with three French ships;calls;;;nan
l492;Bearhaven;calls;;;nan
l493;Deal;calls;51.22316;1.4028;british_isles
l494;free ship to trade in the country;calls;;;nan
l495;blockaded Mokha until;calls;;;nan
l496;Ceram;calls;;;nan
l498;Macassar;calls;-5.14861;119.43194;southeast_asia
l499;Sukadana;calls;-5.06446;105.54869;southeast_asia
l500;Pattani, laid up there;calls;;;nan
l501;Thames;calls;-37.13832;175.54011;indian_ocean
l502;expedition agst Angria pirates;calls;;;nan
l503;lost north of Sadras;calls;;;nan
l504;Capt Marmaduke Rawdon;calls;;;nan
l505;Howrah;calls;-42.88728;147.40554;indian_ocean
l506;lost in the Hugh;calls;;;nan
l508;seized by Dutch;calls;;;nan
l509;in reported laid up as a wreck in the Bandas;calls;;;nan
l510;left Madras;calls;;;nan
l512;Taverapatam;calls;;;nan
l513;left Benkulen;calls;;;nan
l514;Fulla;calls;;;nan
l515;Tambomeo;calls;;;nan
l516;burntBenkulen to prevent her capture by the French;calls;;;nan
l517;Whampoa St Helena;calls;;;nan
l518;off Ascension;calls;;;nan
l520;Diamond Creek;calls;-37.66667;145.15;indian_ocean
l522;Simon's Bay;calls;;;nan
l523;Pipli;calls;;;nan
l524;the Gore;calls;41.96677;-71.43284;atlantic
l525;Westcott Bay;calls;;;nan
l526;captured by Angria;calls;;;nan
l527;remained in India;calls;;;nan
l528;Tellicherry Bombay;calls;;;nan
l529;Portsmouth Ar;calls;;;nan
l530;Bombay Goa;calls;;;nan
l531;wrecked in Saugor Roads;calls;;;nan
l532;Dutch Fleet of DefenceMalabar 1622/3;calls;;;nan
l533;at Lagundy Mar/Apr;calls;;;nan
l534;laid up as a careening hulk early;calls;;;nan
l535;Capt Thomas Woodcock Downs;calls;;;nan
l536;Left Bengal;calls;;;nan
l537;Limerick;calls;52.66472;-8.62306;british_isles
l538;Ramsey, Pembrokeshire;calls;;;nan
l539;Morardava;calls;;;nan
l540;Massaleige;calls;;;nan
l541;Prawdar;calls;;;nan
l542;Boyne Harbour;calls;;;nan
l543;Tuloa;calls;;;nan
l546;off Greenland;calls;;;nan
l547;Warwick's Foreland;calls;;;nan
l548;penetrated Hudson's Strait, driven out and south;calls;;;nan
l549;voyage abandoned;calls;;;nan
l550;off Scilly;calls;;;nan
l551;back in England by;calls;;;nan
l552;sacked Bombay;calls;;;nan
l553;Surat Cape;calls;;;nan
l554;Mozamibique Channel;calls;;;nan
l555;lost on homeward voyage;calls;;;nan
l556;Left Bantam;calls;;;nan
l557;Spilhead;calls;;;nan
l558;cruising;calls;;;nan
l559;The wreck was located and 'salvaged' in 1977/8;calls;;;nan
l560;Clive's lost treasure, Geoffrey & David Allen;calls;;;nan
l561;Rajapur;calls;16.65679;73.51701;bombay_presidency
l562;voyage ended * attacked by pirate in Straits of Malacca;calls;;;nan
l563;Long Reach * assisted in capture of French ship;calls;;;nan
l564;Macasser;calls;;;nan
l565;voyages to Jambi and Masulipatam;calls;;;nan
l566;Diu;calls;20.71405;70.98224;bombay_presidency
l567;permission to garrison Macao refuseed;calls;;;nan
l568;Sambroke;calls;;;nan
l569;Long Reach * recaptured ^4Rainier from French;calls;;;nan
l570;Temate;calls;;;nan
l571;met Hector in Straits of Sunda and returned;calls;;;nan
l572;Swally;calls;;;nan
l573;captured by DutchTiku;calls;;;nan
l574;detained by Dutch;calls;;;nan
l575;subsequently lost;calls;;;nan
l576;soldMadras;calls;;;nan
l577;Banjarmassin Tambomeo;calls;;;nan
l578;Madura;calls;9.919;78.11953;madras_presidency
l580;Morandava;calls;;;nan
l581;Morungary river;calls;;;nan
l582;Moco Moco Benkulen;calls;;;nan
l583;M Malacca;calls;;;nan
l584;Downs * insert A short formula for longitude, having the linear tables etc Samuel Dunn;calls;;;nan
l585;Point de Gale;calls;;;nan
l586;Bali Straits;calls;;;nan
l587;Gorec, Holland;calls;;;nan
l588;Jim New Anchorage;calls;;;nan
l589;Matavai;calls;-14.03208;-171.64768;indian_ocean
l590;Tonga;calls;4.96667;10.7;atlantic
l593;Pisang;calls;;;nan
l594;lost on Long Sand in the river Hugh 25/26;calls;;;nan
l595;burnt in Madras Roads;calls;;;nan
l596;Bonavista;calls;48.64989;-53.11474;atlantic
l597;Portsmouth Long Reach;calls;;;nan
l598;cape;calls;;;nan
l600;Ar Mokha;calls;;;nan
l601;lost in Ayoffe Bay, Cape Verde,;calls;;;nan
l602;Bombay Surat;calls;;;nan
l603;burntCeylon;calls;;;nan
l604;Pulo Bay;calls;;;nan
l605;Capt Torbay;calls;;;nan
l606;Downs Penang;calls;;;nan
l607;Urmston's Bay;calls;;;nan
l608;Chaul;calls;;;nan
l609;Enth;calls;;;nan
l610;driven on shore by a hurricane;calls;;;nan
l611;condemnedCalcutta;calls;;;nan
l612;Bantry Bay;calls;;;nan
l613;Galloway;calls;;;nan
l614;Second Bar â–  St Helena;calls;;;nan
l615;Lone Reach WreckedPlymouth;calls;;;nan
l616;in action against Portuguese;calls;;;nan
l617;voyages between Surat and Java in 1627, and;calls;;;nan
l618;laid upBantam;calls;;;nan
l619;Downs _ , i _.;calls;;;nan
l620;Borneo river;calls;;;nan
l621;Londonderry;calls;43.22646;-72.80649;atlantic
l622;burnt before;calls;;;nan
l623;Broken Ground' Bengal;calls;;;nan
l624;Kedgeree â–  Saugor;calls;;;nan
l625;burnt in the river Hugh;calls;;;nan
l626;lost in the river Hugh;calls;;;nan
l627;lost on the Shambles;calls;;;nan
l628;Ingeh;calls;;;nan
l629;Portsmouth as transport with HMS Salisbury and Seahorse under Commodore Sir Edward Hughes;calls;;;nan
l630;lost in Madras Roads;calls;;;nan
l631;lost on the Camicobar Jim;calls;;;nan
l632;Moco;calls;;;nan
l633;Shannon;calls;52.70389;-8.86417;british_isles
l634;Onroot;calls;;;nan
l635;Pulau Pisang Cape;calls;;;nan
l636;All Saints' Bay;calls;;;nan
l637;Downs * witnessed burning of Duke of Kingston, received survivors;calls;;;nan
l638;SWSMW1772;calls;;;nan
l639;Portsmouth June;calls;;;nan
l640;M Whampoa;calls;;;nan
l641;Pulo Massey;calls;;;nan
l642;PortsmouthSMay;calls;;;nan
l643;Severndroog;calls;;;nan
l644;Bancoot;calls;;;nan
l645;Portsmouth3 oÂ°Mar;calls;;;nan
l646;Teliicheriy;calls;;;nan
l647;Long Reach rescued crew of sinking Ganges;calls;;;nan
l648;Portlmmrth 8Â°May ^OS11;calls;;;nan
l649;pCS0r:â€œ;calls;;;nan
l650;saugor;calls;;;nan
l651;Downs capture of Mangalore fort from French;calls;;;nan
l652;lost on the Perates, South China Sea,;calls;;;nan
l653;wrecked south of the Paracels 1763, some survivors reached Canton See G/12/195 ff.30;calls;;;nan
l654;Sural;calls;;;nan
l655;Teilicherry;calls;;;nan
l656;Culpce;calls;;;nan
l657;Ingcli;calls;;;nan
l658;Kinsaie;calls;;;nan
l659;Eddystone;calls;39.86011;-75.34436;atlantic
l660;L/MAR/B/aSB Journal;calls;;;nan
l661;1741, Gabriel Steward [CapCI Portsmouth;calls;;;nan
l662;Chusan;calls;;;nan
l663;See G/12/16 Chusan Diary;calls;;;nan
l664;Port Dauphin, Madagascar;calls;;;nan
l665;off Newfoundland;calls;;;nan
l666;Downs See G/17/3 ff.81;calls;;;nan
l667;for invoices etcMokha;calls;;;nan
l668;Whampoa Downs;calls;;;nan
l669;Banjarmasin;calls;-3.31987;114.59075;southeast_asia
l670;Inseli;calls;;;nan
l671;Pernambuco;calls;-8.05389;-34.88111;atlantic
l672;Myapore;calls;;;nan
l673;Garden Reach;calls;;;nan
l674;Downs * inc Cargo Book;calls;;;nan
l675;Downs engagement with French privateer La Venus;calls;;;nan
l676;with Anglo;calls;;;nan
l677;Dutch Fleet of Defence from Japan;calls;;;nan
l678;All Saints5 Bay;calls;;;nan
l679;burnt in China;calls;;;nan
l680;Liverpool;calls;53.41058;-2.97794;british_isles
l681;Capt Thomas Forrest;calls;;;nan
l682;burntWhampoa;calls;;;nan
l683;remained in India, voyages to Bandar Abbas;calls;;;nan
l684;1647, Pegu 1648, Bantam;calls;;;nan
l685;Master Edmund Seaman;calls;;;nan
l686;Master Janus Couchman;calls;;;nan
l687;Gravsend;calls;;;nan
l688;Mew Island;calls;;;nan
l689;Alguarda;calls;;;nan
l690;Tnncomalee;calls;;;nan
l691;return to Bombay;calls;;;nan
l692;St St Helena;calls;;;nan
l693;Colombo Roads;calls;;;nan
l694;lostDondra Head, Ceylon,;calls;;;nan
l695;Bushire;calls;28.96887;50.83657;indian_ocean
l696;Bar;calls;49.07362;27.67404;indian_ocean
l697;Bajalar;calls;;;nan
l698;St Salvadore;calls;;;nan
l699;jun Penang;calls;;;nan
l700;captured by French 1809, re;calls;;;nan
l701;capturedMauritius;calls;;;nan
l702;Dutch Fleet of DefenceMalabar;calls;;;nan
l703;DowwMarll^Batavia;calls;;;nan
l704;Priaman;calls;;;nan
l705;Mauntius;calls;;;nan
l706;DownsDec;calls;;;nan
l707;Tappanooly Bay;calls;;;nan
l708;Portsitmuth nS^lSlO;calls;;;nan
l709;Calcutta 2^13^96^24 Saugor;calls;;;nan
l710;Capt Nathaniel Owen;calls;;;nan
l711;BL: Sloane Ms Journal;calls;;;nan
l712;1682, Thomas Crompton Cape;calls;;;nan
l713;Botun;calls;;;nan
l714;voyage ended summer;calls;;;nan
l715;Dhufar;calls;;;nan
l716;landed Sir Robert Sherleymouth of Indus;calls;;;nan
l717;Downs late;calls;;;nan
l718;broken up;calls;;;nan
l719;James Fort, Gambia;calls;;;nan
l720;Bay of Ayoffe;calls;;;nan
l721;James Fort;calls;;;nan
l722;voyage ended To look for survivors of Duke of Cumberland, lost in Bay of Ayoffe;calls;;;nan
l723;Belfast;calls;54.59682;-5.92541;british_isles
l724;Taiwan;calls;;;nan
l725;Pescadores;calls;;;nan
l726;captured by Dutch in Straits of Banca;calls;;;nan
l727;Anjengo St Helena;calls;;;nan
l728;parted company with the fleet in a gale in 8Â°80'S by 80'E, not heard of again;calls;;;nan
l729;lost in the river Hugli;calls;;;nan
l730;burnt in Bombay harbour;calls;;;nan
l731;Samarang;calls;-6.99306;110.42083;southeast_asia
l732;Bantam SoldBatavia;calls;;;nan
l733;capturedthe Lizard by a Flushing man;calls;;;nan
l734;of;calls;;;nan
l735;war and taken to Bergen;calls;;;nan
l736;wreckedBombay;calls;;;nan
l737;Hughli;calls;;;nan
l738;Sen Benkuien;calls;;;nan
l739;Jui St Helena;calls;;;nan
l740;Clyde;calls;41.30422;-82.97519;atlantic
l741;Blackwail;calls;;;nan
l742;stranded on Sogar Bank, Bengal,;calls;;;nan
l743;bt Helena;calls;;;nan
l744;captured on her passage to Bengal by the French frigate Piedmontaise;calls;;;nan
l745;London;calls;51.50853;-0.12574;british_isles
l746;Hong Kong Bay;calls;;;nan
l747;Jim Bombay;calls;;;nan
l748;Ganges;calls;43.93419;3.70797;atlantic
l749;L/MAM/A/LXXIV pp.52;calls;;;nan
l750;Journal;calls;;;nan
l751;Bangkok;calls;13.75398;100.50144;southeast_asia
l752;Ayutthaya;calls;14.35167;100.57739;southeast_asia
l753;L/MAE/A/LXXIV pp.125;calls;;;nan
l754;Journal Jun=10 Bantam;calls;;;nan
l755;Tonkin;calls;;;nan
l756;engagment with FrenchSao Tiago;calls;;;nan
l757;Cockelee;calls;;;nan
l758;captured by French frigate La Fine;calls;;;nan
l759;Capt Thomas Smith Downs;calls;;;nan
l760;Tcllicherry;calls;;;nan
l761;Plymouth * during the voyage there were deaths;calls;;;nan
l762;Barrabulla, Sumatra;calls;;;nan
l763;nampoa;calls;;;nan
l764;Rio de Janeior;calls;;;nan
l765;Andamans;calls;;;nan
l766;Balambang;calls;;;nan
l767;Tellicherty;calls;;;nan
l768;˜East Indies;calls;;;nan
l769;left Madras for Benkulen 1791, not heard of again See;calls;;;nan
l770;Bristol;calls;51.45523;-2.59665;british_isles
l771;Sulu Roads;calls;;;nan
l772;Carrick Roads;calls;;;nan
l773;Capt Thomas Newsham Portsmouth;calls;;;nan
l774;iph;calls;;;nan
l775;captured by French privateer L 'Aventure, crew placed on American ship Henry;calls;;;nan
l776;Long Beach;calls;33.91045;-78.11777;atlantic
l777;Goree;calls;;;nan
l778;Broken Ground;calls;;;nan
l779;Camicobar;calls;;;nan
l780;lostSt Vincent;calls;;;nan
l781;captured, with the Godfrey, Hillsborough, Mountstuart and Royal George, by the combined Franco;calls;;;nan
l782;Spanish fleet in 36028'N & 15Â°20'W;calls;;;nan
l783;lost on the Dutch coast;calls;;;nan
l784;Downs * assisted in capture of three Dutch shipsSt Helena;calls;;;nan
l785;Malaca;calls;36.72016;-4.42034;atlantic
l786;Whmpoa;calls;;;nan
l787;Chumpee;calls;;;nan
l788;L/MAR/B/290A Journal;calls;;;nan
l789;1795, anonChina;calls;;;nan
l790;Fernando Noronha;calls;;;nan
l791;Hugh river;calls;;;nan
l792;Downs St Helena;calls;;;nan
l793;Batavia St Helena;calls;;;nan
l794;Poole;calls;50.71429;-1.98458;british_isles
l795;Benguella;calls;-12.57626;13.40547;atlantic
l796;River Plate;calls;;;nan
l797;Quang Nam;calls;15.88853;108.25447;southeast_asia
l798;Bouro;calls;;;nan
l799;Sumbava;calls;;;nan
l800;off Ceylon;calls;;;nan
l801;Pattani,for Ayutthaya;calls;;;nan
l802;returned to Pattani,again;calls;;;nan
l803;voyage ended late;calls;;;nan
l804;Engano;calls;;;nan
l805;laid upBatavia 1623, rotten;calls;;;nan
l806;parted company in a gale in 8Â°30'S 80'E and not heard of again;calls;;;nan
l807;Capt Philip Browne Plymouth;calls;;;nan
l808;lost;calls;;;nan
l809;captured  by the combined Franco;calls;;;nan
l810;Spanish fleet in 36Â°28'N IS^O'W;calls;;;nan
l811;lostBombay;calls;;;nan
l812;Ryapore;calls;;;nan
l813;attempted mutiny;calls;;;nan
l814;penetrated Hudson's Strait but driven out and south;calls;;;nan
l815;Capt John North;calls;;;nan
l816;Capt James Cook;calls;;;nan
l817;Jim;calls;7.67344;36.83441;indian_ocean
l818;Capt Robert Potter Downs;calls;;;nan
l819;sold in India;calls;;;nan
l820;Assembledthe Cape by the Fourth Voyage;calls;;;nan
l821;blownSocotra, ran ashore on Gujarat coast about Aug, crew deserted;calls;;;nan
l822;Capt James Murvell;calls;;;nan
l823;lost in Bengal;calls;;;nan
l824;not heard of since the storm in Bengal;calls;;;nan
l825;˜English coast;calls;;;nan
l826;off Dungeness;calls;;;nan
l827;Sillebar;calls;;;nan
l828;Downs See D/99 ff.5;calls;;;nan
l829;for a crew list;calls;;;nan
l830;Maldives;calls;;;nan
l831;Sheemess;calls;;;nan
l832;lostFolkestone;calls;;;nan
l834;captured by the Frenchthe Cape;calls;;;nan
l835;Gravesend * attacked by piratesJohanna;calls;;;nan
l836;Managalore;calls;;;nan
l837;Erith See D/98 ff.250;calls;;;nan
l838;Downs See E/3/21 no.2081;calls;;;nan
l839;ship lostthe 'island of Zelo;calls;;;nan
l840;Whampo;calls;;;nan
l841;wreckedPondoland, South Africa,;calls;;;nan
l842;Sydney;calls;46.1351;-60.1831;atlantic
l843;lost between Peverill Point and St Alban's Head, Isle of Purbeck See A circumstantial narrative of the loss of the Halsewell...;calls;;;nan
l844;Point de Gallc;calls;;;nan
l845;captured by the Dutch in the Banka Straits;calls;;;nan
l846;disappeared between Balasore and Masulipatam;calls;;;nan
l847;Morendavia Bay;calls;;;nan
l848;Jim Fort St David;calls;;;nan
l849;Capt Edmund Scott;calls;;;nan
l850;Tenerife ~ Madras;calls;;;nan
l851;Calcutta = St Helena;calls;;;nan
l852;Pondicheny;calls;;;nan
l853;Madras = Penang = Calcutta = Kedgeree;calls;;;nan
l854;St Helena = Downs;calls;;;nan
l855;Achch;calls;;;nan
l856;Table Bay;calls;;;nan
l857;Vizagapatam = Madras;calls;;;nan
l858;Saugor = Point de Gallc;calls;;;nan
l859;Downs * pen & ink sketch of the ship;calls;;;nan
l860;burntCalcutta;calls;;;nan
l863;Sohar;calls;24.34745;56.70937;indian_ocean
l864;Lagundy;calls;;;nan
l865;Japara;calls;-6.5924;110.671;southeast_asia
l866;Downs * journal includes sketches;calls;;;nan
l867;voyage ended by;calls;;;nan
l868;Bowns;calls;;;nan
l869;Sind;calls;46.58333;23.71667;indian_ocean
l870;remained in India ?;calls;;;nan
l871;lostBonavista;calls;;;nan
l873;returned to Benkulen, gale damaged;calls;;;nan
l874;portsmouth;calls;;;nan
l875;Helena;calls;36.54614;-98.27007;atlantic
l876;Malabar coast;calls;;;nan
l877;lost in the Bab el Mandeb;calls;;;nan
l878;11May St Helena;calls;;;nan
l879;took part in capture of San Antonio carrack in Straits of Malacca;calls;;;nan
l880;river Tapti;calls;;;nan
l881;Red Sea blockade;calls;;;nan
l882;Bantam, abandoned, rotten;calls;;;nan
l883;coast of Sindey;calls;;;nan
l884;Bally Town;calls;;;nan
l885;lost on Bembridge Ledge, Isle of Wight,;calls;;;nan
l886;â– 51 St Helena;calls;;;nan
l887;Lintin Roads;calls;;;nan
l888;"Whampoa "" Second Bar";calls;;;nan
l889;Karakaul;calls;;;nan
l890;Dublin;calls;53.33306;-6.24889;british_isles
l891;fought with French warships, blown upJohanna;calls;;;nan
l892;Capt Richard Chadsley Downs;calls;;;nan
l893;Bassein;calls;16.77919;94.73212;bengal_presidency
l894;Poolo Bay;calls;;;nan
l895;Dock;calls;;;nan
l896;1^26 St Helena;calls;;;nan
l897;Singapaore;calls;;;nan
l898;Cap Sing Moon;calls;;;nan
l899;Capt William Morris Downs;calls;;;nan
l900;Capt John Hazlewood;calls;;;nan
l901;lost in Persia;calls;;;nan
l902;The Hope;calls;;;nan
l903;captured with Gatton, Godfrey, Mountstuart and Royal George by combined Franco;calls;;;nan
l904;Spanish fleet in 36Â°28'N 15Â°20'W;calls;;;nan
l905;lost in the Bengal river;calls;;;nan
l906;repairedcoast of China;calls;;;nan
l907;Srat;calls;;;nan
l908;voyages between Bantam and Surat;calls;;;nan
l912;Cochin China;calls;;;nan
l913;off Teinchin;calls;;;nan
l914;Capt George Millett Fortmouth;calls;;;nan
l915;Anger;calls;47.27422;15.69139;atlantic
l916;Killybeg' Ireland;calls;;;nan
l917;Dutch Fleet of Defence based in Japan;calls;;;nan
l918;L/MAR/B/168;calls;;;nan
l919;I Journal;calls;;;nan
l920;1806, anon Left Bengal;calls;;;nan
l921;St Margaret's Orkney;calls;;;nan
l922;Labrador;calls;16.02812;120.14424;southeast_asia
l923;presumably laid up, rotten;calls;;;nan
l924;Princes' Island;calls;;;nan
l926;captured by the DutchPattani;calls;;;nan
l927;Gomes Island;calls;;;nan
l928;Rendezvous Island' Borneo;calls;;;nan
l930;broughtsettlers after Dutch capture of St Helena on;calls;;;nan
l931;towards England' HURLEY;calls;;;nan
l932;Cap Sing Moon Bay;calls;;;nan
l933;Bandar Abbas Bombay;calls;;;nan
l934;Hobart;calls;44.49925;-88.14986;atlantic
l935;Capt Robert Hill;calls;;;nan
l936;to remain;calls;;;nan
l937;New York;calls;42.55779;-88.86511;atlantic
l938;Hamburg;calls;42.71589;-78.82948;atlantic
l939;Cap Sprat;calls;;;nan
l940;from England;calls;;;nan
l941;Whampa;calls;;;nan
l942;Pattern;calls;;;nan
l943;Scillies;calls;;;nan
l944;Sierra Leone;calls;;;nan
l946;Downs Broken up in;calls;;;nan
l947;Tanjayang;calls;;;nan
l948;Capt John Balchen;calls;;;nan
l949;Dutch Fleet of Defence based m Japan;calls;;;nan
l950;Trimdade;calls;;;nan
l951;returned to Bantam;calls;;;nan
l952;Jim Madeira;calls;;;nan
l953;Amboyna;calls;-3.69583;128.18333;southeast_asia
l954;Colvin's Ghat;calls;;;nan
l955;Capl Michael Martin;calls;;;nan
l956;St Salvadorc;calls;;;nan
l957;parted companyMauritius and not heard of again;calls;;;nan
l958;Masuhpatam;calls;;;nan
l959;Masulipalam;calls;;;nan
l960;left Bantam for Surat summer 1641. not heard of again;calls;;;nan
l961;wrecked Cape Aghulas. South Africa;calls;;;nan
l962;Downs Muckncll seized the ship on behalf of Charles I;calls;;;nan
l963;Bandar Abbas ' Surat;calls;;;nan
l964;left Bantam and not heard of again;calls;;;nan
l966;Cascais;calls;38.69681;-9.42147;atlantic
l967;voyage ended Bristol;calls;;;nan
l968;Djapara;calls;;;nan
l969;Madapollam;calls;;;nan
l970;Johore river;calls;;;nan
l971;Lmtin;calls;;;nan
l972;voyage ended Downs;calls;;;nan
l973;Cape Verde Islands;calls;;;nan
l975;Kmsale;calls;;;nan
l976;Indialee;calls;;;nan
l978;Pnng Manna;calls;;;nan
l979;captured by a French privateerthe Sand Heads;calls;;;nan
l980;burnt in the Bay of Biscay;calls;;;nan
l981;Acension;calls;;;nan
l982;Cape St Mary, Madagascar;calls;;;nan
l983;"Erith [""this concludes a long and dangerous voyage""]";calls;;;nan
l984;lostMadras;calls;;;nan
l985;North Island;calls;;;nan
l986;Coopers Bay;calls;;;nan
l987;Madras â–  Madras;calls;;;nan
l988;wrecked on Leytons Rock, south;calls;;;nan
l989;west of Bonavista island;calls;;;nan
l990;Culpee Madras;calls;;;nan
l991;Capt Henry Becher Portsmouth;calls;;;nan
l992;Saugor St Helena Downs;calls;;;nan
l993;Algoa Bay;calls;;;nan
l994;Benkulen St Helena;calls;;;nan
l995;Capt George Simpson Torbay;calls;;;nan
l996;Downs * journal contains a chart of New South Wales;calls;;;nan
l997;Released by the French in Simons Bay;calls;;;nan
l998;Banca Straits;calls;;;nan
l999;Borneo coast;calls;;;nan
l1000;off Madagascar;calls;;;nan
l1001;sold in Bengal;calls;;;nan
l1002;Eastern Channel;calls;;;nan
l1003;Caipang Bay;calls;;;nan
l1004;Tasmama;calls;;;nan
l1005;in action agst French ships;calls;;;nan
l1006;Capt James Shrive;calls;;;nan
l1007;Pulau Condore;calls;;;nan
l1008;lostMozambique;calls;;;nan
l1009;Dunnose;calls;;;nan
l1010;St Eustatia;calls;;;nan
l1011;Jim Mauritius;calls;;;nan
l1012;off Pondicherry;calls;;;nan
l1013;driven on shore near Fort St David by a violent wind, abandoned;calls;;;nan
l1014;fired herself m action agst PortugueseBandar Abbas;calls;;;nan
l1015;Moheli Madras;calls;;;nan
l1016;Telhcherry;calls;;;nan
l1017;Portland Bill;calls;;;nan
l1018;Hollis Bay;calls;;;nan
l1019;St Helena, to settle the island;calls;;;nan
l1020;Makassar;calls;-5.14861;119.43194;southeast_asia
l1021;Pulau Run;calls;;;nan
l1022;Downs * includes 'Directions from Bantam to Makassar' by John Edwards;calls;;;nan
l1023;Capt John Privett;calls;;;nan
l1024;Capt Joseph Eaton;calls;;;nan
l1025;Johore;calls;1.4655;103.7578;southeast_asia
l1026;off Parcelar;calls;;;nan
l1027;Portsmouth Dock;calls;;;nan
l1028;Madras, to remain;calls;;;nan
l1029;Second Bar St Helena;calls;;;nan
l1030;run down by HMS RussellBerry Head, total loss;calls;;;nan
l1031;capture of French ship Ceres;calls;;;nan
l1032;Downs * log includes crew list of Regent;calls;;;nan
l1033;went ashoreKedgeree in a hurricane, condemned;calls;;;nan
l1034;off Bantam;calls;;;nan
l1035;Culpee, to remain in India;calls;;;nan
l1036;St George's Channel;calls;;;nan
l1037;DootTm S7l763;calls;;;nan
l1038;Madias;calls;;;nan
l1039;lost nine miles to southwards of Boulogne;calls;;;nan
l1040;Cupee;calls;;;nan
l1041;ship lost;calls;;;nan
l1042;taken by French privateer Bellona;calls;;;nan
l1043;recaptured by HMS Colossus;calls;;;nan
l1044;Capt William Hambly Portsmouth;calls;;;nan
l1045;SÃ£o Tiago;calls;;;nan
l1046;Boeton;calls;-5.4633;122.6024;southeast_asia
l1047;Downs April;calls;;;nan
l1049;Rogue's River;calls;;;nan
l1050;M;calls;;;nan
l1051;Capt Nathamel Horseman;calls;;;nan
l1052;Downs * f. lOv sketch of Table Bay;calls;;;nan
l1053;Miapore;calls;;;nan
l1054;Leith Road;calls;;;nan
l1055;Fultah;calls;;;nan
l1056;Sagor;calls;;;nan
l1057;St Croix;calls;17.72751;-64.74698;atlantic
l1058;Bankshall;calls;;;nan
l1059;attacked by three French warships nr Ganjam;calls;;;nan
l1060;Rogues Rrver;calls;;;nan
l1061;Cox s Island;calls;;;nan
l1062;burnt in the Thames;calls;;;nan
l1063;Luanda;calls;0.31354;34.07146;indian_ocean
l1064;Downs * The shipPortsmouth 1804, to remain in India;calls;;;nan
l1065;Ar St Helena;calls;;;nan
l1066;wreckedMadras * journal includes minutes of enquiry into the loss;calls;;;nan
l1067;Dover;calls;51.12598;1.31257;british_isles
l1068;^ Saugor;calls;;;nan
l1069;went aground in the Bombay harbour;calls;;;nan
l1070;lost on Margate Sands;calls;;;nan
l1071;wrecked in the Hugh;calls;;;nan
l1072;San Thome;calls;;;nan
l1073;forced back to St Augustine's Bay;calls;;;nan
l1074;Capt Matthew Crover;calls;;;nan
l1075;The Nore;calls;;;nan
l1076;Tellicherxy;calls;;;nan
l1077;Downs * journal includes coastline profiles of St Helena;calls;;;nan
l1078;Downs * includes cargo book;calls;;;nan
l1079;sailing between the island, the Cape and Madagascar;calls;;;nan
l1080;Portsmouth M;calls;;;nan
l1081;Sao Thome;calls;0.33654;6.72732;atlantic
l1082;Bandar;calls;2.05;99.75;southeast_asia
l1083;Capt Roger Paxton;calls;;;nan
l1084;Frith;calls;;;nan
l1085;Southampton;calls;50.90395;-1.40428;british_isles
l1086;turned pirate after leaving Bombay;calls;;;nan
l1087;lost in a hurricane;calls;;;nan
l1088;Burah Bazaar;calls;;;nan
l1089;Surabaya;calls;-4.67122;105.72571;southeast_asia
l1090;Downs * & engagements with Angria pirates;calls;;;nan
l1091;coasting;calls;;;nan
l1092;blown upDiamond Point;calls;;;nan
l1093;joined Fleet of Defence based in Japan;calls;;;nan
l1094;wrecked in Dover Roads;calls;;;nan
l1096;captured by Algerine pirates;calls;;;nan
l1097;driven from anchors in a storm and wrecked on 'Fly Island', Holland;calls;;;nan
l1098;July Madras;calls;;;nan
l1099;2i jun Whampoa;calls;;;nan
l1100;Cor;calls;;;nan
l1101;captured with the Gatton, Godfrey, Hillsborough and Royal George by the combined Franco;calls;;;nan
l1102;Left India;calls;;;nan
l1103;lost with all handsRoscvear, Scilly;calls;;;nan
l1104;Kinsalc;calls;;;nan
l1105;Beachy Head;calls;;;nan
l1106;Dee Ingcli;calls;;;nan
l1107;Culpcc;calls;;;nan
l1108;Ingcli Dee;calls;;;nan
l1109;sank leaguesthe Lizard;calls;;;nan
l1110;Dee Bombay;calls;;;nan
l1111;Dee Sural;calls;;;nan
l1112;Banlal;calls;;;nan
l1113;Bcnkulcn;calls;;;nan
l1114;Dee Cuddalorc;calls;;;nan
l1115;Texcl;calls;;;nan
l1116;Dee Benkulen;calls;;;nan
l1117;Manduta;calls;;;nan
l1118;downs;calls;;;nan
l1119;in the Channel;calls;;;nan
l1120;lost'Manacaree;calls;;;nan
l1121;Ballamboan;calls;;;nan
l1122;Downs * diagram of fleet's sailing order;calls;;;nan
l1123;Rajah Basa Roads;calls;;;nan
l1125;laid up, rotten;calls;;;nan
l1126;Capt William Mackett Downs;calls;;;nan
l1127;list of men transfer to the Nonsuch after the wreck of the Vansittart 'Sangee Booloo' Bay;calls;;;nan
l1128;Dublin Bay;calls;;;nan
l1129;Madasgascar;calls;;;nan
l1130;S2o Tiago;calls;;;nan
l1131;disappeared after leaving Madras on;calls;;;nan
l1132;blown upsea;calls;;;nan
l1133;parted from the Hardwick in a violent storm about leagues east of Bourbon and not heard of again;calls;;;nan
l1134;˜At China;calls;;;nan
l1135;Porthsmouth;calls;;;nan
l1136;Oc Bombay;calls;;;nan
l1137;San Salvadore;calls;;;nan
l1138;Downs * includes a letter from Dutch EIC agents about prisoners of war,;calls;;;nan
l1139;lost in Margate Road;calls;;;nan
l1140;Lankeet Flat;calls;;;nan
l1141;struck reef of Kalata 7Â°9,S 121Â°E, ship scuttled Feb,island in small boats;calls;;;nan
l1142;off Chumpee;calls;;;nan
l1143;Port Philip;calls;;;nan
l1144;at Port Jackson;calls;;;nan
l1145;II Cape;calls;;;nan
l1146;Bomay;calls;;;nan
l1147;Balassore;calls;;;nan
l1148;San Savadore;calls;;;nan
l1149;captured by French ship La Forte of guns, badly damaged, allowed to proceed;calls;;;nan
l1150;reclaimed as a prize by La Sybille, allowed to proceed;calls;;;nan
l1151;Mozamibique;calls;;;nan
l1152;Mozambique Chanel;calls;;;nan
l1153;voyage ended mid;calls;;;nan
l1154;at Cape;calls;;;nan
l1155;left Priaman;calls;;;nan
l1156;at Ceylon in;calls;;;nan
l1157;left for England 1613, arrived in the autumn;calls;;;nan
l1158;Armagon;calls;;;nan
l1159;laid upBantam in;calls;;;nan
l1160;not heard of since the storm in the river Hugh;calls;;;nan
l1161;towards Lisbon;calls;;;nan
l1162;blockadeAden;calls;;;nan
l1163;Starits of Sunda;calls;;;nan
l1164;laid up in Java as a careening hulk;calls;;;nan
l1165;Downs * sketches f.22 Trinidade, f.32 Cape;calls;;;nan
l1166;blown upMadras;calls;;;nan
l1167;lostScilly;calls;;;nan
l1168;lost near Cape Comorin;calls;;;nan
l1169;Colombo Bombay;calls;;;nan
l1170;Madras Downs;calls;;;nan
l1171;manna;calls;;;nan
l1172;captured French brig La France;calls;;;nan
l1173;captured by French and taken into Mauritius, prisoners freedBombay;calls;;;nan
l1174;Downs * see 'The voyage of the Pitt;calls;;;nan
l1175;a turning point in the East India navigation', R P Crowhurst, Mariner's Mirror  pp.43;calls;;;nan
l1176;Trinidale;calls;;;nan
l1178;Capt Benjamin Fisher Portsmouth;calls;;;nan
l1179;Balasore Calcutta;calls;;;nan
l1180;Batticaloa;calls;7.7102;81.6924;madras_presidency
l1181;Hog River Creek, Bengal;calls;;;nan
l1182;wrecked 9/11 Helston Rocks, Mount's Bay, Cornwall;calls;;;nan
l1183;Porto Novo;calls;17.01969;-25.06471;atlantic
l1184;Do Ingeli;calls;;;nan
l1185;returned to Pondicheny;calls;;;nan
l1187;Manabulle;calls;;;nan
l1188;Natal;calls;0.5632;99.1099;southeast_asia
l1189;Lye Road;calls;;;nan
l1191;not heard of after the;calls;;;nan
l1192;Tynemouth;calls;55.01788;-1.42559;british_isles
l1193;King's Channel;calls;;;nan
l1194;Tamborneo;calls;;;nan
l1195;Teignmouth;calls;50.54581;-3.49671;british_isles
l1196;Iceland;calls;;;nan
l1197;Gunfleet;calls;;;nan
l1198;Malacca Whampoa;calls;;;nan
l1199;Isle of Wight;calls;36.90765;-76.70773;atlantic
l1200;New Year's Island;calls;;;nan
l1205;off Morotai;calls;;;nan
l1206;off Taiwan;calls;;;nan
l1207;left Madras and foundered in a gale;calls;;;nan
l1208;Portsmouth Madras;calls;;;nan
l1209;Capt John Innes Downs;calls;;;nan
l1210;Madras, decoyed and captured there bv the French;calls;;;nan
l1211;burntPigeon Island;calls;;;nan
l1212;taken by the French;calls;;;nan
l1213;Straits of New Guinea;calls;;;nan
l1214;returned to Macao;calls;;;nan
l1215;Pearl River;calls;32.78347;-89.22784;atlantic
l1216;Bab el Mandel;calls;;;nan
l1217;captured by a French frigate in Vizagapatam Roads;calls;;;nan
l1218;lost on a reefMaio, Cape Verde Islands;calls;;;nan
l1219;returned to Kinsale;calls;;;nan
l1220;capturedMadras by the French;calls;;;nan
l1221;returned to Penang;calls;;;nan
l1222;Culpeee;calls;;;nan
l1223;off Beachy Head;calls;;;nan
l1224;off Java Head;calls;;;nan
l1225;captured by the FrenchAnger Point;calls;;;nan
l1226;Croce;calls;;;nan
l1227;Geriah;calls;;;nan
l1228;East India Docks;calls;;;nan
l1229;taken by the FrenchSt Helena;calls;;;nan
l1230;burntSan Salvadore;calls;;;nan
l1231;along Sumatra coast;calls;;;nan
l1232;* inc coastline sketches;calls;;;nan
l1233;Cape Lagullas, False Cape, St Helena;calls;;;nan
l1234;off Bankshall;calls;;;nan
l1235;returned by;calls;;;nan
l1236;captured in Tellicheny Roads by French frigate Prenuse;calls;;;nan
l1237;Downs Dee;calls;;;nan
l1238;Downs Jim;calls;;;nan
l1239;Dee Calcutta;calls;;;nan
l1240;Surat Dee;calls;;;nan
l1241;Mohcli;calls;;;nan
l1242;Bantam, foundered May, broken up;calls;;;nan
l1243;lost nr Manila;calls;;;nan
l1244;6'Aug Penang;calls;;;nan
l1245;Capt Francis Wilshaw;calls;;;nan
l1246;lost in a storm in Balasore Roads between;calls;;;nan
l1247;off Bengal;calls;;;nan
l1248;gap;calls;44.55858;6.07868;atlantic
l1249;Cock Island;calls;;;nan
l1250;Island;calls;;;nan
l1251;Nagasaki;calls;32.75;129.88333;china
l1253;A Downs;calls;;;nan
l1254;Pulo Timan;calls;;;nan
l1255;Capt William Dyke;calls;;;nan
l1256;Capt John Bromwell;calls;;;nan
l1257;Kitow;calls;;;nan
l1258;Capt William Browne;calls;;;nan
l1259;Kisnapatam;calls;;;nan
l1260;Downs Sankher anchorsGarden Island, Western Australia, 1831. Her emigrant passengers established the settlement Rockingham Town.;calls;;;nan
l1261;Coromandel Coast;calls;;;nan
l1262;in England by;calls;;;nan
l1263;at Priaman and Tiku in;calls;;;nan
l1264;at Surat and Mokha in;calls;;;nan
l1265;at Batavia and Masulipatam in;calls;;;nan
l1266;ran ashore nr Masulipatam in 1626, burnt;calls;;;nan
l1267;captured a French slaver;calls;;;nan
l1268;Jaggemaickpuram;calls;;;nan
l1269;Barrier Islands;calls;;;nan
l1270;lost on shoalsPalawan;calls;;;nan
l1271;longboat reached Balambangan;calls;;;nan
l1272;crew home on Syren;calls;;;nan
l1273;Pulao Bay;calls;;;nan
l1274;Jim Downs;calls;;;nan
l1275;enaged in siege of Pondicherry in;calls;;;nan
l1276;Calderoon Bay;calls;;;nan
l1277;Cabinda Bay, Angola;calls;;;nan
l1278;captured, with the Gatton, Godfrey, Hillsborough and Mountstuart, by the combined Franco;calls;;;nan
l1279;Spanish fleet in 26Â°28'N & 15Â°20'W;calls;;;nan
l1280;Uockelee;calls;;;nan
l1281;Straits of Malacca;calls;;;nan
l1282;Downs * inc col sketches of islands in Straits of Malacca;calls;;;nan
l1283;journal ends 1689, northwards of Batavia;calls;;;nan
l1284;wrecked Bay of Bengal;calls;;;nan
l1285;L/MAR/A/XCVIII Journal;calls;;;nan
l1286;Sutanati;calls;;;nan
l1287;Capt William Blundell;calls;;;nan
l1288;Downs Sold;calls;;;nan
l1289;Capt John Barber Downs;calls;;;nan
l1290;lost'Mayota;calls;;;nan
l1291;Capt John Hitchings Calcutta;calls;;;nan
l1292;Capt Anthony Ryan;calls;;;nan
l1293;Angra Pequena;calls;;;nan
l1294;captured by 'the desperado Don Antonio Constanti' 1830, saved by the carpenter and remaining five crew, reached Sierra Leone;calls;;;nan
l1295;cruising with Harrington;calls;;;nan
l1296;Tellicheriy;calls;;;nan
l1297;St Paul's, Luanda;calls;;;nan
l1298;Culpee Ingeli;calls;;;nan
l1299;Downs Guinea;calls;;;nan
l1300;Madras wrecked between Masulipatam and Madapollam;calls;;;nan
l1301;Downs Bantam;calls;;;nan
l1302;off Batavia;calls;;;nan
l1303;f.32 sketches of Cape of Good Hope and Cape False ff.101;calls;;;nan
l1304;navigational rules;calls;;;nan
l1305;Capt Anthony Earning Downs;calls;;;nan
l1306;Kharg;calls;;;nan
l1307;off the Lizard;calls;;;nan
l1308;abandoned in the Atlantic 1610, empty;calls;;;nan
l1309;Surat, attacked by Portuguese Dec, fired to prevent her capture;calls;;;nan
l1310;captured by French, ransomed;calls;;;nan
l1311;hugli river;calls;;;nan
l1312;˜Caracf;calls;;;nan
l1313;Genoa;calls;41.51811;-83.35909;atlantic
l1314;Leghorn;calls;43.54427;10.32615;atlantic
l1315;Capt Simon Cumberland;calls;;;nan
l1316;Kenmair river, Ireland;calls;;;nan
l1317;Second â–  St Helena;calls;;;nan
l1318;Spithcad;calls;;;nan
l1319;Anjcngo;calls;;;nan
l1320;encounter with William Kidd the pirate in the Bab cl Mandeb;calls;;;nan
l1321;Downs * f.7v list of officers, against each name an armorial seal;calls;;;nan
l1322;wreckedNash Point, Bristol Channel.;calls;;;nan
l1323;Capt Thomas Woodcock;calls;;;nan
l1324;Borrum;calls;;;nan
l1325;Aden, abandoned there in;calls;;;nan
l1326;Okinawa;calls;26.33583;127.80139;china
l1327;cPulau Laurotf;calls;;;nan
l1328;did not return;calls;;;nan
l1329;L/MAR/B/340A Journal;calls;;;nan
l1330;1803, anon Calcutta;calls;;;nan
l1331;Culpec;calls;;;nan
l1332;Capt Richard Wouldhave;calls;;;nan
l1333;Hog River;calls;;;nan
l1334;Downs * inc list of French prisoners;calls;;;nan
l1335;damaged in storm, forced back for repairs;calls;;;nan
l1336;Jim St Helena;calls;;;nan
l1337;skirmish with French privateer La Venus, prisoners taken;calls;;;nan
l1338;parted company from the Union and not heard of again;calls;;;nan
l1339;lost on the bar of Tonkin;calls;;;nan
l1340;arrived in England after August;calls;;;nan
l1341;captured by Dutch nr Pulo Run;calls;;;nan
l1342;Dewas;calls;22.96585;76.05526;indian_ocean
l1344;Trengganu;calls;5.3302;103.1408;southeast_asia
l1345;lost in the Hugli river;calls;;;nan
l1346;Salsette;calls;;;nan
l1347;Woolwich * B ff.38v;calls;;;nan
l1348;& C ff.56;calls;;;nan
l1349;57, 59y;calls;;;nan
l1350;60v action agst Angria's fleet;calls;;;nan
l1351;captured by Dutch in Straits of Sunda 1619, recovered;calls;;;nan
l1352;in action agst Portuguese;calls;;;nan
l1353;Armagaon;calls;;;nan
l1354;off Spithead;calls;;;nan
l1355;Mary Surat;calls;;;nan
l1356;Scafareen Roads, Ireland;calls;;;nan
l1357;lost in hugli river;calls;;;nan
l1358;captured by the French in 9Â°S 91Â°E, recapturedBourbon;calls;;;nan
l1360;Java Head;calls;;;nan
l1361;lost nr St Thomas's Mount;calls;;;nan
l1362;Leith Roads;calls;;;nan
l1363;Downs * inc coastal profiles, sketch of encounter with a French ship;calls;;;nan
l1364;Jim Malacca;calls;;;nan
l1365;wrecked'Engano', Sumatra,;calls;;;nan
l1366;Banaca;calls;;;nan
l1367;Capt Francis Johnson;calls;;;nan
l1368;Capt Nathaniel Reynolds Downs;calls;;;nan
l1369;Point dc Galle;calls;;;nan
l1370;Indramayo;calls;;;nan
l1371;Woolwich LJFcb;calls;;;nan
l1372;arrived in England before;calls;;;nan
l1373;parted company from the Hector after three months, not heard of again;calls;;;nan
l1374;Macassar Batavia;calls;;;nan
l1375;Surat, accidentally fired;calls;;;nan
l1376;Capt John Bell Downs;calls;;;nan
l1378;at Bantam in each year;calls;;;nan
l1380;Trincomale;calls;;;nan
l1381;Balambangam;calls;;;nan
l1382;Downs * inc inventory of stores;calls;;;nan
l1383;Gt Yarmouth;calls;;;nan
l1384;Amsterdam Island;calls;;;nan
l1385;Bass Straits;calls;;;nan
l1387;Sajo Island;calls;;;nan
l1388;off Newfoundland Banks;calls;;;nan
l1389;Benkulen Whampoa;calls;;;nan
l1390;St Helena Downs;calls;;;nan
l1391;Portsmouth St Helena;calls;;;nan
l1392;Second Bar Cape;calls;;;nan
l1393;Capt John Skottowe Plymouth;calls;;;nan
l1394;St Helena Whampoa;calls;;;nan
l1395;went on shoreBeachy Head Feb, returned to Thames;calls;;;nan
l1396;Cheduba;calls;;;nan
l1397;Toun;calls;46.75118;7.62166;atlantic
l1398;Capsmgmoon Passage;calls;;;nan
l1399;left Bengal St Helena;calls;;;nan
l1400;participated in blockade of Red Sea until;calls;;;nan
l1401;Inn Bombay;calls;;;nan
l1402;Bombay Penang;calls;;;nan
l1403;Macassar Jul, wrecked '12 leagues out;calls;;;nan
l1404;wreckedPortquin, Cornwall,;calls;;;nan
l1405;Received Royal licence;calls;;;nan
l1406;left Cowes with Tiger's Whelp pinnace;calls;;;nan
l1407;Coast of Sumatra;calls;;;nan
l1408;left for Pattani Nov, attacked by Japanese pirates, pilot John Davis killed, voyage abandoned;calls;;;nan
l1409;Portsmouth See Purchas vol. bk.3 chap. s.6 for a summary journal, and The voyages and works of John Davis the Navigator, ed Albert Hastings Markham, Hakluyt Soc 1st ser no.59;calls;;;nan
l1410;Goa Bombay;calls;;;nan
l1411;Johnna;calls;;;nan
l1412;Second I;calls;;;nan
l1413;Sao Paulo;calls;-23.5475;-46.63611;atlantic
l1414;L/MAR/B/689B Journal;calls;;;nan
l1415;1713, William Wingfield, Chief Mate Downs;calls;;;nan
l1416;Bantam, ship abandoned after death of Middleton 1613, eventually burnt by Javanese in or;calls;;;nan
l1417;Capt Thomas Sanders Downs;calls;;;nan
l1418;wrecked in the Andaman Islands;calls;;;nan
l1419;wrecked on 'Trial Rocks' leaguesWestern Australia, survivors reached Bantam;calls;;;nan
l1420;Lough Swilly, Donegal;calls;;;nan
l1421;Launched Madras;calls;;;nan
l1422;Capt Gilbert Slater Downs;calls;;;nan
l1423;Loronho Bay;calls;;;nan
l1424;Straits of Sunda;calls;;;nan
l1425;course changed on news of French warshipsBantam;calls;;;nan
l1426;Rajapore;calls;;;nan
l1427;Whampoa . Second Bar;calls;;;nan
l1428;Downs * inc sketches of Trinidade;calls;;;nan
l1429;captured by the French in Balasore Roads;calls;;;nan
l1430;Downs * inc note 'state of the sails;calls;;;nan
l1431;Dunderogipore;calls;;;nan
l1432;Straits of Banca;calls;;;nan
l1433;Rio dc Janeiro;calls;;;nan
l1434;Pulo Auroe;calls;;;nan
l1435;Downs * inc illus;calls;;;nan
l1436;parted company in China Seas and not heard of again;calls;;;nan
l1437;left Portsmouth for India;calls;;;nan
l1438;[to Boston via Lisbon in an un;calls;;;nan
l1439;named vessel;calls;;;nan
l1440;Boston 1698, for Rhode Island, Newfoundland and London;calls;;;nan
l1441;at Tonkin;calls;;;nan
l1442;wrecked nr Macao en route to Japan;calls;;;nan
l1443;Zanzibar;calls;-6.16394;39.19793;indian_ocean
l1444;wrecked on rocks of Audierne, Britanny, for lack of crew, cargo looted;calls;;;nan
l1445;Indremayo;calls;;;nan
l1446;Coringa Roads;calls;;;nan
l1447;captured by French ships La Manche and La Venus 1809. officers landedVizagapalam;calls;;;nan
l1448;Hainan;calls;;;nan
l1449;lost on He de MerchantSark [wreck discovered 1976];calls;;;nan
l1450;Monsourcottah;calls;;;nan
l1451;wreckedMaio, Cape Verde Islands;calls;;;nan
l1452;wrecked on a rock in Straits of Caspar, crew escaped in ship's boats;calls;;;nan
l1453;River Shanon;calls;;;nan
l1454;Cmdr Lt Alexander Davidson RN Calcutta;calls;;;nan
l1455;Princess Island;calls;;;nan
l1456;capturedCeylon by two French ships;calls;;;nan
l1457;Calingapatam;calls;;;nan
l1458;wrecked in a storm in Margate Roads;calls;;;nan
l1459;off Pondicherry with Admiral Cornwallis's squadron;calls;;;nan
l1460;Penang : Malacca;calls;;;nan
l1461;Diamond Island;calls;;;nan
l1463;Sapi Bay, Celebes;calls;;;nan
l1464;at St Helena;calls;;;nan
l1465;at Benkulen;calls;;;nan
l1466;captured by the French frigate La Piedmontaise in 26Â°13'S 56Â°45,W;calls;;;nan
l1467;Toonkoo Bay;calls;;;nan
l1468;Ventry Harbour, Ireland;calls;;;nan
l1469;Downs See Barlow's Journal, ed Basil Lubbock  pp.502;calls;;;nan
l1470;Chittagong river;calls;;;nan
l1471;Bimlipatam;calls;;;nan
l1472;He de Rhe;calls;;;nan
l1473;lost leaguesSurat;calls;;;nan
l1474;laid upBatavia;calls;;;nan
l1475;Chow;calls;;;nan
l1476;long;calls;18.07422;99.83073;indian_ocean
l1477;LSaugor;calls;;;nan
l1478;Onraet;calls;;;nan
l1479;lost to the east of Algoa Bay in 1814, no survivors;calls;;;nan
l1480;driven on shore nr Fort St David by 'a violent storm of wind;calls;;;nan
l1481;Ingeli Mar, lost on Caspar Sands same day;calls;;;nan
l1482;ship leaky;calls;;;nan
l1483;captured by French La Venus;calls;;;nan
l1484;retaken by HMS Magicienne;calls;;;nan
l1485;captured by French La Bellona;calls;;;nan
l1486;retaken, supplied with a new crewBourbon Nov,Bourbon;calls;;;nan
l1487;Bellial, Portugal;calls;;;nan
l1488;lostMadagascar;calls;;;nan
l1489;captured by French frigate La Prenuse in Tellicherry Roads;calls;;;nan
l1490;Gressee;calls;;;nan
l1491;lost in River Shannon;calls;;;nan
l1492;Onores;calls;;;nan
l1493;cSaloomah;calls;;;nan
l1494;Capt Thomas Lucas;calls;;;nan
l1495;Sold to the Sultan of Bantam;calls;;;nan
l1496;wreckedSocotra;calls;;;nan
l1497;South;ships_built_at;;;nan
l1498;Pauli;ships_built_at;;;nan
l1499;Itchenor;ships_built_at;;;nan
l1500;Whitby;ships_built_at;54.48774;-0.61498;british_isles
l1501;the;ships_built_at;-5.08917;-42.80194;atlantic
l1502;Culpe'];ships_built_at;;;nan
l1503;Ipswich;ships_built_at;52.05917;1.15545;british_isles
l1504;Harwich;ships_built_at;51.94194;1.28437;british_isles
l1505;Nov 1805 ten crew injured in skirmish with French ship;voyage_destinations;;;nan
l1506;Philippines;voyage_destinations;;;nan
l1507;From Bengal;voyage_destinations;;;nan
l1508;Cambodia;voyage_destinations;;;nan
l1509;Japan;voyage_destinations;;;nan
l1510;eb 1650 -;voyage_destinations;;;nan
l1511;Banta;voyage_destinations;60.29414;25.04099;indian_ocean
l1512;1806/7 St Helena;voyage_destinations;;;nan
l1513;Apr 1821-30 Sep 1822;voyage_destinations;;;nan
l1514;1802-18 Dec 1803;voyage_destinations;;;nan
l1515;Borne;voyage_destinations;51.94881;11.55865;atlantic
l1516;To remain in India;voyage_destinations;;;nan
l1517;Jan 1681 -28 Aug 1682;voyage_destinations;;;nan
l1518;East Indies;voyage_destinations;;;nan
l1519;1803/4 China;voyage_destinations;;;nan
l1520;the Maldives;voyage_destinations;;;nan
l1521;1831/2 Madras;voyage_destinations;;;nan
l1522;1829/30 China;voyage_destinations;;;nan
l1523;t St David;voyage_destinations;;;nan
l1524;China 1817;voyage_destinations;;;nan
l1525;Oct 1801 recaptured Friendship snow of Vizagapatam from French;voyage_destinations;;;nan
l1526;5 1792/3 Bombay;voyage_destinations;;;nan
l1527;Dec 1700-;voyage_destinations;;;nan
l1528;2 1736/7 Madras;voyage_destinations;;;nan
l1529;Bombay (to remain);voyage_destinations;;;nan
l1530;1722 -;voyage_destinations;;;nan
l1531;Jan 1681-21 Nov 1682;voyage_destinations;;;nan
l1532;New Company voyage;voyage_destinations;;;nan
l1533;Guinea (to remain);voyage_destinations;;;nan
l1534;Mar Cape -17 Apr St Helena -13 Jul Downs 1;voyage_destinations;;;nan
l1535;1832/3 St Helena;voyage_destinations;;;nan
l1536;St Helena -17 Jul Thames;voyage_destinations;;;nan
l1537;1804/5 Madras;voyage_destinations;;;nan
l1538;West Indies;voyage_destinations;;;nan
l1539;8 1828/9 Bombay;voyage_destinations;;;nan
l1540;Jan 1677 -;voyage_destinations;32.29876;-90.18481;atlantic
l1541;Dec 1727 -11 Jun 1729;voyage_destinations;;;nan
l1542;and Bengal;voyage_destinations;;;nan
l1543;Apr Blackwall;voyage_destinations;;;nan
l1544;Nov 1717-11 Jun 1719;voyage_destinations;;;nan
l1545;6 1818/9 Madras;voyage_destinations;;;nan
l1546;(^hina;voyage_destinations;;;nan
l1547;1832/3 Madras;voyage_destinations;;;nan
l1548;815/6 Bombay;voyage_destinations;;;nan
l1549;' Bengal;voyage_destinations;;;nan
l1550;Mar 1812 St Helena -15 May Long Reach;voyage_destinations;;;nan
l1551;1801/2 China;voyage_destinations;;;nan
l1552;1831/2 Bengal;voyage_destinations;;;nan
l1553;Apr 1699 -;voyage_destinations;;;nan
l1554;Nova Scotia;voyage_destinations;;;nan
l1555;Madras L/MAM/B/698G(3) Imprest Book;voyage_destinations;;;nan
l1556;Benkulen (to remain);voyage_destinations;;;nan
l1557;North-West Passage;voyage_destinations;;;nan
l1558;India;voyage_destinations;;;nan
l1559;Sep 1681 -29 Aug 1683;voyage_destinations;;;nan
l1560;South Pacific;voyage_destinations;;;nan
l1561;9 Madras;voyage_destinations;;;nan
l1562;and China;voyage_destinations;;;nan
l1563;Surat Master Thomas Tayl;voyage_destinations;;;nan
l1564;1831/2 China;voyage_destinations;;;nan
l1565;Journal 13 May 1794-14 Sep 1795;voyage_destinations;;;nan
l1566;Bengal 1801 .;voyage_destinations;;;nan
l1567;West Africa;voyage_destinations;;;nan
l1568;1647;voyage_destinations;;;nan
l1569;1648;voyage_destinations;;;nan
l1570;to Bandar Abbas 1649 (twice);voyage_destinations;;;nan
l1571;80 Sia;voyage_destinations;16.57452;107.51066;southeast_asia
l1572;India 1784 L/MAM/B/540C(1) Ledge;voyage_destinations;;;nan
l1573;1785/6 Madras;voyage_destinations;;;nan
l1574;eb 1713 -12 Mar 1715;voyage_destinations;;;nan
l1575;1830/1 St Helena;voyage_destinations;;;nan
l1576;'For India';voyage_destinations;;;nan
l1577;Bantam Master Gilbert Grimes ?;voyage_destinations;;;nan
l1578;Pay Book;voyage_destinations;;;nan
l1579;China L/MAM/B/390J Journal 8 Dec 1786-28 Aug 1788;voyage_destinations;;;nan
l1580;Oct Downs;voyage_destinations;;;nan
l1581;Australia;voyage_destinations;;;nan
l1582;1832/3 Bombay;voyage_destinations;;;nan
l1583;Jun Downs;voyage_destinations;;;nan
l1584;Benga;voyage_destinations;;;nan
l1585;China L/MAM/B/131B Deck Log 19 Dec 1831-15 Jun 1832;voyage_destinations;;;nan
l1586;China L/MAM/B/438H Journal 14 Jan 1755-13 Sep 1757 L/MAM/B/438BB(1) Ledger L/MAM/B/438BB(2) Pay Book;voyage_destinations;;;nan
l1587;1700 Gibralta;voyage_destinations;;;nan
l1588;'India';voyage_destinations;;;nan
l1589;Benkulcn;voyage_destinations;;;nan
l1590;Mar 1678 -;voyage_destinations;;;nan
l1591;to remain as country ship;voyage_destinations;;;nan
l1592;1685 -28 Aug 1687;voyage_destinations;;;nan
l1593;Jan 1701 -17 Sep 1702;voyage_destinations;;;nan
l1594;Macassa;voyage_destinations;;;nan
l1595;South Seas;voyage_destinations;;;nan
l1596;Jan 1825-29 Jun Calcutta;voyage_destinations;;;nan
l1597;Holland;voyage_destinations;41.62172;-83.7116;atlantic
l1598;1809;voyage_destinations;;;nan
l1599;Journal on Jonas;voyage_destinations;;;nan
l1600;Lion 17 Mar 1621-22 Jul 1623;voyage_destinations;;;nan
l1601;Richard Swanley Master John Weddell;voyage_destinations;;;nan
l1602;crew;voyage_destinations;;;nan
l1603;Madagasgar;voyage_destinations;;;nan
l1604;the South Seas;voyage_destinations;;;nan
l1605;3 1745/6 Bombay;voyage_destinations;;;nan
l1606;1821/2 St Helena;voyage_destinations;;;nan
l1607;New 1699-6 Mar 1702;voyage_destinations;;;nan
l1608;Macasse;voyage_destinations;;;nan
l1609;1831/2 St Helena;voyage_destinations;;;nan
l1610;Oct Whampoa -19 Jan 1831 Second Bar -11 Apr St Helena -10 Jun Downs;voyage_destinations;;;nan
l1611;Surat (New Company);voyage_destinations;;;nan
l1612;Surat (Licensed ship);voyage_destinations;;;nan
l1613;1698 -;voyage_destinations;;;nan
l1614;eb 1715 -27 Jul 1716;voyage_destinations;;;nan
l1615;Sia;voyage_destinations;;;nan
l1616;1832/3 China;voyage_destinations;;;nan
l1617;739/40 Mokha;voyage_destinations;;;nan
l1618;3 1777/8 Bombay;voyage_destinations;;;nan
l1619;India 1782;voyage_destinations;;;nan
l1620;eb 1682 -29 Aug 1683;voyage_destinations;;;nan
l1621;and Amoy (New Company L/MAM/A/CLVn Journal 2 Dec 1700-16 Sep 1702;voyage_destinations;;;nan
l1622;from India 10 Apr 1783;voyage_destinations;;;nan
l1623;Nov 1682- 11 May 1684;voyage_destinations;;;nan
l1624;Benkulan;voyage_destinations;;;nan
l1625;Sep 1681 -29 Sep 1683;voyage_destinations;;;nan
l1626;May 1792 'stood to sea from St Helena' -19-20 May skirmish with the French fleet;voyage_destinations;;;nan
l1627;Sep Downs;voyage_destinations;;;nan
l1628;Borneo (New Company);voyage_destinations;;;nan
l1629;in England Jul 1810;voyage_destinations;;;nan
l1630;South Wales;voyage_destinations;;;nan
l1631;B;voyage_destinations;;;nan
l1632;British Columbia;voyage_destinations;;;nan
l1633;the Moluccas;voyage_destinations;;;nan
l1634;1825/6 China;voyage_destinations;;;nan
l1635;1719 -18 Mar 1729;voyage_destinations;;;nan
l1636;Bengal (to remain);voyage_destinations;;;nan
l1637;1701 -2 Apr 1703;voyage_destinations;;;nan
l1638;China (Licensed ship);voyage_destinations;;;nan
l1639;Bengal (New Company);voyage_destinations;;;nan
l1640;inc sketches of the ship;voyage_destinations;;;nan
l1641;the season's convoy;voyage_destinations;;;nan
l1642;fish;voyage_destinations;;;nan
l1643;birds;voyage_destinations;;;nan
l1644;Batavia Roads;voyage_destinations;;;nan
l1645;Aug Downs;voyage_destinations;;;nan
l1646;Nov 1683 -21 Mar 1685;voyage_destinations;;;nan
l1647;Bombay (to remain) Downs 4 May 1686-;voyage_destinations;;;nan
l1648;St Helena (to remain);voyage_destinations;;;nan
l1649;eb 1682-8 Aug 1683;voyage_destinations;;;nan
l1650;May 1681 -23 Sep 1682;voyage_destinations;;;nan
l1651;1614;voyage_destinations;;;nan
l1652;1615;voyage_destinations;;;nan
l1653;Surat (to remain);voyage_destinations;;;nan
l1654;1 From Calcutta;voyage_destinations;;;nan
l1655;Dec 1684 -28 Jul 1687;voyage_destinations;;;nan
l1656;To West Indies;voyage_destinations;;;nan
l1657;Madras (to remain);voyage_destinations;;;nan
l1658;8/9 Bengal;voyage_destinations;;;nan
l1659;LMARS 15A-B Journal 11 May 1795-24 Feb 1797;voyage_destinations;;;nan
l1660;South Atlantic;voyage_destinations;;;nan
l1661;Nov 1712-28 Jul 1717;voyage_destinations;;;nan
l1662;Jan 1719-25 Aug 1720;voyage_destinations;;;nan
l1663;Tasmania;voyage_destinations;;;nan
l1664;Jan 1716 -19 Aug 1717;voyage_destinations;;;nan
l1665;Madagasca;voyage_destinations;;;nan
l1666;India 1757;voyage_destinations;;;nan
l1667;Balambanga;voyage_destinations;;;nan
l1668;1796;voyage_destinations;;;nan
l1669;1798 St Helena -17 Mar Downs;voyage_destinations;;;nan
l1670;China (New Company);voyage_destinations;;;nan
l1671;Boston;voyage_destinations;52.97633;-0.02664;british_isles
l1672;Batavia (to remain);voyage_destinations;;;nan
l1673;1830/1 China;voyage_destinations;;;nan
l1674;ap St Mary's;persons_birth;;;nan
l1675;Mezignac nr Bordeaux;persons_birth;;;nan
l1677;Surgeon;persons_birth;;;nan
l1678;Dalgetty;persons_birth;;;nan
l1679;Bowbrickhill;persons_birth;;;nan
l1680;Craigs;persons_birth;;;nan
l1681;purser REGENT 1821/2;persons_birth;;;nan
l1682;commumeed covert Ships Honduras and African trade Aye Tighmente IRAN IENS SY ORO approved Peb Ivehyagad 32);persons_birth;;;nan
l1684;1st mate SCALEBY CASTLE 1832/3 m St Luke's;persons_birth;;;nan
l1685;Edinburgh;persons_birth;55.95206;-3.19648;british_isles
l1686;ap Ealing;persons_birth;;;nan
l1687;Maidenhall;persons_birth;;;nan
l1689;apptd Surgeon at St Helena;persons_birth;;;nan
l1690;Salemstead;persons_birth;;;nan
l1691;Greenock;persons_birth;55.94838;-4.76121;british_isles
l1692;1738;persons_birth;;;nan
l1693;run;persons_birth;;;nan
l1694;Bombay Asst Surgeon;persons_birth;;;nan
l1695;oth ielsd ANA (1804/5! Ah AOLORE RN TET 1805/6;persons_birth;;;nan
l1696;South Petherton;persons_birth;50.94829;-2.80708;british_isles
l1697;Bridgwater;persons_birth;51.12837;-3.00356;british_isles
l1698;Hurstmonceux;persons_birth;;;nan
l1699;Melton Constable;persons_birth;;;nan
l1700;3rd mate RAVENSWORTH 1785/6 (approved 1786;persons_birth;;;nan
l1701;Glasgow;persons_birth;55.86515;-4.25763;british_isles
l1702;3rd mate DUKE OF GRAFTON 1775/6;persons_birth;;;nan
l1703;Stogursey;persons_birth;;;nan
l1704;France;persons_birth;;;nan
l1705;Saxthorpe;persons_birth;;;nan
l1706;1765/6 b England;persons_birth;;;nan
l1707;4th mate AIRLEY CASTLE 1787/8 (approved 1788;persons_birth;;;nan
l1708;Hendon;persons_birth;51.6;-0.21667;british_isles
l1709;Mirzapur;persons_birth;24.10287;90.09841;bengal_presidency
l1710;d;persons_birth;;;nan
l1711;Denaticon;persons_birth;;;nan
l1712;ap Waltham Lincs;persons_birth;;;nan
l1713;Sestland;persons_birth;;;nan
l1714;Stale APMERAIL GARDNER 180g/9 m St Mary's;persons_birth;;;nan
l1716;Member Bengal Medical Board & Insp-Gen of Hospitals;persons_birth;;;nan
l1717;3rd mate ROYAL BISHOP 1785/6 (approved 1726;persons_birth;;;nan
l1718;Milbrooke;persons_birth;;;nan
l1719;ap Tottenham;persons_birth;;;nan
l1720;lost im senects;persons_birth;;;nan
l1721;employed attending the wreck until;persons_birth;;;nan
l1722;Knockdrin Castle;persons_birth;;;nan
l1723;Aldham;persons_birth;;;nan
l1724;resigned active service 2nd Mysore War 1781-82;persons_birth;;;nan
l1725;4th mate PHOENIX (3) 1799/1800 (approved 1800;persons_birth;;;nan
l1726;ap St Augustine's;persons_birth;;;nan
l1727;Rottingdean;persons_birth;50.80984;-0.05939;british_isles
l1728;approved as 1st mats HIECTOR 176;persons_birth;;;nan
l1729;St Marylebone;persons_birth;;;nan
l1730;Kettle;persons_birth;;;nan
l1731;Sanguhar;persons_birth;;;nan
l1732;Redgrave;persons_birth;;;nan
l1733;Norwich;persons_birth;52.62783;1.29834;british_isles
l1734;Harley St;persons_birth;;;nan
l1735;Banff;persons_birth;57.66477;-2.52964;british_isles
l1736;Tenby;persons_birth;51.67279;-4.70447;british_isles
l1737;& Lee;persons_birth;51.45556;0.00515;british_isles
l1738;d Calcutta m Hammersmith;persons_birth;;;nan
l1739;Lambeth;persons_birth;51.49635;-0.11152;british_isles
l1740;Stratford-on-Avon;persons_birth;;;nan
l1741;seoma Gy) & 2nd mate (ly) James & Rebeses to Antique;persons_birth;;;nan
l1742;Clement's Lane;persons_birth;;;nan
l1743;South Leith;persons_birth;;;nan
l1744;resigned;persons_birth;;;nan
l1745;St Alphage's pa;persons_birth;;;nan
l1746;d Calcutta;persons_birth;;;nan
l1747;Hertford;persons_birth;51.79588;-0.07854;british_isles
l1748;Kirkaldy;persons_birth;;;nan
l1749;3nd matte MUAIRCEMUOINESS OF ELY 1821/2;persons_birth;;;nan
l1750;Milburn St Andrews;persons_birth;;;nan
l1751;Old Melton;persons_birth;;;nan
l1752;ap Whitby;persons_birth;;;nan
l1753;3rd mate PONSBORNE 1779/80;persons_birth;;;nan
l1754;d3;persons_birth;;;nan
l1755;Kinnettles;persons_birth;;;nan
l1756;St Andrew's pa;persons_birth;;;nan
l1757;St Peter Port;persons_birth;49.45981;-2.53527;british_isles
l1758;4th mate THISTLEWORTH 1718/9 (to 1720);persons_birth;;;nan
l1759;England senmem LORD CANIN (1) 1771/2;persons_birth;;;nan
l1761;d7;persons_birth;;;nan
l1762;Capt EARL OF BALCARRAS 1827/8;persons_birth;;;nan
l1763;Rhynie;persons_birth;;;nan
l1764;Kilmarnock;persons_birth;55.61171;-4.49581;british_isles
l1765;im Rotterdam;persons_birth;;;nan
l1766;Newsom;persons_birth;;;nan
l1767;resigned secvod es sumpeon to ir Eyre Covte the Carnatic;persons_birth;;;nan
l1768;Perthshire;persons_birth;;;nan
l1769;Holbrook;persons_birth;51.9834;1.15854;british_isles
l1770;(approved 1786;persons_birth;;;nan
l1771;St Martin-in-the-Fields pa;persons_birth;;;nan
l1772;4th mate CARMARTHEN 1805/6 ed as 2nd mate DUBLIN 1787;persons_birth;;;nan
l1773;Capt THOMAS GRENVILLE 1832/3 m Bridgewater;persons_birth;;;nan
l1774;3rd mate b Ireland;persons_birth;;;nan
l1775;Stockton;persons_birth;51.14528;-2.03194;british_isles
l1776;Fort William;persons_birth;56.81648;-5.11208;british_isles
l1777;Harrow;persons_birth;51.57835;-0.33208;british_isles
l1778;Englancl midshipman DAVID SCOTT (2) 1807/8;persons_birth;;;nan
l1779;d St Helena;persons_birth;;;nan
l1780;apptd Bengal Asst Surgeon (in absentia);persons_birth;;;nan
l1781;Newbyth;persons_birth;;;nan
l1782;Eccles;persons_birth;53.48333;-2.33333;british_isles
l1783;Walcot;persons_birth;;;nan
l1784;Leadhills;persons_birth;;;nan
l1785;retired active service Nepal War 1815-16;persons_birth;;;nan
l1786;Crieff;persons_birth;56.37268;-3.83891;british_isles
l1787;Prestwich;persons_birth;53.53333;-2.28333;british_isles
l1788;ind mate COMDSTRIBART 1811/2 m St Stephen's Coleman Street;persons_birth;;;nan
l1789;Derby;persons_birth;52.92277;-1.47663;british_isles
l1790;Westbury;persons_birth;51.26;-2.1875;british_isles
l1791;Kirby Stephen;persons_birth;;;nan
l1792;im Wales;persons_birth;;;nan
l1793;ap Pocklington;persons_birth;;;nan
l1794;Blandford;persons_birth;;;nan
l1795;Stowmarket;persons_birth;52.18893;0.99774;british_isles
l1796;2nd mate YORK (4) 1785/6 (approved 1786;persons_birth;;;nan
l1797;St Saviour's pa;persons_birth;;;nan
l1798;Llandilo;persons_birth;-33.71286;150.7465;indian_ocean
l1799;4th mate WARREN HASTINGS (1) 1784/5 (approved 1785;persons_birth;;;nan
l1800;ap St Margaret Moses;persons_birth;;;nan
l1801;Shadbrook;persons_birth;;;nan
l1802;Isle of Skye;persons_birth;;;nan
l1803;Cupar Angus;persons_birth;;;nan
l1804;Hickling;persons_birth;;;nan
l1805;Alford;persons_birth;53.25943;0.17625;british_isles
l1806;it England;persons_birth;;;nan
l1807;Aor Ipswich;persons_birth;;;nan
l1808;Hereford;persons_birth;52.05684;-2.71482;british_isles
l1809;Brechin;persons_birth;56.72993;-2.65729;british_isles
l1811;St Cuthbert's pa;persons_birth;;;nan
l1812;seaman EAGLE (6) packet 1779-22 when she was captured;persons_birth;;;nan
l1813;Croydon;persons_birth;51.38333;-0.1;british_isles
l1814;p23 Englamd;persons_birth;;;nan
l1815;1st mate ORWELL 1829/30 & 1831/2 m St Helena;persons_birth;;;nan
l1816;‘b;persons_birth;;;nan
l1817;Stilton;persons_birth;52.48788;-0.28894;british_isles
l1819;volunteer 1st Class;persons_birth;;;nan
l1820;Forkc;persons_birth;;;nan
l1821;Capt & Principal Managing Owner SEVERN (2) 1832/3 m St Luke's;persons_birth;;;nan
l1822;accidentally killed;persons_birth;;;nan
l1823;Nantwich;persons_birth;53.06878;-2.52051;british_isles
l1824;ur St Pancras;persons_birth;;;nan
l1825;Campsie;persons_birth;-33.9125;151.10279;indian_ocean
l1826;im Scotland;persons_birth;;;nan
l1827;Claines;persons_birth;;;nan
l1828;St Botolph's pa;persons_birth;;;nan
l1829;purser LASCELLES 1791/2;persons_birth;;;nan
l1830;Drimnasallie;persons_birth;;;nan
l1831;Monmouth;persons_birth;51.81265;-2.71363;british_isles
l1832;Moy Lamiasry;persons_birth;;;nan
l1833;Keilmoe;persons_birth;;;nan
l1834;cl767;persons_birth;;;nan
l1836;St Peter's pa;persons_birth;;;nan
l1837;dn Seatlant;persons_birth;;;nan
l1838;Ord untae HILLSBOROUGH (2) 1785/6 (gpproved Peb 1796;persons_birth;;;nan
l1839;6th mate KING WILLIAM (3) 1733/4 Carter;persons_birth;;;nan
l1840;Barton Mere;persons_birth;;;nan
l1841;Dundee;persons_birth;56.46913;-2.97489;british_isles
l1842;Fort George;persons_birth;46.18788;-123.83125;atlantic
l1843;6th mate b 1? Appr Guisborough;persons_birth;;;nan
l1844;England seaman PLASSEY West Indies ly 6m;persons_birth;;;nan
l1845;Seb nate MOT INGIAI (@) Wresy>;persons_birth;;;nan
l1846;also Principal Managing Owner BROXBORNEBURY 1824/5-1831/2 m St Marylebone;persons_birth;;;nan
l1847;pa St Olave Hart St;persons_birth;;;nan
l1848;1st mate AENISTON (@ppaoved 1806;persons_birth;;;nan
l1849;l766 Lilley nr Hitchin;persons_birth;;;nan
l1850;Capt THOMAS COUTTS 1821/2;persons_birth;;;nan
l1851;Dumfries;persons_birth;55.06959;-3.61139;british_isles
l1852;drowned;persons_birth;;;nan
l1853;1st mate KELLIE CASTLE 1832/3 m Walton-on-Thames;persons_birth;;;nan
l1854;Hill House;persons_birth;;;nan
l1855;Heston;persons_birth;51.48363;-0.37577;british_isles
l1856;Gib mats WINDSOUS (2) 1822/3;persons_birth;;;nan
l1857;Ecinbargh;persons_birth;;;nan
l1858;purser LADY MELVILLE 1821/2;persons_birth;;;nan
l1859;Samgect S;persons_birth;;;nan
l1860;resigned 1794;persons_birth;;;nan
l1861;ap Woodford;persons_birth;;;nan
l1862;Benge;persons_birth;;;nan
l1863;d Bandar Abbas;persons_birth;;;nan
l1864;pa St George's Hanover Sq;persons_birth;;;nan
l1865;Ang & bep St Mary's;persons_birth;;;nan
l1866;4th mate FORDWICH 1728/9 (from 1730);persons_birth;;;nan
l1867;North Berwick;persons_birth;56.05825;-2.7229;british_isles
l1868;2nd mate Creighton;persons_birth;;;nan
l1869;sick leave home 1806;persons_birth;;;nan
l1870;Dalkeith;persons_birth;55.89317;-3.06806;british_isles
l1871;5th mate WARREN HASTINGS (1) 1792/3;persons_birth;;;nan
l1872;Aberdeen;persons_birth;57.14369;-2.09814;british_isles
l1873;Turriff;persons_birth;57.5384;-2.45932;british_isles
l1875;3rd mate WINCHELSEA (3) 1830/1 m3 St James;persons_birth;;;nan
l1876;4th mate LASCELLES 1784/5 (approved 1785;persons_birth;;;nan
l1877;Norfolk;persons_birth;44.80089;-74.99103;atlantic
l1878;purser WILLIAM PITT (1) 1789/90;persons_birth;;;nan
l1879;Head Surgeon at Calcutta;persons_birth;;;nan
l1880;surgeon CASTLE HUNTLEY 1819/20;persons_birth;;;nan
l1881;Campbeltown;persons_birth;55.42583;-5.60764;british_isles
l1882;North Knabdale;persons_birth;;;nan
l1883;Kilbride Castle;persons_birth;;;nan
l1884;America;persons_birth;51.43667;5.97917;atlantic
l1885;Brooke;persons_birth;52.54175;1.37076;british_isles
l1886;Newington;persons_birth;51.35217;0.66768;british_isles
l1887;im Bogland;persons_birth;;;nan
l1888;ap Lindfield;persons_birth;;;nan
l1889;Walthamstow;persons_birth;51.59067;-0.02077;british_isles
l1890;Hartland;persons_birth;43.10501;-88.34204;atlantic
l1891;Ih eb & bop Croydon;persons_birth;;;nan
l1892;1st mate HARTWELL 1786/7;persons_birth;;;nan
l1893;Capt SIR WILLIAM PULTENEY 1804/5;persons_birth;;;nan
l1894;retired;persons_birth;;;nan
l1895;Beb Dumdayell;persons_birth;;;nan
l1896;Wexford;persons_birth;52.33417;-6.4575;british_isles
l1897;Monthrath;persons_birth;;;nan
l1898;Binnington;persons_birth;;;nan
l1899;Berkeley Sq;persons_birth;;;nan
l1900;Cockpen;persons_birth;;;nan
l1901;Perth;persons_birth;56.39522;-3.43139;british_isles
l1902;fb hn Englands micishigraam im Royall Navy Sy Soy 5th mate ROWAL SOP 1755/5 (approved 1786;persons_birth;;;nan
l1903;MARQUIS CAMDEN 1823/4;persons_birth;;;nan
l1904;Cove;persons_birth;57.1;-2.08333;british_isles
l1905;Scotlane;persons_birth;;;nan
l1906;Millan;persons_birth;44.09973;3.07848;atlantic
l1907;Hadley;persons_birth;52.7;-2.48333;british_isles
l1908;Asst Surgeon;persons_birth;;;nan
l1909;d m Cameron;persons_birth;;;nan
l1910;Newington Green;persons_birth;;;nan
l1911;Trevethin;persons_birth;;;nan
l1913;Bleach Field;persons_birth;;;nan
l1914;1st mate SPEAKER 1771/2 (approved 1772;persons_birth;;;nan
l1915;Ipswiel;persons_birth;;;nan
l1916;Kessingland;persons_birth;52.41987;1.70878;british_isles
l1917;Gib ome TCE (2) 1797/8;persons_birth;;;nan
l1918;Member of Wiedicel Board;persons_birth;;;nan
l1919;tb England;persons_birth;;;nan
l1920;Shetland Isles;persons_birth;;;nan
l1921;3rd mate ANTELOPE (4) 1781/2 (approved 1782;persons_birth;;;nan
l1922;Illan Court;persons_birth;;;nan
l1923;3rd mate ASIA (3) 1780/1;persons_birth;;;nan
l1924;Bovey Tracey;persons_birth;50.59259;-3.67543;british_isles
l1925;Newton Bushell;persons_birth;;;nan
l1926;Tiverton;persons_birth;53.13333;-2.66667;british_isles
l1927;Bath;persons_birth;51.3751;-2.36172;british_isles
l1928;ed 1782;persons_birth;;;nan
l1929;3rd mate ROCKINGHAM (1) 1785/6 (approved 1786;persons_birth;;;nan
l1930;1st mate Heater ‘0 Jamaica (approved 1786;persons_birth;;;nan
l1931;5th mate GENERAL Totlb 1824/5;persons_birth;;;nan
l1932;Lambourn;persons_birth;51.50805;-1.53105;british_isles
l1933;Ayr;persons_birth;55.46273;-4.63393;british_isles
l1934;Whitehaven;persons_birth;54.54897;-3.58412;british_isles
l1935;Ilfracombe;persons_birth;51.2093;-4.11344;british_isles
l1936;Barnstaple;persons_birth;51.08022;-4.05808;british_isles
l1937;Hambleton;persons_birth;53.76667;-1.16667;british_isles
l1938;m7 Walcot;persons_birth;;;nan
l1941;Alloa;persons_birth;56.11586;-3.78997;british_isles
l1942;Toulouse;persons_birth;43.60426;1.44367;atlantic
l1943;& St George's Bloomsbury;persons_birth;;;nan
l1944;St Giles;persons_birth;;;nan
l1945;1748;persons_birth;;;nan
l1946;dat sea;persons_birth;;;nan
l1949;Redbridge;persons_birth;;;nan
l1950;Aylesbury;persons_birth;51.81665;-0.81458;british_isles
l1951;Sid tnate INDIAN TRADER 1794/5;persons_birth;;;nan
l1952;Virginia;persons_birth;53.83389;-7.07556;british_isles
l1953;5th mate KELLIE CASTLE 1828/9;persons_birth;;;nan
l1954;4th mate “RACRIL OL SAND WIGHT F789 (approved 1779;persons_birth;;;nan
l1955;Metz;persons_birth;49.11911;6.17269;atlantic
l1956;St John's pa;persons_birth;;;nan
l1957;Barnsley;persons_birth;53.55;-1.48333;british_isles
l1958;Bengal Asst Surgeon;persons_birth;;;nan
l1959;Tneland;persons_birth;;;nan
l1960;Haddington;persons_birth;55.95612;-2.78332;british_isles
l1961;Aberdeenshire;persons_birth;;;nan
l1962;Brettenham;persons_birth;;;nan
l1963;Gerloch;persons_birth;;;nan
l1964;Sicily;persons_birth;;;nan
l1965;approved as 3rd mate ROCKINGHAM (1) 1786;persons_birth;;;nan
l1966;m Llandygwydd;persons_birth;;;nan
l1967;Wick;persons_birth;58.43906;-3.09424;british_isles
l1968;im Rnglamd;persons_birth;;;nan
l1969;d Bombay;persons_birth;;;nan
l1970;Chatham;persons_birth;51.37891;0.52786;british_isles
l1971;lost overboard m St Dunstan's;persons_birth;;;nan
l1972;Wormley;persons_birth;51.13622;-0.64673;british_isles
l1973;3rd mate BESSBOROUGH 1785/6 (approved 1786;persons_birth;;;nan
l1974;1st mate DUCHESS OF ATHOL 1831/2 m Cork Cathedral;persons_birth;;;nan
l1975;1740;persons_birth;;;nan
l1976;4th mate STAFFORD (2) 1777/8 (approved eb 1778;persons_birth;;;nan
l1977;Neath;persons_birth;51.66317;-3.80443;british_isles
l1978;Ryton-upon-Dunsmore;persons_birth;;;nan
l1979;Welshpool;persons_birth;52.65973;-3.1471;british_isles
l1980;St Mary's pa;persons_birth;;;nan
l1981;1st mate LORD WALSINGHAM 1786/7 (approved 1787;persons_birth;;;nan
l1982;Enniskillen;persons_birth;54.34615;-7.64133;british_isles
l1983;Ross;persons_birth;39.31228;-84.6505;atlantic
l1984;Selborne;persons_birth;;;nan
l1985;Capt ST HELENA b St Helen's pa;persons_birth;;;nan
l1986;surgeon HUDDART 1814/5 b England;persons_birth;;;nan
l1987;Kirk Newton;persons_birth;;;nan
l1988;ap Whorlton;persons_birth;;;nan
l1989;2nd mate MIMVIDLESEX @) 1785/6 (approved autho trade Gun;persons_birth;;;nan
l1990;at sea;persons_birth;;;nan
l1991;Cornhill;persons_birth;;;nan
l1992;Sunderland;persons_birth;54.90465;-1.38222;british_isles
l1993;lost overboard;persons_birth;;;nan
l1994;1727;persons_birth;;;nan
l1995;wounded action agst French 1759;persons_birth;;;nan
l1996;Prescot St;persons_birth;;;nan
l1997;“Kb mate LAP WING (1) Lays;persons_birth;;;nan
l1998;1774. Windsor;persons_birth;51.48333;-0.6;british_isles
l1999;Bishopsgate;persons_birth;;;nan
l2000;St Luke's pa;persons_birth;;;nan
l2001;Cumberland;persons_birth;41.96677;-71.43284;atlantic
l2002;St Stephen's Walbrook;persons_birth;;;nan
l2003;& tep St Macy';persons_birth;;;nan
l2004;appointed Asst Bombay Hospital;persons_birth;;;nan
l2005;Little Clacton;persons_birth;51.82557;1.14215;british_isles
l2006;Logie;persons_birth;;;nan
l2007;midshipman MARQUIS OF ROCKINGHAM (2) 1775/6;persons_birth;;;nan
l2008;Sweden;persons_birth;;;nan
l2009;Dores;persons_birth;;;nan
l2010;Stepney;persons_birth;51.5175;-0.04292;british_isles
l2011;seaman & 1st mate Royal Clubb and Adriatic Greenland and Newfoundland trade 7y 9m;persons_birth;;;nan
l2012;Love Lane;persons_birth;;;nan
l2013;Canterbury;persons_birth;51.27904;1.07992;british_isles
l2014;im Smgtends ome voyswe to indie;persons_birth;;;nan
l2015;Barking;persons_birth;51.53333;0.08333;british_isles
l2016;run 4th mate LADY RAFFLES 1825/6;persons_birth;;;nan
l2017;pa St Chad's;persons_birth;;;nan
l2018;Gerrard or Gerard;persons_birth;;;nan
l2019;midshipman (2y 6m);persons_birth;;;nan
l2020;d b pa Christ Church;persons_birth;;;nan
l2021;Montrose;persons_birth;56.71683;-2.46695;british_isles
l2022;4h mate NEPTUNE (4) 1785/6 (approved 1786;persons_birth;;;nan
l2023;Kirk Oswald;persons_birth;;;nan
l2024;d Macao m St Pancras;persons_birth;;;nan
l2026;5th mate GATTON 1777/8;persons_birth;;;nan
l2027;Royal Navy 8y 4m;persons_birth;;;nan
l2028;Inverness-shire;persons_birth;;;nan
l2029;Portsoy;persons_birth;57.68144;-2.68956;british_isles
l2030;4th mate EARL OF DARTMOUTH 1779/80 (approved 1780;persons_birth;;;nan
l2031;ur Ilfracombe;persons_birth;;;nan
l2032;d 1890;persons_birth;;;nan
l2033;Bordeaux;persons_birth;44.84044;-0.5805;atlantic
l2034;ur St Paul's Covent Gdn;persons_birth;;;nan
l2035;Mount Melick;persons_birth;;;nan
l2036;Grantham;persons_birth;52.91149;-0.64184;british_isles
l2037;Dominica;persons_birth;;;nan
l2038;St Peter's Close;persons_birth;;;nan
l2039;3rd mate VALENTINE (3) 1793/4 (approved 1794;persons_birth;;;nan
l2040;1st Lieutenant Achilles cutter (3m) and Job cutter (2m);persons_birth;;;nan
l2041;Isle of Man;persons_birth;;;nan
l2042;Carron;persons_birth;56.02611;-3.79251;british_isles
l2043;Wootton Hall;persons_birth;;;nan
l2044;Blunderston;persons_birth;;;nan
l2045;Great Yarmouth ?;persons_birth;52.60831;1.73052;british_isles
l2046;Sotheniom;persons_birth;;;nan
l2047;Stirling;persons_birth;56.11903;-3.93682;british_isles
l2048;Msg Camengate;persons_birth;;;nan
l2049;Canongate;persons_birth;;;nan
l2050;‘bap Fores;persons_birth;;;nan
l2051;Foggymill;persons_birth;;;nan
l2052;ur;persons_birth;;;nan
l2053;Johnshaven;persons_birth;;;nan
l2054;Haxbourgrace;persons_birth;;;nan
l2055;Chipping Ongar;persons_birth;51.70379;0.24548;british_isles
l2057;4th mate MARQUIS OF WELLINGTON (1) 1814/5 (approved 1814;persons_birth;;;nan
l2058;Pitfern;persons_birth;;;nan
l2059;St Swithin's pa;persons_birth;;;nan
l2060;1730;persons_birth;;;nan
l2061;2nd mate SUFFOLK (1) 1758/9;persons_birth;;;nan
l2062;purser PRINCESS CHARLOTTE OF WALES 1822/3;persons_birth;;;nan
l2063;Surgeon at Benkulen;persons_birth;;;nan
l2064;Baghent) seaman CIES @) 1792/3;persons_birth;;;nan
l2065;4th mate BELVEDERE 1800/1 (approved 1801;persons_birth;;;nan
l2066;aorington or Marington;persons_birth;;;nan
l2067;& bao  Bermondsey;persons_birth;;;nan
l2068;Spatree;persons_birth;;;nan
l2069;Kensington;persons_birth;51.50094;-0.19175;british_isles
l2070;Weybridge;persons_birth;51.37178;-0.45975;british_isles
l2071;served im Jen Charnock's war agst the Nawab af Bengal 1636-87;persons_birth;;;nan
l2072;MB 1785;persons_birth;;;nan
l2073;ur Staynton;persons_birth;;;nan
l2074;Stokesley;persons_birth;54.46998;-1.1933;british_isles
l2075;Datsham;persons_birth;;;nan
l2076;4th mate LADY BURGES 1803/4;persons_birth;;;nan
l2077;Caldecote Hall;persons_birth;;;nan
l2078;Tilbury Fort;persons_birth;51.46248;0.35856;british_isles
l2079;Kirkcaldy;persons_birth;56.11683;-3.15999;british_isles
l2080;St Andrew's;persons_birth;;;nan
l2081;Nb toate POCOCIS 1258/9;persons_birth;;;nan
l2082;Westdown;persons_birth;;;nan
l2083;went home 1757;persons_birth;;;nan
l2084;4th mate HUGH INGLIS 1815/6 (approved 1816;persons_birth;;;nan
l2085;reinstated;persons_birth;;;nan
l2086;4th mate GRENVILLE 1774/5 (approved 1775;persons_birth;;;nan
l2087;Aweltenndsy;persons_birth;;;nan
l2088;Gaicbonwugh;persons_birth;;;nan
l2089;Coylton;persons_birth;55.44528;-4.5195;british_isles
l2090;Oban;persons_birth;56.41535;-5.47184;british_isles
l2091;Kiloredtomont;persons_birth;;;nan
l2092;favo vorages to India;persons_birth;;;nan
l2093;Wigton;persons_birth;54.82482;-3.16114;british_isles
l2094;resigned 1819;persons_birth;;;nan
l2095;ap Basingstoke;persons_birth;;;nan
l2096;Capt MORLEY 1828/9 orred;persons_birth;;;nan
l2097;resigned Haskins;persons_birth;;;nan
l2098;Cestieliond;persons_birth;;;nan
l2099;co Durham;persons_birth;;;nan
l2100;4th mate ALNWICK CASTLE 1814/5 (approved 1815;persons_birth;;;nan
l2101;Liskeard;persons_birth;50.4545;-4.46517;british_isles
l2102;Dunbar;persons_birth;56.00062;-2.51418;british_isles
l2103;1785;persons_birth;;;nan
l2104;& baw $ Ape Leyton;persons_birth;;;nan
l2105;Illugan;persons_birth;;;nan
l2106;3nd mate LORD MIACARTIOSY LPS ud mats BAR OF WiCOMILE Ts6r? (approved 1787;persons_birth;;;nan
l2107;Northallerton;persons_birth;54.33901;-1.43243;british_isles
l2108;Web 17S4 Wells;persons_birth;;;nan
l2109;Musselburgh;persons_birth;55.9417;-3.04991;british_isles
l2110;Richmond;persons_birth;51.46171;-0.30633;british_isles
l2111;im Buwlend;persons_birth;;;nan
l2112;4th mate UNION (5) 1806/7;persons_birth;;;nan
l2113;Queensferry;persons_birth;55.99089;-3.39847;british_isles
l2114;3rd mate EUROPA (2) 1781/2 (approved 1782;persons_birth;;;nan
l2115;Battle;persons_birth;50.91732;0.48417;british_isles
l2116;b Havre de Grace;persons_birth;;;nan
l2117;1st mate DUKE OF YORK (2) 1826/7 & 1828/9;persons_birth;;;nan
l2118;2nd mate MINERVA (7) 1824/5;persons_birth;;;nan
l2119;Grange;persons_birth;-27.42251;153.01527;indian_ocean
l2120;Maidstone;persons_birth;51.26667;0.51667;british_isles
l2121;d Edinburgh active service Third Maratha War 1817-18;persons_birth;;;nan
l2122;b Llanbadarn;persons_birth;;;nan
l2123;midshipman HMS Monmouth;persons_birth;;;nan
l2124;ap Rhayader;persons_birth;;;nan
l2125;North Crescent;persons_birth;;;nan
l2126;& hep St ives;persons_birth;;;nan
l2127;Shorwell;persons_birth;;;nan
l2128;presented as 4th mate LORD MACARTNEY 1795/6;persons_birth;;;nan
l2129;Newport;persons_birth;52.76684;-2.37734;british_isles
l2130;Swansea;persons_birth;51.62079;-3.94323;british_isles
l2131;4th mate HUGH INGLIS 1809/10 (approved 1810;persons_birth;;;nan
l2132;im England;persons_birth;;;nan
l2133;pa St Michael's Cornhill;persons_birth;;;nan
l2135;Ulverston;persons_birth;54.19594;-3.09626;british_isles
l2136;Bardsea;persons_birth;;;nan
l2137;ap Donagh;persons_birth;;;nan
l2138;Sileby;persons_birth;52.73286;-1.10773;british_isles
l2139;Madras Asst Surgeon;persons_birth;;;nan
l2140;4th mate VANSITTART 1772/3 (approved 1773;persons_birth;;;nan
l2141;Bengal Supernumerary Surgeon;persons_birth;;;nan
l2142;Harwood;persons_birth;;;nan
l2143;Burntisland;persons_birth;56.05865;-3.23664;british_isles
l2144;Hammersmith;persons_birth;51.49384;-0.22882;british_isles
l2145;y & tap episcopal Chapel;persons_birth;;;nan
l2146;Dingwall;persons_birth;57.59531;-4.42721;british_isles
l2147;Seo & tap St Colas;persons_birth;;;nan
l2148;Whitekirk;persons_birth;;;nan
l2149;Macias Asst Sunysem Noy 1782;persons_birth;;;nan
l2150;Eastbourne;persons_birth;50.76871;0.28453;british_isles
l2151;d LE Si Mathew's Pricey St;persons_birth;;;nan
l2152;d b Barnstaple;persons_birth;;;nan
l2153;Cape ASTELL 1823/4 & 1826/7 ‘ewin;persons_birth;;;nan
l2154;Folkestone;persons_birth;51.08169;1.16734;british_isles
l2155;4th mate RHODA 1757/8;persons_birth;;;nan
l2156;Newburgh;persons_birth;56.35079;-3.2365;british_isles
l2157;Carnwath;persons_birth;55.70036;-3.62579;british_isles
l2158;Clackmannan;persons_birth;56.10743;-3.75098;british_isles
l2159;British garrison of New York;persons_birth;;;nan
l2160;captured by French off Benkulen 794;persons_birth;;;nan
l2161;run Lyons;persons_birth;;;nan
l2162;Bengal Surgeon;persons_birth;;;nan
l2163;cl1554 Basingstoke;persons_birth;;;nan
l2164;Hunsdon;persons_birth;;;nan
l2165;North Leith;persons_birth;;;nan
l2166;1795;persons_birth;;;nan
l2167;'b Beonsteple;persons_birth;;;nan
l2168;Thorley;persons_birth;;;nan
l2169;4th mate PIGOT (2) 1792/3 (approved 1793;persons_birth;;;nan
l2170;Inch;persons_birth;;;nan
l2171;1st mate DEVONSHIRE (2) 1771/2 (approved 1772;persons_birth;;;nan
l2172;m South Mims;persons_birth;;;nan
l2173;Llanereth Mead;persons_birth;;;nan
l2174;Cramond;persons_birth;;;nan
l2175;ap St John's;persons_birth;;;nan
l2176;purser BOMBAY CASTLE (2) 1804/5;persons_birth;;;nan
l2177;ret;persons_birth;;;nan
l2178;6th mate COUTTS 1813/4;persons_birth;;;nan
l2179;Markhal;persons_birth;;;nan
l2180;Kelmelir;persons_birth;;;nan
l2181;Inveraray;persons_birth;;;nan
l2182;Killea;persons_birth;;;nan
l2183;Dalrymple;persons_birth;55.39757;-4.59169;british_isles
l2184;Ardwally;persons_birth;;;nan
l2185;d19 Fsb ig;persons_birth;;;nan
l2186;Ll South Bnd;persons_birth;;;nan
l2187;Whitehorn;persons_birth;;;nan
l2188;Kirkgunzion;persons_birth;;;nan
l2189;4b mate COUMLING 1808/3;persons_birth;;;nan
l2191;Glenluce;persons_birth;;;nan
l2192;1805;persons_birth;;;nan
l2193;d L761 Cape;persons_birth;;;nan
l2194;4th mate HECTOR (3) 1775/6 (approved 1776;persons_birth;;;nan
l2195;Capt CHARLES GRANT 1/2 oe jut Presents;persons_birth;;;nan
l2197;Cullen;persons_birth;57.69045;-2.81818;british_isles
l2198;Dorking;persons_birth;51.23228;-0.3338;british_isles
l2199;ap Totnes;persons_birth;;;nan
l2200;Sap Reb St Dansten's;persons_birth;;;nan
l2201;Leuchars;persons_birth;56.38174;-2.88253;british_isles
l2202;resigned 1771;persons_birth;;;nan
l2203;Penningham;persons_birth;;;nan
l2204;or Drummagh;persons_birth;;;nan
l2205;Canonbie;persons_birth;;;nan
l2206;Islington;persons_birth;51.53622;-0.10304;british_isles
l2207;1G Aberdloons MRCS;persons_birth;;;nan
l2208;Upper Borlunce;persons_birth;;;nan
l2209;approved as 3rd mate LORD MACARTNEY 1782;persons_birth;;;nan
l2210;ur Dittisham;persons_birth;;;nan
l2211;ap Bavarian Chapel;persons_birth;;;nan
l2212;Bratton;persons_birth;51.27056;-2.12444;british_isles
l2213;Twyford;persons_birth;51.47518;-0.86037;british_isles
l2214;pa St Benet's;persons_birth;;;nan
l2215;St Paul's pa;persons_birth;;;nan
l2216;Kilfinan;persons_birth;;;nan
l2217;Dollerie;persons_birth;;;nan
