location_id;location;category;lat;lon;region
l1;Downs;calls;51.1108;1.2923;british_isles
l3;Narsipur;calls;12.21;76.906;madras_presidency
l6;East India Dock;calls;51.30292;0.0035;british_isles
l28;Anjengo;calls;8.4833;76.9167;madras_presidency
l40;Sao Tiago;calls;15.04;-23.38;atlantic
l42;Khanderi;calls;18.7042;72.8131;bombay_presidency
l43;Colaba;calls;18.91;72.81;bombay_presidency
l47;Reunion;calls;-21.0652;55.3157;indian_ocean
l53;Lintin;calls;22.2446;113.4813;china
l75;Fort St David;calls;11.75;79.75;madras_presidency
l76;Mauritius;calls;-20.2;57.5;indian_ocean
l140;Spithead;calls;50.7514;-1.13667;british_isles
l156;Mokha;calls;13.1913;43.15;indian_ocean
l177;Cagayan Sulu;calls;6.5841;118.3047;southeast_asia
l203;Socotra;calls;12.3036;53.5512;indian_ocean
l209;Bocca Tigris;calls;22.7933;113.5979;china
l219;River Thames;calls;51.4959;0.514031;british_isles
l223;Dungeness;calls;50.55;0.58;british_isles
l234;Kedah;calls;6.0742;100.2146;southeast_asia
l243;Point de Galle;calls;6.0158;80.1256;madras_presidency
l301;Hormuz;calls;27.0403;56.2736;indian_ocean
l346;Martinique;calls;14.39;-61.0054;atlantic
l353;Mahim;calls;19.035;72.84;bombay_presidency
l369;Karrack;calls;29.1528;50.193;indian_ocean
l380;Negrais;calls;16.2;94.12;bengal_presidency
l397;Coninga;calls;16.5758;82.1518;madras_presidency
l403;Kidderpore;calls;22.536323;88.316654;bengal_presidency
l443;Delagoa Bay;calls;-25.59;32.42;indian_ocean
l449;Ryukyu Islands;calls;26.3;127.54;china
l545;Orkneys;calls;59.0;-3.0;british_isles
l591;Resolution Bay;calls;-41.0731;174.1332;nan
l592;Tahiti;calls;-17.4;-149.25;atlantic
l599;Canton river;calls;22.476411;113.750545;china
l976;Great Nanka;calls;-2.25;105.48;southeast_asia
l1176;Anjengo Cape;calls;8.4833;76.9167;madras_presidency
l1185;All Saints' Bay, Brazil;calls;-12.51;-38.38;atlantic
l1251;Krakatoa;calls;-6.0607;105.2523;southeast_asia
l1358;Cape Verde;calls;15.55;-23.55;atlantic
l1376;Port Cornwallis;calls;13.17;93.05;southeast_asia
l1378;Cape Augustine;calls;-8.1723;-35.0148;atlantic
l1385;Norfolk Island;calls;-29.02;167.57;nan
l1714;Newcastle-on-Tyne;people_birth;54.98;-1.61;british_isles
l1809;Tweedmouth;people_birth;55.761;-2.01;british_isles
l1834;Kilmartin;people_birth;56.133;-5.487;british_isles
l1938;Crathie;people_birth;57.0225;-3.1255;british_isles
l1946;Sorbie;people_birth;54.79;-4.43;british_isles
l2260;Berwick-upon-Tweed;people_birth;55.4609;-2.0009;british_isles
l2543;Fleet St;people_baptised;51.5138;-0.1105;british_isles
l2569;Soho;people_baptised;51.3046;-0.752;british_isles
l2580;Bloomsbury;people_baptised;51.5201;-0.1288;british_isles
l2596;Pembrokeshire;people_baptised;51.5042;-4.5032;british_isles
l579;Leith;calls;55.98;-3.17;british_isles
l944;Ireland;calls;53.2658;-7.3011;british_isles
l1047;Scilly;calls;49.55;-6.2;british_isles
l1094;Bab el Mandeb;calls;12.35;43.2;indian_ocean
l2055;Southwark;people_birth;51.4988;-0.0901;british_isles
l2430;Sotterley;people_birth;52.401;1.61;british_isles
l2453;Rodborough;people_birth;51.744;-2.215;british_isles
l2609;Wapping;people_baptised;51.5073;-0.061;british_isles
l1682;England;people_birth;52.4387;-1.3478;british_isles
l1675;Scotland;people_birth;56.6549;-4.3368;british_isles
l1947;Wales;people_birth;52.3965;-3.7382;british_isles
l1939;Inverness;people_birth;57.4778;-4.2247;british_isles
l8;Calcutta;calls;22.3403;88.2212;bengal_presidency
l2258;Kingston;people_birth;53.444;-0.1957;british_isles
l56;Madeira;calls;32.45;-17.0;atlantic
l1687;Yorkshire;people_birth;54.0;-2.0;british_isles
l4;Madras;calls;13.457;80.163;madras_presidency
l2407;Cathcart;people_birth;55.8195;-4.2679;british_isles
l2263;Midlothian;people_birth;55.5339;-3.0407;british_isles
l2226;Harris;people_birth;57.91;-6.83;british_isles
l2024;Cameron;people_birth;56.2953;-2.8529;british_isles
l1817;Guernsey;people_birth;49.45;-2.58;british_isles
l1759;Dysart;people_birth;56.13;-3.11;british_isles
l1911;Lithgow;people_birth;55.979;-3.6105;british_isles
l1873;St Andrews;people_birth;56.3404;-2.7955;british_isles
l5;St Helena;calls;-15.58;-5.42;atlantic
l2195;Alphington;people_birth;50.42;-3.32;british_isles
l2189;Applecross;people_birth;57.43304;-5.80958;british_isles
l16;Macao;calls;22.1;113.33;china
l2133;Montreal;people_birth;45.3032;-73.3315;atlantic
l86;Bantam;calls;-6.0233;106.0939;southeast_asia
l93;River Shannon;calls;52.35;-9.18;british_isles
l101;Barbados;calls;13.1012;-59.3309;atlantic
l109;West India Dock;calls;51.50347;-0.01722;british_isles
l117;Porto Praya;calls;14.918;-23.509;atlantic
l122;Crookhaven;calls;51.2747;-9.4313;british_isles
l193;Nicobars;calls;7.05;93.48;southeast_asia
l199;Comoros;calls;-12.3;43.7;indian_ocean
l201;Seychelles;calls;-4.35;55.4;indian_ocean
l832;Gambia river;calls;13.28;-16.34;atlantic
l860;Port Dauphin;calls;-25.0157;46.59;indian_ocean
l861;Masirah;calls;20.2816;58.4855;indian_ocean
l871;Lombok;calls;-8.565;116.351;southeast_asia
l908;Tristan de Cunha;calls;-37.7;-12.18;atlantic
l909;St Paul's Island;calls;-38.43;77.31;indian_ocean
l910;Condore;calls;16.4108;80.3445;madras_presidency
l924;Manila Bay;calls;14.31;120.46;southeast_asia
l964;Delagoa;calls;-25.59;32.42;indian_ocean
l973;Tristan da Cunha;calls;-37.7;-12.18;atlantic
l1189;Bay of Bulls, Newfoundland;calls;47.299;-52.781;atlantic
l1200;Nootka Sound;calls;49.41;-126.33;atlantic
l1201;Queen Charlotte's Islands;calls;-11.0;166.15;nan
l1202;Sandwich Islands;calls;20.54;-156.36;nan
l1203;Montague Island;calls;-36.15;150.13;nan
l11;Cape;calls;-34.2129;18.2832;indian_ocean
l19;Second Bar;calls;22.476411;113.750545;china
l20;Kedgeree;calls;12.8575;87.9115;indian_ocean
l41;Johanna;calls;-12.1254;44.253;indian_ocean
l52;False Bay;calls;-34.1347;18.3843;indian_ocean
l60;Moheli;calls;-12.15;43.45;indian_ocean
l115;Port Jackson;calls;-33.513;151.14;nan
l124;Balambangan;calls;7.1549;116.5321;southeast_asia
l128;Fulta;calls;19.1629;84.4843;madras_presidency
l136;Fernando de Noronha;calls;-3.5118;-32.253;atlantic
l137;Purfleet;calls;51.48;0.25;british_isles
l142;Coringa;calls;16.48;82.14;madras_presidency
l22;Batavia;calls;-6.129;106.8129;southeast_asia
l71;Ascension;calls;-7.56;-14.22;atlantic
l62;Manila;calls;14.3545;120.5838;southeast_asia
l106;Long Reach;calls;51.4415;0.3685;british_isles
l9;Saugor;calls;21.6528;88.0753;bengal_presidency
l181;Banda;calls;-4.35;129.55;southeast_asia
l126;Tenerife;calls;28.1607;-16.362;atlantic
l1123;Coromandel;calls;13.3667;80.3333;madras_presidency
l1461;Java;calls;-7.293;110.0016;southeast_asia
l58;Colombo;calls;6.5604;79.5034;madras_presidency
l132;Persia;calls;27.2532;53.8998;indian_ocean
l511;China;calls;22.449;113.915;china
l50;Deptford;calls;51.478;-0.0265;british_isles
l1342;Brest;calls;48.23;-4.29;british_isles
l288;Onore;calls;14.28;74.4439;bombay_presidency
l321;San Salvador;calls;-12.5829;-38.2836;atlantic
l928;Brazil;calls;-8.4544;-35.0359;atlantic
l322;Bourbon;calls;-21.0652;55.3157;indian_ocean
l82;Moco Moco;calls;-2.5833;101.117;southeast_asia
l83;Acheh;calls;5.3325;95.1934;southeast_asia
l118;Rodrigues;calls;-19.43;63.25;indian_ocean
l266;Newfoundland;calls;48.36;-56.2;atlantic
l268;Siam;calls;12.6414;101.021;southeast_asia
l417;Bristol Channel;calls;51.3777;-4.2291;british_isles
l448;Tidore;calls;0.41;127.24;southeast_asia
l476;Quedah;calls;6.0742;100.2146;southeast_asia
l497;Kambelu;calls;-3.08;129.3;southeast_asia
l507;Pulo Run;calls;-4.332587;129.4163;southeast_asia
l519;Annabon;calls;-1.2606;5.3815;atlantic
l521;Galway Bay;calls;53.1619;-9.0256;british_isles
l544;Ratcliffe;calls;51.512054;-0.038946;british_isles
l2;Bengal;calls;;;nan
l7;Hugh;calls;;;nan
l10;Blackwall;calls;51.50971;-0.0016;british_isles
l12;Bombay;calls;19.07283;72.88261;bombay_presidency
l13;Singapore;calls;1.28967;103.85007;southeast_asia
l14;Whampoa;calls;23.11037;113.4418;china
l15;Malacca;calls;2.196;102.2405;southeast_asia
l17;Kowloon;calls;22.31667;114.18333;china
l18;Portsmouth;calls;50.79899;-1.09125;british_isles
l21;Falmouth;calls;50.15441;-5.07113;british_isles
l23;Tiku;calls;-0.3958;99.92307;southeast_asia
l24;voyages to Sumatra 1624, Lagundy 1625, Coromandel;calls;;;nan
l25;27, Sumatra &;calls;;;nan
l26;laid up 1631, rotten;calls;;;nan
l27;Sandy Bay' Guinea;calls;;;nan
l29;Calicut;calls;11.24802;75.7804;madras_presidency
l30;Tellicherry;calls;11.74811;75.4929;madras_presidency
l31;Karwar;calls;14.81361;74.12972;bombay_presidency
l32;Mangalore;calls;12.91723;74.85603;madras_presidency
l33;Surat;calls;21.19594;72.83023;bombay_presidency
l34;voyage ended;calls;;;nan
l35;Balasore;calls;21.49266;86.93348;bengal_presidency
l36;Rogues River;calls;;;nan
l37;Benkulen;calls;-3.80044;102.26554;southeast_asia
l38;Silebar;calls;;;nan
l39;Nore;calls;45.24159;7.56983;atlantic
l44;Goa;calls;13.6978;123.4892;southeast_asia
l45;Vijayadura;calls;;;nan
l46;Cochin;calls;9.93988;76.26022;madras_presidency
l48;expedition against Angria;calls;;;nan
l49;wreckedthe Cape;calls;;;nan
l51;captured by the French near Mauritius;calls;;;nan
l54;Torbay;calls;47.66659;-52.73135;atlantic
l55;returned to St Helena;calls;;;nan
l57;Diamond Harbour;calls;22.19101;88.19047;bengal_presidency
l59;lost on Goodwin SandsSouth Foreland;calls;;;nan
l61;Cavite;calls;15.67785;120.76978;southeast_asia
l63;Pangasinan;calls;;;nan
l64;Sulu;calls;6.05222;121.00222;southeast_asia
l65;Da;calls;;;nan
l66;nang;calls;29.04701;93.08795;indian_ocean
l67;Rio de Janeiro;calls;-22.90642;-43.18223;atlantic
l68;Tellicheny;calls;;;nan
l69;Gravesend;calls;51.44206;0.37106;british_isles
l70;Ingeli;calls;;;nan
l72;Belem;calls;19.63334;-98.79664;atlantic
l73;Scarborough;calls;54.27966;-0.40443;british_isles
l74;Erith;calls;51.48315;0.17484;british_isles
l77;Vizagapatam;calls;17.68009;83.20161;madras_presidency
l78;Culpee;calls;;;nan
l79;Bandar Abbas;calls;27.1865;56.2808;indian_ocean
l80;towards England;calls;;;nan
l81;Limehouse;calls;51.51412;-0.03282;british_isles
l84;Plymouth;calls;50.37153;-4.14305;british_isles
l85;;calls;;;nan
l87;Pattani;calls;6.86814;101.25009;southeast_asia
l88;Hirado;calls;33.36853;129.55247;china
l89;abandonedMasulipatam;calls;;;nan
l90;Masulipatam;calls;16.18747;81.13888;madras_presidency
l91;Pring;calls;;;nan
l92;Rat Island;calls;;;nan
l94;Trincomalee;calls;8.5778;81.2289;madras_presidency
l95;below Second Bar;calls;;;nan
l96;Woolwich;calls;51.491;0.0648;british_isles
l97;Quilon;calls;8.88113;76.58469;madras_presidency
l98;Ganjam;calls;19.38705;85.05079;bengal_presidency
l99;Woolwich ff.6;calls;;;nan
l100;sailing directions for the convoy leaving England;calls;;;nan
l102;St Augustine's Bay;calls;;;nan
l103;captured by the FrenchScilly;calls;;;nan
l104;wrecked Polperro, Cornwall;calls;;;nan
l105;Penang;calls;5.41123;100.33543;southeast_asia
l107;City Canal;calls;;;nan
l108;Day Downs;calls;;;nan
l110;From England;calls;;;nan
l111;Cape Coast Castle;calls;5.10535;-1.2466;atlantic
l112;Accra;calls;5.55602;-0.1969;atlantic
l113;Ouidah;calls;6.36307;2.08506;atlantic
l114;captured by the French 9/10;calls;;;nan
l116;Funchal;calls;32.66568;-16.92547;atlantic
l119;Allas;calls;;;nan
l120;Saloomah;calls;;;nan
l121;Madagascar;calls;;;nan
l123;Amboina;calls;-3.69583;128.18333;southeast_asia
l125;Northfleet;calls;;;nan
l127;Lisbon;calls;38.71667;-9.13333;atlantic
l129;Cork;calls;51.89797;-8.47061;british_isles
l130;Down;calls;;;nan
l131;Cadiz;calls;36.52672;-6.2891;atlantic
l133;Guinea;calls;;;nan
l134;Lizard;calls;;;nan
l135;wrecked north of Goa, in 'the Mallwan's country', survivors imprisoned;calls;;;nan
l138;from Bengal;calls;;;nan
l139;Faro;calls;37.01869;-7.92716;atlantic
l141;not heard of after leaving Bengal about the end of;calls;;;nan
l143;Yarmouth;calls;50.70529;-1.49929;british_isles
l144;Quebec;calls;46.81228;-71.21454;atlantic
l145;moorings;calls;;;nan
l146;Halifax;calls;53.71667;-1.85;british_isles
l147;went on shoreBerck nr Boulogne, abandoned;calls;;;nan
l148;From Bantam;calls;;;nan
l149;Delagoa river;calls;;;nan
l150;wreckedMadagascar;calls;;;nan
l151;crew reached Johanna in sloop and longboat;calls;;;nan
l152;met pirates and men deserted to them;calls;;;nan
l153;left Johanna in sloop;calls;;;nan
l154;reached Indian coast nr Vingula;calls;;;nan
l155;captured and plundered by Shivaji's forces;calls;;;nan
l157;Surat 1619, carried Sir Thomas Roe home;calls;;;nan
l158;Voyage lost, ship 'cast away' between London and Gravesend;calls;;;nan
l159;buoyed up and towed to Northfleet;calls;;;nan
l160;joined Anglo;calls;;;nan
l161;Dutch Fleet of DefenceGoa;calls;;;nan
l162;sent for Mozambique Channel;calls;;;nan
l163;Malabar;calls;-33.96216;151.24796;nan
l164;Dabhol;calls;17.58971;73.18001;bombay_presidency
l165;Jambi;calls;-1.6;103.61667;southeast_asia
l166;broken up, rotten;calls;;;nan
l167;captured by FrenchBombay;calls;;;nan
l168;Bengal river;calls;;;nan
l169;Kinsale;calls;51.7075;-8.53056;british_isles
l170;captured by the Dutch;calls;;;nan
l171;Bedthar;calls;;;nan
l172;Hugli;calls;22.90877;88.39674;bengal_presidency
l173;Cox's Island;calls;;;nan
l174;off Cape San Diego, Argentina;calls;;;nan
l175;off Cape Horn;calls;;;nan
l176;in Sulu Sea;calls;;;nan
l178;wrecked Pelew Islands;calls;;;nan
l179;built a boat, sailed;calls;;;nan
l180;Macao Seevftt account of the Pelew Islands ... George Keate;calls;;;nan
l182;Gogha;calls;;;nan
l183;Linton;calls;51.92529;-2.49669;british_isles
l184;L/MAR/B/515B Journal;calls;;;nan
l185;Alexander Stirling, Chief Mate Falmouth;calls;;;nan
l186;off Lintin;calls;;;nan
l187;Lower Hope;calls;;;nan
l188;transport;calls;;;nan
l189;see Asiatic Journal  pp.32;calls;;;nan
l190;Toibay;calls;;;nan
l191;Canaries;calls;13.90224;-61.06459;atlantic
l192;Madagascar htor;calls;;;nan
l194;at capture of San Antonio carrack in Straits of Malacca;calls;;;nan
l195;sent for England;calls;;;nan
l196;arrived;calls;;;nan
l197;Maio;calls;15.13823;-23.21158;atlantic
l198;Bandas;calls;;;nan
l200;Pemba;calls;-12.97395;40.51775;indian_ocean
l202;Aden;calls;12.77944;45.03667;indian_ocean
l204;reached Indian coast nr Mahuwa, Kathiawar;calls;;;nan
l205;sailed for Surat;calls;;;nan
l206;lost on Malacca Banks;calls;;;nan
l207;crew reached Surat;calls;;;nan
l208;Capt Elias Clapp;calls;;;nan
l210;Madras Kedgeree;calls;;;nan
l211;Qishm;calls;26.9492;56.2691;indian_ocean
l212;Padang;calls;-0.94924;100.35427;southeast_asia
l213;off St Helena took part in capture of seven Dutch ships;calls;;;nan
l214;Simons Bay;calls;;;nan
l215;Mahe;calls;11.70172;75.53474;madras_presidency
l216;Samkoke' Island;calls;;;nan
l217;lost 'in the Bengal river;calls;;;nan
l218;New Anchorage;calls;;;nan
l220;Hong Kong;calls;22.27832;114.17469;china
l221;Jim Johanna;calls;;;nan
l222;Santa Cruz;calls;15.30815;120.85318;southeast_asia
l224;Diamond Harbour Saugor;calls;;;nan
l225;Waterford;calls;52.25833;-7.11194;british_isles
l226;Sydney Cove;calls;;;nan
l227;Wliampoa;calls;;;nan
l228;Left England;calls;;;nan
l229;sent for Jambi;calls;;;nan
l230;made voyages to Jambi, the Bandas and Macassar;calls;;;nan
l231;captured by the Dutch and taken to Japan;calls;;;nan
l232;eventually handed back, but abandoned in;calls;;;nan
l233;Downs captured French ship Baronette;calls;;;nan
l235;off Point de Galle;calls;;;nan
l236;Stokes Bay;calls;;;nan
l237;Arp Cape;calls;;;nan
l238;Bantal;calls;;;nan
l239;left Bengal;calls;;;nan
l240;sent for Taiwan &;calls;;;nan
l241;lostsea during second attempt;calls;;;nan
l242;sailed for England;calls;;;nan
l244;off North Island;calls;;;nan
l245;Capt William Baker;calls;;;nan
l246;off Persian coast;calls;;;nan
l247;Margate;calls;51.38132;1.38617;british_isles
l248;Mozambique;calls;-15.03466;40.73447;indian_ocean
l249;lost going into Bombay;calls;;;nan
l250;Moorings;calls;;;nan
l251;Galway;calls;53.27245;-9.05095;british_isles
l252;Borneo;calls;;;nan
l253;Blackwall * passenger list in journal includes prisoners of war;calls;;;nan
l254;Ceylon;calls;;;nan
l255;Long Reach skirmish with an American ship;calls;;;nan
l256;attacked by piratesSao Tiago;calls;;;nan
l257;seized by nativesMassalege, Madagascar;calls;;;nan
l258;captured there by the Dutch;calls;;;nan
l259;v Downs;calls;;;nan
l260;home via Newfoundland Banks;calls;;;nan
l261;Prince's Island;calls;;;nan
l262;remained in East Indies;calls;;;nan
l263;captured by the French;calls;;;nan
l264;recovered;calls;;;nan
l265;Jeddah;calls;21.49012;39.18624;indian_ocean
l267;Jask;calls;25.64533;57.77552;indian_ocean
l269;feared lost;calls;;;nan
l270;Long Reach capturedthe French coast;calls;;;nan
l271;Barrabulla;calls;;;nan
l272;Fernando Nova Pina;calls;;;nan
l273;Long Reach carried the body of Sir Eyre Coote back to England;calls;;;nan
l274;Reach;calls;43.91064;-69.8206;atlantic
l275;Pondicherry;calls;11.93381;79.82979;madras_presidency
l276;Madras^;calls;;;nan
l277;Cannanore;calls;11.86752;75.35763;madras_presidency
l278;cruising between Cannanore and Mangalore;calls;;;nan
l279;disappeared after parting companyMauritius;calls;;;nan
l280;burntPoint de Galle;calls;;;nan
l281;Capt John Goldsborough;calls;;;nan
l282;Tellicheny Calicut;calls;;;nan
l283;Ruttera;calls;;;nan
l284;Brinjoan;calls;;;nan
l285;voyage ended Portsmouth;calls;;;nan
l286;home mid;calls;;;nan
l287;offered for sale to Royal Africa Company;calls;;;nan
l289;SSo Tiago;calls;;;nan
l290;Negapatam;calls;10.76377;79.84313;madras_presidency
l291;Pulicat;calls;;;nan
l292;Indrapura;calls;;;nan
l293;Muscat;calls;23.58413;58.40778;indian_ocean
l294;from Bombay;calls;;;nan
l295;captured by the French 1694, sank going into Brest;calls;;;nan
l296;Tranquebar;calls;11.02764;79.85425;madras_presidency
l297;Narsapore;calls;;;nan
l298;captured by the FrenchGanjam;calls;;;nan
l299;Texel;calls;;;nan
l300;blown upBasra;calls;;;nan
l302;Sumatra;calls;;;nan
l303;Mozambique Channel;calls;;;nan
l304;leftGoa in 1639, broken up in;calls;;;nan
l305;returned to China for repairs;calls;;;nan
l306;Whampoa Second Bar;calls;;;nan
l307;L/MAR/B/414A Journal;calls;;;nan
l308;1795, anon Penang;calls;;;nan
l309;attacked by pirates after leaving Mokha;calls;;;nan
l310;blown up by accident while engaging Sivaji pirates;calls;;;nan
l311;Diego Garcia Bay;calls;;;nan
l312;cruising Coromandel coast;calls;;;nan
l313;left China;calls;;;nan
l314;took part in battle of Pulau Aor;calls;;;nan
l315;Capt James Birkdell Downs;calls;;;nan
l316;Assada;calls;;;nan
l317;* carried planters to form colonyAssada;calls;;;nan
l318;Benjarmassin;calls;;;nan
l319;Banjarmassin;calls;;;nan
l320;off St Helena, unable to call because of French ships;calls;;;nan
l323;Portland;calls;50.56748;-2.44472;british_isles
l324;towards England', engagement with a French ship;calls;;;nan
l325;New South Wales;calls;;;nan
l326;Benguela;calls;-12.57626;13.40547;atlantic
l327;Car Nicobar;calls;;;nan
l328;Princes Island;calls;;;nan
l329;Bencoolen;calls;;;nan
l330;Pulau Pisang;calls;;;nan
l331;Manna;calls;-4.4651;102.90386;southeast_asia
l332;Nagore;calls;;;nan
l333;Jim Madras;calls;;;nan
l334;dismissed in hurricane;calls;;;nan
l335;condemnedCalcuttta;calls;;;nan
l336;lostJohanna;calls;;;nan
l337;Ipoh;calls;4.5841;101.0829;southeast_asia
l338;Laye;calls;12.53118;-1.77684;atlantic
l339;Bertoonan;calls;;;nan
l340;Madras, forced out by a French ship;calls;;;nan
l341;lost 'off the Brazils;calls;;;nan
l342;Diamond Point;calls;;;nan
l343;Achen;calls;50.77664;6.08342;atlantic
l344;Downs *;calls;;;nan
l345;captured French ship Le Vengeur;calls;;;nan
l347;St Lucia;calls;-28.37622;32.41181;indian_ocean
l348;St Pierre;calls;46.77914;-56.1773;atlantic
l349;coastal cruise;calls;;;nan
l350;lost on the Goodwin Sandsthe South Foreland;calls;;;nan
l351;Capt Thomas Gilbert;calls;;;nan
l352;Kamree Roads;calls;;;nan
l354;captured by the FrenchPoint de Galle, ran ashore in Simons Bay, Cape,;calls;;;nan
l355;Cowes;calls;50.76252;-1.29781;british_isles
l356;Torbar;calls;;;nan
l357;Capt Richard Glasspoole Downs;calls;;;nan
l358;Toon;calls;33.79427;132.89011;indian_ocean
l359;koo;calls;;;nan
l360;Sing;calls;14.88786;100.40464;southeast_asia
l361;moon;calls;58.60194;23.24694;indian_ocean
l362;served in Anglo;calls;;;nan
l363;Dutch Fleet of Defence basedHirado;calls;;;nan
l364;at Lagundy in;calls;;;nan
l365;laid up in;calls;;;nan
l366;Porta Nova;calls;;;nan
l367;wreckedCadargos, Carajos Reefs nr Mauritius,;calls;;;nan
l368;captain, surgeon's mate and crew drowned;calls;;;nan
l370;Basra;calls;30.50852;47.7804;indian_ocean
l371;Whampaoa;calls;;;nan
l372;Fernando Loronho;calls;;;nan
l373;captured by French Oct, recovered;calls;;;nan
l374;Carrick Road;calls;;;nan
l375;Capt Jonathan Andrews;calls;;;nan
l376;Milford Haven;calls;51.71278;-5.0341;british_isles
l377;Tilbury;calls;51.46248;0.35856;british_isles
l378;Bentoonan;calls;;;nan
l379;Scindy;calls;;;nan
l381;parted companyMauritius 1809, not heard of again;calls;;;nan
l382;Greenhithe;calls;51.45026;0.28539;british_isles
l383;First Bar;calls;;;nan
l384;St Helena Long Reach;calls;;;nan
l385;Left China;calls;;;nan
l386;Timor;calls;;;nan
l387;Amoy;calls;24.47979;118.08187;china
l388;captured by French in Straits of Malacca;calls;;;nan
l389;Carrig Roads;calls;;;nan
l390;JulBalasore;calls;;;nan
l391;Semarang;calls;-6.99306;110.42083;southeast_asia
l392;Tom Borneo;calls;;;nan
l393;Bahia;calls;-0.59792;-80.42367;atlantic
l394;Malwa;calls;;;nan
l395;Second bar;calls;;;nan
l396;Finish Roads, Ireland;calls;;;nan
l398;Lantau;calls;;;nan
l399;Lampagao;calls;;;nan
l400;captured by piratesJohanna;calls;;;nan
l401;MadrasBengal;calls;;;nan
l402;Upper Hope;calls;;;nan
l404;Port Louis;calls;-20.16194;57.49889;indian_ocean
l405;Ramsgate;calls;51.33568;1.41797;british_isles
l406;Pulo Condore;calls;8.68641;106.60824;southeast_asia
l407;L/MAR/B/115C Journal;calls;;;nan
l408;1717, Francis Gostlin, Fourth Mate Lizard;calls;;;nan
l409;wrecked in Straits of Sunda;calls;;;nan
l410;crew reached Benkulen on Rochester;calls;;;nan
l411;Long Reach * fleet captured Le Franc, crew of Ceres took possession;calls;;;nan
l412;Sidney Cove;calls;;;nan
l413;captured by the French, retakenMauritius;calls;;;nan
l414;Cochin Calicut;calls;;;nan
l415;lostthe Cape;calls;;;nan
l416;Cuddalore;calls;11.75617;79.76693;madras_presidency
l418;Palembang;calls;-2.91673;104.7458;southeast_asia
l419;Surat, accidentally destroyed by fire;calls;;;nan
l420;Apr/May Maldives;calls;;;nan
l421;Tuticorin;calls;8.76735;78.13425;madras_presidency
l422;not heard of again;calls;;;nan
l423;occupied Hippin's Island in Straits of Sunda;calls;;;nan
l424;withdrew Hippin's Island settlement;calls;;;nan
l425;Bombay, negotiations with Keigwin, re;calls;;;nan
l426;occupied Bombay;calls;;;nan
l427;Chuenpi;calls;;;nan
l428;Narispore;calls;;;nan
l429;Narsipore;calls;;;nan
l430;captured by the French in 6Â° 30'N, 90Â° 30'E;calls;;;nan
l431;Augustine's Bay;calls;;;nan
l432;to remain India;calls;;;nan
l433;Jangarall Creek, Calcutta;calls;;;nan
l434;Macao islands;calls;;;nan
l435;Capt Francis Hosier;calls;;;nan
l436;Bantam, laid up in;calls;;;nan
l437;Quilton;calls;;;nan
l438;Kidderporc;calls;;;nan
l439;Jakatra;calls;;;nan
l440;sent for Japara, Macassar and the Moluccas;calls;;;nan
l441;in the Goa fleet;calls;;;nan
l442;castat sea and sank;calls;;;nan
l444;Scindy Road;calls;;;nan
l445;Red Sea;calls;;;nan
l446;Bachian;calls;;;nan
l447;Makian;calls;;;nan
l450;Cocos Keeling Islands;calls;;;nan
l451;Petapoli;calls;;;nan
l452;laid up in 1623, rotten;calls;;;nan
l453;St Paul;calls;;;nan
l454;Iambi;calls;;;nan
l455;Persian Gulf;calls;;;nan
l456;Mew Bay;calls;;;nan
l457;wrecked Aug, struck a rock entering False Bay;calls;;;nan
l458;returned to Calcutta;calls;;;nan
l459;captured north of Madeira Jul, recovered;calls;;;nan
l460;at Masulipatam;calls;;;nan
l461;captured and burnt in Malabars;calls;;;nan
l462;Rangoon;calls;16.80528;96.15611;southeast_asia
l463;Jiddah;calls;21.49012;39.18624;indian_ocean
l464;burntBenkulen;calls;;;nan
l465;sent for Macasser, Amboina and Bandas;calls;;;nan
l466;backBantam;calls;;;nan
l467;sent for Celebes and Bandas;calls;;;nan
l468;withdrew in face of Dutch opposition;calls;;;nan
l469;scuttledBatavia;calls;;;nan
l470;St Laurence;calls;;;nan
l471;Moluccas;calls;;;nan
l472;Buton;calls;-5.4633;122.6024;southeast_asia
l473;Dartmouth;calls;50.3522;-3.5794;british_isles
l474;Trinidade;calls;;;nan
l475;Tumala Punta;calls;;;nan
l477;Capshee Bay;calls;;;nan
l478;Catherine and Planter lost company;calls;;;nan
l479;Planter rejoined;calls;;;nan
l480;Discovery sent back to England, Anne sent for India alone;calls;;;nan
l481;Goa, joined there by Catherine and Anne, left;calls;;;nan
l482;Planter sent back to England;calls;;;nan
l483;Anunghol;calls;;;nan
l484;captured Chinese fort;calls;;;nan
l485;Tiger Island;calls;;;nan
l486;fought Chinese junks;calls;;;nan
l487;Macao, Anne sold there, CatherineDec, Dragon and Sun;calls;;;nan
l488;Gibraltar;calls;36.14474;-5.35257;atlantic
l489;lost on voyage to Taiwan;calls;;;nan
l490;captured by French in 50Â° 21'N. 17Â°W;calls;;;nan
l491;Long Reach * engagement with three French ships;calls;;;nan
l492;Bearhaven;calls;;;nan
l493;Deal;calls;51.22316;1.4028;british_isles
l494;free ship to trade in the country;calls;;;nan
l495;blockaded Mokha until;calls;;;nan
l496;Ceram;calls;;;nan
l498;Macassar;calls;-5.14861;119.43194;southeast_asia
l499;Sukadana;calls;-5.06446;105.54869;southeast_asia
l500;Pattani, laid up there;calls;;;nan
l501;Thames;calls;-37.13832;175.54011;nan
l502;expedition agst Angria pirates;calls;;;nan
l503;lost north of Sadras;calls;;;nan
l504;Capt Marmaduke Rawdon;calls;;;nan
l505;Howrah;calls;-42.88728;147.40554;indian_ocean
l506;lost in the Hugh;calls;;;nan
l508;seized by Dutch;calls;;;nan
l509;in reported laid up as a wreck in the Bandas;calls;;;nan
l510;left Madras;calls;;;nan
l512;Taverapatam;calls;;;nan
l513;left Benkulen;calls;;;nan
l514;Fulla;calls;;;nan
l515;Tambomeo;calls;;;nan
l516;burntBenkulen to prevent her capture by the French;calls;;;nan
l517;Whampoa St Helena;calls;;;nan
l518;off Ascension;calls;;;nan
l520;Diamond Creek;calls;-37.66667;145.15;indian_ocean
l522;Simon's Bay;calls;;;nan
l523;Pipli;calls;;;nan
l524;the Gore;calls;41.96677;-71.43284;atlantic
l525;Westcott Bay;calls;;;nan
l526;captured by Angria;calls;;;nan
l527;remained in India;calls;;;nan
l528;Tellicherry Bombay;calls;;;nan
l529;Portsmouth Ar;calls;;;nan
l530;Bombay Goa;calls;;;nan
l531;wrecked in Saugor Roads;calls;;;nan
l532;Dutch Fleet of DefenceMalabar 1622/3;calls;;;nan
l533;at Lagundy Mar/Apr;calls;;;nan
l534;laid up as a careening hulk early;calls;;;nan
l535;Capt Thomas Woodcock Downs;calls;;;nan
l536;Left Bengal;calls;;;nan
l537;Limerick;calls;52.66472;-8.62306;british_isles
l538;Ramsey, Pembrokeshire;calls;;;nan
l539;Morardava;calls;;;nan
l540;Massaleige;calls;;;nan
l541;Prawdar;calls;;;nan
l542;Boyne Harbour;calls;;;nan
l543;Tuloa;calls;;;nan
l546;off Greenland;calls;;;nan
l547;Warwick's Foreland;calls;;;nan
l548;penetrated Hudson's Strait, driven out and south;calls;;;nan
l549;voyage abandoned;calls;;;nan
l550;off Scilly;calls;;;nan
l551;back in England by;calls;;;nan
l552;sacked Bombay;calls;;;nan
l553;Surat Cape;calls;;;nan
l554;Mozamibique Channel;calls;;;nan
l555;lost on homeward voyage;calls;;;nan
l556;Left Bantam;calls;;;nan
l557;Spilhead;calls;;;nan
l558;cruising;calls;;;nan
l559;The wreck was located and 'salvaged' in 1977/8;calls;;;nan
l560;Clive's lost treasure, Geoffrey & David Allen;calls;;;nan
l561;Rajapur;calls;16.65679;73.51701;bombay_presidency
l562;voyage ended * attacked by pirate in Straits of Malacca;calls;;;nan
l563;Long Reach * assisted in capture of French ship;calls;;;nan
l564;Macasser;calls;;;nan
l565;voyages to Jambi and Masulipatam;calls;;;nan
l566;Diu;calls;20.71405;70.98224;bombay_presidency
l567;permission to garrison Macao refuseed;calls;;;nan
l568;Sambroke;calls;;;nan
l569;Long Reach * recaptured ^4Rainier from French;calls;;;nan
l570;Temate;calls;;;nan
l571;met Hector in Straits of Sunda and returned;calls;;;nan
l572;Swally;calls;;;nan
l573;captured by DutchTiku;calls;;;nan
l574;detained by Dutch;calls;;;nan
l575;subsequently lost;calls;;;nan
l576;soldMadras;calls;;;nan
l577;Banjarmassin Tambomeo;calls;;;nan
l578;Madura;calls;9.919;78.11953;madras_presidency
l580;Morandava;calls;;;nan
l581;Morungary river;calls;;;nan
l582;Moco Moco Benkulen;calls;;;nan
l583;M Malacca;calls;;;nan
l584;Downs * insert A short formula for longitude, having the linear tables etc Samuel Dunn;calls;;;nan
l585;Point de Gale;calls;;;nan
l586;Bali Straits;calls;;;nan
l587;Gorec, Holland;calls;;;nan
l588;Jim New Anchorage;calls;;;nan
l589;Matavai;calls;-14.03208;-171.64768;nan
l590;Tonga;calls;4.96667;10.7;atlantic
l593;Pisang;calls;;;nan
l594;lost on Long Sand in the river Hugh 25/26;calls;;;nan
l595;burnt in Madras Roads;calls;;;nan
l596;Bonavista;calls;48.64989;-53.11474;atlantic
l597;Portsmouth Long Reach;calls;;;nan
l598;cape;calls;;;nan
l600;Ar Mokha;calls;;;nan
l601;lost in Ayoffe Bay, Cape Verde,;calls;;;nan
l602;Bombay Surat;calls;;;nan
l603;burntCeylon;calls;;;nan
l604;Pulo Bay;calls;;;nan
l605;Capt Torbay;calls;;;nan
l606;Downs Penang;calls;;;nan
l607;Urmston's Bay;calls;;;nan
l608;Chaul;calls;;;nan
l609;Enth;calls;;;nan
l610;driven on shore by a hurricane;calls;;;nan
l611;condemnedCalcutta;calls;;;nan
l612;Bantry Bay;calls;;;nan
l613;Galloway;calls;;;nan
l614;Second Bar â–  St Helena;calls;;;nan
l615;Lone Reach WreckedPlymouth;calls;;;nan
l616;in action against Portuguese;calls;;;nan
l617;voyages between Surat and Java in 1627, and;calls;;;nan
l618;laid upBantam;calls;;;nan
l619;Downs _ , i _.;calls;;;nan
l620;Borneo river;calls;;;nan
l621;Londonderry;calls;43.22646;-72.80649;atlantic
l622;burnt before;calls;;;nan
l623;Broken Ground' Bengal;calls;;;nan
l624;Kedgeree â–  Saugor;calls;;;nan
l625;burnt in the river Hugh;calls;;;nan
l626;lost in the river Hugh;calls;;;nan
l627;lost on the Shambles;calls;;;nan
l628;Ingeh;calls;;;nan
l629;Portsmouth as transport with HMS Salisbury and Seahorse under Commodore Sir Edward Hughes;calls;;;nan
l630;lost in Madras Roads;calls;;;nan
l631;lost on the Camicobar Jim;calls;;;nan
l632;Moco;calls;;;nan
l633;Shannon;calls;52.70389;-8.86417;british_isles
l634;Onroot;calls;;;nan
l635;Pulau Pisang Cape;calls;;;nan
l636;All Saints' Bay;calls;;;nan
l637;Downs * witnessed burning of Duke of Kingston, received survivors;calls;;;nan
l638;SWSMW1772;calls;;;nan
l639;Portsmouth June;calls;;;nan
l640;M Whampoa;calls;;;nan
l641;Pulo Massey;calls;;;nan
l642;PortsmouthSMay;calls;;;nan
l643;Severndroog;calls;;;nan
l644;Bancoot;calls;;;nan
l645;Portsmouth3 oÂ°Mar;calls;;;nan
l646;Teliicheriy;calls;;;nan
l647;Long Reach rescued crew of sinking Ganges;calls;;;nan
l648;Portlmmrth 8Â°May ^OS11;calls;;;nan
l649;pCS0r:â€œ;calls;;;nan
l650;saugor;calls;;;nan
l651;Downs capture of Mangalore fort from French;calls;;;nan
l652;lost on the Perates, South China Sea,;calls;;;nan
l653;wrecked south of the Paracels 1763, some survivors reached Canton See G/12/195 ff.30;calls;;;nan
l654;Sural;calls;;;nan
l655;Teilicherry;calls;;;nan
l656;Culpce;calls;;;nan
l657;Ingcli;calls;;;nan
l658;Kinsaie;calls;;;nan
l659;Eddystone;calls;39.86011;-75.34436;atlantic
l660;L/MAR/B/aSB Journal;calls;;;nan
l661;1741, Gabriel Steward [CapCI Portsmouth;calls;;;nan
l662;Chusan;calls;;;nan
l663;See G/12/16 Chusan Diary;calls;;;nan
l664;Port Dauphin, Madagascar;calls;;;nan
l665;off Newfoundland;calls;;;nan
l666;Downs See G/17/3 ff.81;calls;;;nan
l667;for invoices etcMokha;calls;;;nan
l668;Whampoa Downs;calls;;;nan
l669;Banjarmasin;calls;-3.31987;114.59075;southeast_asia
l670;Inseli;calls;;;nan
l671;Pernambuco;calls;-8.05389;-34.88111;atlantic
l672;Myapore;calls;;;nan
l673;Garden Reach;calls;;;nan
l674;Downs * inc Cargo Book;calls;;;nan
l675;Downs engagement with French privateer La Venus;calls;;;nan
l676;with Anglo;calls;;;nan
l677;Dutch Fleet of Defence from Japan;calls;;;nan
l678;All Saints5 Bay;calls;;;nan
l679;burnt in China;calls;;;nan
l680;Liverpool;calls;53.41058;-2.97794;british_isles
l681;Capt Thomas Forrest;calls;;;nan
l682;burntWhampoa;calls;;;nan
l683;remained in India, voyages to Bandar Abbas;calls;;;nan
l684;1647, Pegu 1648, Bantam;calls;;;nan
l685;Master Edmund Seaman;calls;;;nan
l686;Master Janus Couchman;calls;;;nan
l687;Gravsend;calls;;;nan
l688;Mew Island;calls;;;nan
l689;Alguarda;calls;;;nan
l690;Tnncomalee;calls;;;nan
l691;return to Bombay;calls;;;nan
l692;St St Helena;calls;;;nan
l693;Colombo Roads;calls;;;nan
l694;lostDondra Head, Ceylon,;calls;;;nan
l695;Bushire;calls;28.96887;50.83657;indian_ocean
l696;Bar;calls;49.07362;27.67404;indian_ocean
l697;Bajalar;calls;;;nan
l698;St Salvadore;calls;;;nan
l699;jun Penang;calls;;;nan
l700;captured by French 1809, re;calls;;;nan
l701;capturedMauritius;calls;;;nan
l702;Dutch Fleet of DefenceMalabar;calls;;;nan
l703;DowwMarll^Batavia;calls;;;nan
l704;Priaman;calls;;;nan
l705;Mauntius;calls;;;nan
l706;DownsDec;calls;;;nan
l707;Tappanooly Bay;calls;;;nan
l708;Portsitmuth nS^lSlO;calls;;;nan
l709;Calcutta 2^13^96^24 Saugor;calls;;;nan
l710;Capt Nathaniel Owen;calls;;;nan
l711;BL: Sloane Ms Journal;calls;;;nan
l712;1682, Thomas Crompton Cape;calls;;;nan
l713;Botun;calls;;;nan
l714;voyage ended summer;calls;;;nan
l715;Dhufar;calls;;;nan
l716;landed Sir Robert Sherleymouth of Indus;calls;;;nan
l717;Downs late;calls;;;nan
l718;broken up;calls;;;nan
l719;James Fort, Gambia;calls;;;nan
l720;Bay of Ayoffe;calls;;;nan
l721;James Fort;calls;;;nan
l722;voyage ended To look for survivors of Duke of Cumberland, lost in Bay of Ayoffe;calls;;;nan
l723;Belfast;calls;54.59682;-5.92541;british_isles
l724;Taiwan;calls;;;nan
l725;Pescadores;calls;;;nan
l726;captured by Dutch in Straits of Banca;calls;;;nan
l727;Anjengo St Helena;calls;;;nan
l728;parted company with the fleet in a gale in 8Â°80'S by 80'E, not heard of again;calls;;;nan
l729;lost in the river Hugli;calls;;;nan
l730;burnt in Bombay harbour;calls;;;nan
l731;Samarang;calls;-6.99306;110.42083;southeast_asia
l732;Bantam SoldBatavia;calls;;;nan
l733;capturedthe Lizard by a Flushing man;calls;;;nan
l734;of;calls;;;nan
l735;war and taken to Bergen;calls;;;nan
l736;wreckedBombay;calls;;;nan
l737;Sen Bcnkuien;calls;;;nan
l738;Jui St Helena;calls;;;nan
l739;Clyde;calls;41.30422;-82.97519;atlantic
l740;Blackwail;calls;;;nan
l741;stranded on Sogar Bank, Bengal,;calls;;;nan
l742;bt Helena;calls;;;nan
l743;captured on her passage to Bengal by the French frigate Piedmontaise;calls;;;nan
l744;London;calls;51.50853;-0.12574;british_isles
l745;Hong Kong Bay;calls;;;nan
l746;Jim Bombay;calls;;;nan
l747;Ganges;calls;43.93419;3.70797;atlantic
l748;L/MAM/A/LXXIV pp.52;calls;;;nan
l749;Journal;calls;;;nan
l750;Bangkok;calls;13.75398;100.50144;southeast_asia
l751;Ayutthaya;calls;14.35167;100.57739;southeast_asia
l752;L/MAE/A/LXXIV pp.125;calls;;;nan
l753;Journal Jun=10 Bantam;calls;;;nan
l754;Tonkin;calls;;;nan
l755;engagment with FrenchSao Tiago;calls;;;nan
l756;Cockelee;calls;;;nan
l757;captured by French frigate La Fine;calls;;;nan
l758;Capt Thomas Smith Downs;calls;;;nan
l759;Tcllicherry;calls;;;nan
l760;Plymouth * during the voyage there were deaths;calls;;;nan
l761;Barrabulla, Sumatra;calls;;;nan
l762;nampoa;calls;;;nan
l763;Rio de Janeior;calls;;;nan
l764;Andamans;calls;;;nan
l765;Balambang;calls;;;nan
l766;Tellicherty;calls;;;nan
l767;˜East Indies;calls;;;nan
l768;left Madras for Benkulen 1791, not heard of again See;calls;;;nan
l769;Bristol;calls;51.45523;-2.59665;british_isles
l770;Sulu Roads;calls;;;nan
l771;Carrick Roads;calls;;;nan
l772;Capt Thomas Newsham Portsmouth;calls;;;nan
l773;iph;calls;;;nan
l774;captured by French privateer L 'Aventure, crew placed on American ship Henry;calls;;;nan
l775;Long Beach;calls;33.91045;-78.11777;atlantic
l776;Goree;calls;;;nan
l777;Broken Ground;calls;;;nan
l778;Camicobar;calls;;;nan
l779;lostSt Vincent;calls;;;nan
l780;captured, with the Godfrey, Hillsborough, Mountstuart and Royal George, by the combined Franco;calls;;;nan
l781;Spanish fleet in 36028'N & 15Â°20'W;calls;;;nan
l782;lost on the Dutch coast;calls;;;nan
l783;Downs * assisted in capture of three Dutch shipsSt Helena;calls;;;nan
l784;Malaca;calls;36.72016;-4.42034;atlantic
l785;Whmpoa;calls;;;nan
l786;Chumpee;calls;;;nan
l787;L/MAR/B/290A Journal;calls;;;nan
l788;1795, anonChina;calls;;;nan
l789;Fernando Noronha;calls;;;nan
l790;Hugh river;calls;;;nan
l791;Downs St Helena;calls;;;nan
l792;Batavia St Helena;calls;;;nan
l793;Poole;calls;50.71429;-1.98458;british_isles
l794;Benguella;calls;-12.57626;13.40547;atlantic
l795;River Plate;calls;;;nan
l796;Quang Nam;calls;15.88853;108.25447;southeast_asia
l797;Bouro;calls;;;nan
l798;Sumbava;calls;;;nan
l799;off Ceylon;calls;;;nan
l800;Pattani,for Ayutthaya;calls;;;nan
l801;returned to Pattani,again;calls;;;nan
l802;voyage ended late;calls;;;nan
l803;Engano;calls;;;nan
l804;laid upBatavia 1623, rotten;calls;;;nan
l805;parted company in a gale in 8Â°30'S 80'E and not heard of again;calls;;;nan
l806;Capt Philip Browne Plymouth;calls;;;nan
l807;lost;calls;;;nan
l808;captured  by the combined Franco;calls;;;nan
l809;Spanish fleet in 36Â°28'N IS^O'W;calls;;;nan
l810;lostBombay;calls;;;nan
l811;Ryapore;calls;;;nan
l812;attempted mutiny;calls;;;nan
l813;penetrated Hudson's Strait but driven out and south;calls;;;nan
l814;Capt John North;calls;;;nan
l815;Capt James Cook;calls;;;nan
l816;Jim;calls;7.67344;36.83441;indian_ocean
l817;Capt Robert Potter Downs;calls;;;nan
l818;sold in India;calls;;;nan
l819;Assembledthe Cape by the Fourth Voyage;calls;;;nan
l820;blownSocotra, ran ashore on Gujarat coast about Aug, crew deserted;calls;;;nan
l821;Capt James Murvell;calls;;;nan
l822;lost in Bengal;calls;;;nan
l823;not heard of since the storm in Bengal;calls;;;nan
l824;˜English coast;calls;;;nan
l825;off Dungeness;calls;;;nan
l826;Sillebar;calls;;;nan
l827;Downs See D/99 ff.5;calls;;;nan
l828;for a crew list;calls;;;nan
l829;Maldives;calls;;;nan
l830;Sheemess;calls;;;nan
l831;lostFolkestone;calls;;;nan
l833;captured by the Frenchthe Cape;calls;;;nan
l834;Gravesend * attacked by piratesJohanna;calls;;;nan
l835;Managalore;calls;;;nan
l836;Erith See D/98 ff.250;calls;;;nan
l837;Downs See E/3/21 no.2081;calls;;;nan
l838;ship lostthe 'island of Zelo;calls;;;nan
l839;Whampo;calls;;;nan
l840;wreckedPondoland, South Africa,;calls;;;nan
l841;Sydney;calls;46.1351;-60.1831;atlantic
l842;lost between Peverill Point and St Alban's Head, Isle of Purbeck See A circumstantial narrative of the loss of the Halsewell...;calls;;;nan
l843;Point de Gallc;calls;;;nan
l844;captured by the Dutch in the Banka Straits;calls;;;nan
l845;disappeared between Balasore and Masulipatam;calls;;;nan
l846;Morendavia Bay;calls;;;nan
l847;Jim Fort St David;calls;;;nan
l848;Capt Edmund Scott;calls;;;nan
l849;Tenerife ~ Madras;calls;;;nan
l850;Calcutta = St Helena;calls;;;nan
l851;Pondicheny;calls;;;nan
l852;Madras = Penang = Calcutta = Kedgeree;calls;;;nan
l853;St Helena = Downs;calls;;;nan
l854;Achch;calls;;;nan
l855;Table Bay;calls;;;nan
l856;Vizagapatam = Madras;calls;;;nan
l857;Saugor = Point de Gallc;calls;;;nan
l858;Downs * pen & ink sketch of the ship;calls;;;nan
l859;burntCalcutta;calls;;;nan
l862;Sohar;calls;24.34745;56.70937;indian_ocean
l863;Lagundy;calls;;;nan
l864;Japara;calls;-6.5924;110.671;southeast_asia
l865;Downs * journal includes sketches;calls;;;nan
l866;voyage ended by;calls;;;nan
l867;Bowns;calls;;;nan
l868;Sind;calls;46.58333;23.71667;indian_ocean
l869;remained in India ?;calls;;;nan
l870;lostBonavista;calls;;;nan
l872;returned to Benkulen, gale damaged;calls;;;nan
l873;portsmouth;calls;;;nan
l874;Helena;calls;36.54614;-98.27007;atlantic
l875;Malabar coast;calls;;;nan
l876;lost in the Bab el Mandeb;calls;;;nan
l877;11May St Helena;calls;;;nan
l878;took part in capture of San Antonio carrack in Straits of Malacca;calls;;;nan
l879;river Tapti;calls;;;nan
l880;Red Sea blockade;calls;;;nan
l881;Bantam, abandoned, rotten;calls;;;nan
l882;coast of Sindey;calls;;;nan
l883;Bally Town;calls;;;nan
l884;lost on Bembridge Ledge, Isle of Wight,;calls;;;nan
l885;â– 51 St Helena;calls;;;nan
l886;Lintin Roads;calls;;;nan
l887;"Whampoa "" Second Bar";calls;;;nan
l888;Karakaul;calls;;;nan
l889;Dublin;calls;53.33306;-6.24889;british_isles
l890;fought with French warships, blown upJohanna;calls;;;nan
l891;Capt Richard Chadsley Downs;calls;;;nan
l892;Bassein;calls;16.77919;94.73212;bengal_presidency
l893;Poolo Bay;calls;;;nan
l894;Dock;calls;;;nan
l895;1^26 St Helena;calls;;;nan
l896;Singapaore;calls;;;nan
l897;Cap Sing Moon;calls;;;nan
l898;Capt William Morris Downs;calls;;;nan
l899;Capt John Hazlewood;calls;;;nan
l900;lost in Persia;calls;;;nan
l901;The Hope;calls;;;nan
l902;captured with Gatton, Godfrey, Mountstuart and Royal George by combined Franco;calls;;;nan
l903;Spanish fleet in 36Â°28'N 15Â°20'W;calls;;;nan
l904;lost in the Bengal river;calls;;;nan
l905;repairedcoast of China;calls;;;nan
l906;Srat;calls;;;nan
l907;voyages between Bantam and Surat;calls;;;nan
l911;Cochin China;calls;;;nan
l912;off Teinchin;calls;;;nan
l913;Capt George Millett Fortmouth;calls;;;nan
l914;Anger;calls;47.27422;15.69139;atlantic
l915;Killybeg' Ireland;calls;;;nan
l916;Dutch Fleet of Defence based in Japan;calls;;;nan
l917;L/MAR/B/168;calls;;;nan
l918;I Journal;calls;;;nan
l919;1806, anon Left Bengal;calls;;;nan
l920;St Margaret's Orkney;calls;;;nan
l921;Labrador;calls;16.02812;120.14424;southeast_asia
l922;presumably laid up, rotten;calls;;;nan
l923;Princes' Island;calls;;;nan
l925;captured by the DutchPattani;calls;;;nan
l926;Gomes Island;calls;;;nan
l927;Rendezvous Island' Borneo;calls;;;nan
l929;broughtsettlers after Dutch capture of St Helena on;calls;;;nan
l930;towards England' HURLEY;calls;;;nan
l931;Cap Sing Moon Bay;calls;;;nan
l932;Bandar Abbas Bombay;calls;;;nan
l933;Hobart;calls;44.49925;-88.14986;atlantic
l934;Capt Robert Hill;calls;;;nan
l935;to remain;calls;;;nan
l936;New York;calls;42.55779;-88.86511;atlantic
l937;Hamburg;calls;42.71589;-78.82948;atlantic
l938;Cap Sprat;calls;;;nan
l939;from England;calls;;;nan
l940;Whampa;calls;;;nan
l941;Pattern;calls;;;nan
l942;Scillies;calls;;;nan
l943;Sierra Leone;calls;;;nan
l945;Downs Broken up in;calls;;;nan
l946;Tanjayang;calls;;;nan
l947;Capt John Balchen;calls;;;nan
l948;Dutch Fleet of Defence based m Japan;calls;;;nan
l949;Trimdade;calls;;;nan
l950;returned to Bantam;calls;;;nan
l951;Jim Madeira;calls;;;nan
l952;Amboyna;calls;-3.69583;128.18333;southeast_asia
l953;Colvin's Ghat;calls;;;nan
l954;Capl Michael Martin;calls;;;nan
l955;St Salvadorc;calls;;;nan
l956;parted companyMauritius and not heard of again;calls;;;nan
l957;Masuhpatam;calls;;;nan
l958;Masulipalam;calls;;;nan
l959;left Bantam for Surat summer 1641. not heard of again;calls;;;nan
l960;wrecked Cape Aghulas. South Africa;calls;;;nan
l961;Downs Muckncll seized the ship on behalf of Charles I;calls;;;nan
l962;Bandar Abbas ' Surat;calls;;;nan
l963;left Bantam and not heard of again;calls;;;nan
l965;Cascais;calls;38.69681;-9.42147;atlantic
l966;voyage ended Bristol;calls;;;nan
l967;Djapara;calls;;;nan
l968;Madapollam;calls;;;nan
l969;Johore river;calls;;;nan
l970;Lmtin;calls;;;nan
l971;voyage ended Downs;calls;;;nan
l972;Cape Verde Islands;calls;;;nan
l974;Kmsale;calls;;;nan
l975;Indialee;calls;;;nan
l977;Pnng Manna;calls;;;nan
l978;captured by a French privateerthe Sand Heads;calls;;;nan
l979;burnt in the Bay of Biscay;calls;;;nan
l980;Acension;calls;;;nan
l981;Cape St Mary, Madagascar;calls;;;nan
l982;"Erith [""this concludes a long and dangerous voyage""]";calls;;;nan
l983;lostMadras;calls;;;nan
l984;North Island;calls;;;nan
l985;Coopers Bay;calls;;;nan
l986;Madras â–  Madras;calls;;;nan
l987;wrecked on Leytons Rock, south;calls;;;nan
l988;west of Bonavista island;calls;;;nan
l989;Culpee Madras;calls;;;nan
l990;Capt Henry Becher Portsmouth;calls;;;nan
l991;Saugor St Helena Downs;calls;;;nan
l992;Algoa Bay;calls;;;nan
l993;Benkulen St Helena;calls;;;nan
l994;Capt George Simpson Torbay;calls;;;nan
l995;Downs * journal contains a chart of New South Wales;calls;;;nan
l996;Released by the French in Simons Bay;calls;;;nan
l997;Banca Straits;calls;;;nan
l998;Borneo coast;calls;;;nan
l999;off Madagascar;calls;;;nan
l1000;sold in Bengal;calls;;;nan
l1001;Eastern Channel;calls;;;nan
l1002;Caipang Bay;calls;;;nan
l1003;Tasmama;calls;;;nan
l1004;in action agst French ships;calls;;;nan
l1005;Capt James Shrive;calls;;;nan
l1006;Pulau Condore;calls;;;nan
l1007;lostMozambique;calls;;;nan
l1008;Dunnose;calls;;;nan
l1009;St Eustatia;calls;;;nan
l1010;Jim Mauritius;calls;;;nan
l1011;off Pondicherry;calls;;;nan
l1012;driven on shore near Fort St David by a violent wind, abandoned;calls;;;nan
l1013;fired herself m action agst PortugueseBandar Abbas;calls;;;nan
l1014;Moheli Madras;calls;;;nan
l1015;Telhcherry;calls;;;nan
l1016;Portland Bill;calls;;;nan
l1017;Hollis Bay;calls;;;nan
l1018;St Helena, to settle the island;calls;;;nan
l1019;Makassar;calls;-5.14861;119.43194;southeast_asia
l1020;Pulau Run;calls;;;nan
l1021;Downs * includes 'Directions from Bantam to Makassar' by John Edwards;calls;;;nan
l1022;Capt John Privett;calls;;;nan
l1023;Capt Joseph Eaton;calls;;;nan
l1024;Johore;calls;1.4655;103.7578;southeast_asia
l1025;off Parcelar;calls;;;nan
l1026;Portsmouth Dock;calls;;;nan
l1027;Madras, to remain;calls;;;nan
l1028;Second Bar St Helena;calls;;;nan
l1029;run down by HMS RussellBerry Head, total loss;calls;;;nan
l1030;capture of French ship Ceres;calls;;;nan
l1031;Downs * log includes crew list of Regent;calls;;;nan
l1032;went ashoreKedgeree in a hurricane, condemned;calls;;;nan
l1033;off Bantam;calls;;;nan
l1034;Culpee, to remain in India;calls;;;nan
l1035;St George's Channel;calls;;;nan
l1036;DootTm S7l763;calls;;;nan
l1037;Madias;calls;;;nan
l1038;lost nine miles to southwards of Boulogne;calls;;;nan
l1039;Cupee;calls;;;nan
l1040;ship lost;calls;;;nan
l1041;taken by French privateer Bellona;calls;;;nan
l1042;recaptured by HMS Colossus;calls;;;nan
l1043;Capt William Hambly Portsmouth;calls;;;nan
l1044;SÃ£o Tiago;calls;;;nan
l1045;Boeton;calls;-5.4633;122.6024;southeast_asia
l1046;Downs April;calls;;;nan
l1048;Rogue's River;calls;;;nan
l1049;M;calls;;;nan
l1050;Capt Nathamel Horseman;calls;;;nan
l1051;Downs * f. lOv sketch of Table Bay;calls;;;nan
l1052;Miapore;calls;;;nan
l1053;Leith Road;calls;;;nan
l1054;Fultah;calls;;;nan
l1055;Sagor;calls;;;nan
l1056;St Croix;calls;17.72751;-64.74698;atlantic
l1057;Bankshall;calls;;;nan
l1058;attacked by three French warships nr Ganjam;calls;;;nan
l1059;Rogues Rrver;calls;;;nan
l1060;Cox s Island;calls;;;nan
l1061;burnt in the Thames;calls;;;nan
l1062;Luanda;calls;0.31354;34.07146;indian_ocean
l1063;Downs * The shipPortsmouth 1804, to remain in India;calls;;;nan
l1064;Ar St Helena;calls;;;nan
l1065;wreckedMadras * journal includes minutes of enquiry into the loss;calls;;;nan
l1066;Dover;calls;51.12598;1.31257;british_isles
l1067;^ Saugor;calls;;;nan
l1068;went aground in the Bombay harbour;calls;;;nan
l1069;lost on Margate Sands;calls;;;nan
l1070;wrecked in the Hugh;calls;;;nan
l1071;San Thome;calls;;;nan
l1072;forced back to St Augustine's Bay;calls;;;nan
l1073;Capt Matthew Crover;calls;;;nan
l1074;The Nore;calls;;;nan
l1075;Tellicherxy;calls;;;nan
l1076;Downs * journal includes coastline profiles of St Helena;calls;;;nan
l1077;Downs * includes cargo book;calls;;;nan
l1078;sailing between the island, the Cape and Madagascar;calls;;;nan
l1079;Portsmouth M;calls;;;nan
l1080;Sao Thome;calls;0.33654;6.72732;atlantic
l1081;Bandar;calls;2.05;99.75;southeast_asia
l1082;Capt Roger Paxton;calls;;;nan
l1083;Frith;calls;;;nan
l1084;Southampton;calls;50.90395;-1.40428;british_isles
l1085;turned pirate after leaving Bombay;calls;;;nan
l1086;lost in a hurricane;calls;;;nan
l1087;Burah Bazaar;calls;;;nan
l1088;Surabaya;calls;-4.67122;105.72571;southeast_asia
l1089;Downs * & engagements with Angria pirates;calls;;;nan
l1090;coasting;calls;;;nan
l1091;blown upDiamond Point;calls;;;nan
l1092;joined Fleet of Defence based in Japan;calls;;;nan
l1093;wrecked in Dover Roads;calls;;;nan
l1095;captured by Algerine pirates;calls;;;nan
l1096;driven from anchors in a storm and wrecked on 'Fly Island', Holland;calls;;;nan
l1097;July Madras;calls;;;nan
l1098;2i jun Whampoa;calls;;;nan
l1099;Cor;calls;;;nan
l1100;captured with the Gatton, Godfrey, Hillsborough and Royal George by the combined Franco;calls;;;nan
l1101;Left India;calls;;;nan
l1102;lost with all handsRoscvear, Scilly;calls;;;nan
l1103;Kinsalc;calls;;;nan
l1104;Beachy Head;calls;;;nan
l1105;Dee Ingcli;calls;;;nan
l1106;Culpcc;calls;;;nan
l1107;Ingcli Dee;calls;;;nan
l1108;sank leaguesthe Lizard;calls;;;nan
l1109;Dee Bombay;calls;;;nan
l1110;Dee Sural;calls;;;nan
l1111;Banlal;calls;;;nan
l1112;Bcnkulcn;calls;;;nan
l1113;Dee Cuddalorc;calls;;;nan
l1114;Texcl;calls;;;nan
l1115;Dee Benkulen;calls;;;nan
l1116;Manduta;calls;;;nan
l1117;downs;calls;;;nan
l1118;in the Channel;calls;;;nan
l1119;lost'Manacaree;calls;;;nan
l1120;Ballamboan;calls;;;nan
l1121;Downs * diagram of fleet's sailing order;calls;;;nan
l1122;Rajah Basa Roads;calls;;;nan
l1124;laid up, rotten;calls;;;nan
l1125;Capt William Mackett Downs;calls;;;nan
l1126;list of men transfer to the Nonsuch after the wreck of the Vansittart 'Sangee Booloo' Bay;calls;;;nan
l1127;Dublin Bay;calls;;;nan
l1128;Madasgascar;calls;;;nan
l1129;S2o Tiago;calls;;;nan
l1130;disappeared after leaving Madras on;calls;;;nan
l1131;blown upsea;calls;;;nan
l1132;parted from the Hardwick in a violent storm about leagues east of Bourbon and not heard of again;calls;;;nan
l1133;˜At China;calls;;;nan
l1134;Porthsmouth;calls;;;nan
l1135;Oc Bombay;calls;;;nan
l1136;San Salvadore;calls;;;nan
l1137;Downs * includes a letter from Dutch EIC agents about prisoners of war,;calls;;;nan
l1138;lost in Margate Road;calls;;;nan
l1139;Lankeet Flat;calls;;;nan
l1140;struck reef of Kalata 7Â°9,S 121Â°E, ship scuttled Feb,island in small boats;calls;;;nan
l1141;off Chumpee;calls;;;nan
l1142;Port Philip;calls;;;nan
l1143;at Port Jackson;calls;;;nan
l1144;II Cape;calls;;;nan
l1145;Bomay;calls;;;nan
l1146;Balassore;calls;;;nan
l1147;San Savadore;calls;;;nan
l1148;captured by French ship La Forte of guns, badly damaged, allowed to proceed;calls;;;nan
l1149;reclaimed as a prize by La Sybille, allowed to proceed;calls;;;nan
l1150;Mozamibique;calls;;;nan
l1151;Mozambique Chanel;calls;;;nan
l1152;voyage ended mid;calls;;;nan
l1153;at Cape;calls;;;nan
l1154;left Priaman;calls;;;nan
l1155;at Ceylon in;calls;;;nan
l1156;left for England 1613, arrived in the autumn;calls;;;nan
l1157;Armagon;calls;;;nan
l1158;laid upBantam in;calls;;;nan
l1159;not heard of since the storm in the river Hugh;calls;;;nan
l1160;towards Lisbon;calls;;;nan
l1161;blockadeAden;calls;;;nan
l1162;Starits of Sunda;calls;;;nan
l1163;laid up in Java as a careening hulk;calls;;;nan
l1164;Downs * sketches f.22 Trinidade, f.32 Cape;calls;;;nan
l1165;blown upMadras;calls;;;nan
l1166;lostScilly;calls;;;nan
l1167;lost near Cape Comorin;calls;;;nan
l1168;Colombo Bombay;calls;;;nan
l1169;Madras Downs;calls;;;nan
l1170;manna;calls;;;nan
l1171;captured French brig La France;calls;;;nan
l1172;captured by French and taken into Mauritius, prisoners freedBombay;calls;;;nan
l1173;Downs * see 'The voyage of the Pitt;calls;;;nan
l1174;a turning point in the East India navigation', R P Crowhurst, Mariner's Mirror  pp.43;calls;;;nan
l1175;Trinidale;calls;;;nan
l1177;Capt Benjamin Fisher Portsmouth;calls;;;nan
l1178;Balasore Calcutta;calls;;;nan
l1179;Batticaloa;calls;7.7102;81.6924;madras_presidency
l1180;Hog River Creek, Bengal;calls;;;nan
l1181;wrecked 9/11 Helston Rocks, Mount's Bay, Cornwall;calls;;;nan
l1182;Porto Novo;calls;17.01969;-25.06471;atlantic
l1183;Do Ingeli;calls;;;nan
l1184;returned to Pondicheny;calls;;;nan
l1186;Manabulle;calls;;;nan
l1187;Natal;calls;0.5632;99.1099;southeast_asia
l1188;Lye Road;calls;;;nan
l1190;not heard of after the;calls;;;nan
l1191;Tynemouth;calls;55.01788;-1.42559;british_isles
l1192;King's Channel;calls;;;nan
l1193;Tamborneo;calls;;;nan
l1194;Teignmouth;calls;50.54581;-3.49671;british_isles
l1195;Iceland;calls;;;nan
l1196;Gunfleet;calls;;;nan
l1197;Malacca Whampoa;calls;;;nan
l1198;Isle of Wight;calls;36.90765;-76.70773;atlantic
l1199;New Year's Island;calls;;;nan
l1204;off Morotai;calls;;;nan
l1205;off Taiwan;calls;;;nan
l1206;left Madras and foundered in a gale;calls;;;nan
l1207;Portsmouth Madras;calls;;;nan
l1208;Capt John Innes Downs;calls;;;nan
l1209;Madras, decoyed and captured there bv the French;calls;;;nan
l1210;burntPigeon Island;calls;;;nan
l1211;taken by the French;calls;;;nan
l1212;Straits of New Guinea;calls;;;nan
l1213;returned to Macao;calls;;;nan
l1214;Pearl River;calls;32.78347;-89.22784;atlantic
l1215;Bab el Mandel;calls;;;nan
l1216;captured by a French frigate in Vizagapatam Roads;calls;;;nan
l1217;lost on a reefMaio, Cape Verde Islands;calls;;;nan
l1218;returned to Kinsale;calls;;;nan
l1219;capturedMadras by the French;calls;;;nan
l1220;returned to Penang;calls;;;nan
l1221;Culpeee;calls;;;nan
l1222;off Beachy Head;calls;;;nan
l1223;off Java Head;calls;;;nan
l1224;captured by the FrenchAnger Point;calls;;;nan
l1225;Croce;calls;;;nan
l1226;Geriah;calls;;;nan
l1227;East India Docks;calls;;;nan
l1228;taken by the FrenchSt Helena;calls;;;nan
l1229;burntSan Salvadore;calls;;;nan
l1230;along Sumatra coast;calls;;;nan
l1231;* inc coastline sketches;calls;;;nan
l1232;Cape Lagullas, False Cape, St Helena;calls;;;nan
l1233;off Bankshall;calls;;;nan
l1234;returned by;calls;;;nan
l1235;captured in Tellicheny Roads by French frigate Prenuse;calls;;;nan
l1236;Downs Dee;calls;;;nan
l1237;Downs Jim;calls;;;nan
l1238;Dee Calcutta;calls;;;nan
l1239;Surat Dee;calls;;;nan
l1240;Mohcli;calls;;;nan
l1241;Bantam, foundered May, broken up;calls;;;nan
l1242;lost nr Manila;calls;;;nan
l1243;6'Aug Penang;calls;;;nan
l1244;Capt Francis Wilshaw;calls;;;nan
l1245;lost in a storm in Balasore Roads between;calls;;;nan
l1246;off Bengal;calls;;;nan
l1247;gap;calls;44.55858;6.07868;atlantic
l1248;Cock Island;calls;;;nan
l1249;Island;calls;;;nan
l1250;Nagasaki;calls;32.75;129.88333;china
l1252;A Downs;calls;;;nan
l1253;Pulo Timan;calls;;;nan
l1254;Capt William Dyke;calls;;;nan
l1255;Capt John Bromwell;calls;;;nan
l1256;Kitow;calls;;;nan
l1257;Capt William Browne;calls;;;nan
l1258;Kisnapatam;calls;;;nan
l1259;Downs Sankher anchorsGarden Island, Western Australia, 1831. Her emigrant passengers established the settlement Rockingham Town.;calls;;;nan
l1260;Coromandel Coast;calls;;;nan
l1261;in England by;calls;;;nan
l1262;at Priaman and Tiku in;calls;;;nan
l1263;at Surat and Mokha in;calls;;;nan
l1264;at Batavia and Masulipatam in;calls;;;nan
l1265;ran ashore nr Masulipatam in 1626, burnt;calls;;;nan
l1266;captured a French slaver;calls;;;nan
l1267;Jaggemaickpuram;calls;;;nan
l1268;Barrier Islands;calls;;;nan
l1269;lost on shoalsPalawan;calls;;;nan
l1270;longboat reached Balambangan;calls;;;nan
l1271;crew home on Syren;calls;;;nan
l1272;Pulao Bay;calls;;;nan
l1273;Jim Downs;calls;;;nan
l1274;enaged in siege of Pondicherry in;calls;;;nan
l1275;Calderoon Bay;calls;;;nan
l1276;Cabinda Bay, Angola;calls;;;nan
l1277;captured, with the Gatton, Godfrey, Hillsborough and Mountstuart, by the combined Franco;calls;;;nan
l1278;Spanish fleet in 26Â°28'N & 15Â°20'W;calls;;;nan
l1279;Uockelee;calls;;;nan
l1280;Straits of Malacca;calls;;;nan
l1281;Downs * inc col sketches of islands in Straits of Malacca;calls;;;nan
l1282;journal ends 1689, northwards of Batavia;calls;;;nan
l1283;wrecked Bay of Bengal;calls;;;nan
l1284;L/MAR/A/XCVIII Journal;calls;;;nan
l1285;Sutanati;calls;;;nan
l1286;Capt William Blundell;calls;;;nan
l1287;Downs Sold;calls;;;nan
l1288;Capt John Barber Downs;calls;;;nan
l1289;lost'Mayota;calls;;;nan
l1290;Capt John Hitchings Calcutta;calls;;;nan
l1291;Capt Anthony Ryan;calls;;;nan
l1292;Angra Pequena;calls;;;nan
l1293;captured by 'the desperado Don Antonio Constanti' 1830, saved by the carpenter and remaining five crew, reached Sierra Leone;calls;;;nan
l1294;cruising with Harrington;calls;;;nan
l1295;Tellicheriy;calls;;;nan
l1296;St Paul's, Luanda;calls;;;nan
l1297;Culpee Ingeli;calls;;;nan
l1298;Downs Guinea;calls;;;nan
l1299;Madras wrecked between Masulipatam and Madapollam;calls;;;nan
l1300;Downs Bantam;calls;;;nan
l1301;off Batavia;calls;;;nan
l1302;f.32 sketches of Cape of Good Hope and Cape False ff.101;calls;;;nan
l1303;navigational rules;calls;;;nan
l1304;Capt Anthony Earning Downs;calls;;;nan
l1305;Kharg;calls;;;nan
l1306;off the Lizard;calls;;;nan
l1307;abandoned in the Atlantic 1610, empty;calls;;;nan
l1308;Surat, attacked by Portuguese Dec, fired to prevent her capture;calls;;;nan
l1309;captured by French, ransomed;calls;;;nan
l1310;hugli river;calls;;;nan
l1311;˜Caracf;calls;;;nan
l1312;Genoa;calls;41.51811;-83.35909;atlantic
l1313;Leghorn;calls;43.54427;10.32615;atlantic
l1314;Capt Simon Cumberland;calls;;;nan
l1315;Kenmair river, Ireland;calls;;;nan
l1316;Second â–  St Helena;calls;;;nan
l1317;Spithcad;calls;;;nan
l1318;Anjcngo;calls;;;nan
l1319;encounter with William Kidd the pirate in the Bab cl Mandeb;calls;;;nan
l1320;Downs * f.7v list of officers, against each name an armorial seal;calls;;;nan
l1321;wreckedNash Point, Bristol Channel.;calls;;;nan
l1322;Capt Thomas Woodcock;calls;;;nan
l1323;Borrum;calls;;;nan
l1324;Aden, abandoned there in;calls;;;nan
l1325;Okinawa;calls;26.33583;127.80139;china
l1326;cPulau Laurotf;calls;;;nan
l1327;did not return;calls;;;nan
l1328;L/MAR/B/340A Journal;calls;;;nan
l1329;1803, anon Calcutta;calls;;;nan
l1330;Culpec;calls;;;nan
l1331;Capt Richard Wouldhave;calls;;;nan
l1332;Hog River;calls;;;nan
l1333;Downs * inc list of French prisoners;calls;;;nan
l1334;damaged in storm, forced back for repairs;calls;;;nan
l1335;Jim St Helena;calls;;;nan
l1336;skirmish with French privateer La Venus, prisoners taken;calls;;;nan
l1337;parted company from the Union and not heard of again;calls;;;nan
l1338;lost on the bar of Tonkin;calls;;;nan
l1339;arrived in England after August;calls;;;nan
l1340;captured by Dutch nr Pulo Run;calls;;;nan
l1341;Dewas;calls;22.96585;76.05526;indian_ocean
l1343;Trengganu;calls;5.3302;103.1408;southeast_asia
l1344;lost in the Hugli river;calls;;;nan
l1345;Salsette;calls;;;nan
l1346;Woolwich * B ff.38v;calls;;;nan
l1347;& C ff.56;calls;;;nan
l1348;57, 59y;calls;;;nan
l1349;60v action agst Angria's fleet;calls;;;nan
l1350;captured by Dutch in Straits of Sunda 1619, recovered;calls;;;nan
l1351;in action agst Portuguese;calls;;;nan
l1352;Armagaon;calls;;;nan
l1353;off Spithead;calls;;;nan
l1354;Mary Surat;calls;;;nan
l1355;Scafareen Roads, Ireland;calls;;;nan
l1356;lost in hugli river;calls;;;nan
l1357;captured by the French in 9Â°S 91Â°E, recapturedBourbon;calls;;;nan
l1359;Java Head;calls;;;nan
l1360;lost nr St Thomas's Mount;calls;;;nan
l1361;Leith Roads;calls;;;nan
l1362;Downs * inc coastal profiles, sketch of encounter with a French ship;calls;;;nan
l1363;Jim Malacca;calls;;;nan
l1364;wrecked'Engano', Sumatra,;calls;;;nan
l1365;Banaca;calls;;;nan
l1366;Capt Francis Johnson;calls;;;nan
l1367;Capt Nathaniel Reynolds Downs;calls;;;nan
l1368;Point dc Galle;calls;;;nan
l1369;Indramayo;calls;;;nan
l1370;Woolwich LJFcb;calls;;;nan
l1371;arrived in England before;calls;;;nan
l1372;parted company from the Hector after three months, not heard of again;calls;;;nan
l1373;Macassar Batavia;calls;;;nan
l1374;Surat, accidentally fired;calls;;;nan
l1375;Capt John Bell Downs;calls;;;nan
l1377;at Bantam in each year;calls;;;nan
l1379;Trincomale;calls;;;nan
l1380;Balambangam;calls;;;nan
l1381;Downs * inc inventory of stores;calls;;;nan
l1382;Gt Yarmouth;calls;;;nan
l1383;Amsterdam Island;calls;;;nan
l1384;Bass Straits;calls;;;nan
l1386;Sajo Island;calls;;;nan
l1387;off Newfoundland Banks;calls;;;nan
l1388;Benkulen Whampoa;calls;;;nan
l1389;St Helena Downs;calls;;;nan
l1390;Portsmouth St Helena;calls;;;nan
l1391;Second Bar Cape;calls;;;nan
l1392;Capt John Skottowe Plymouth;calls;;;nan
l1393;St Helena Whampoa;calls;;;nan
l1394;went on shoreBeachy Head Feb, returned to Thames;calls;;;nan
l1395;Cheduba;calls;;;nan
l1396;Toun;calls;46.75118;7.62166;atlantic
l1397;Capsmgmoon Passage;calls;;;nan
l1398;left Bengal St Helena;calls;;;nan
l1399;participated in blockade of Red Sea until;calls;;;nan
l1400;Inn Bombay;calls;;;nan
l1401;Bombay Penang;calls;;;nan
l1402;Macassar Jul, wrecked '12 leagues out;calls;;;nan
l1403;wreckedPortquin, Cornwall,;calls;;;nan
l1404;Received Royal licence;calls;;;nan
l1405;left Cowes with Tiger's Whelp pinnace;calls;;;nan
l1406;Coast of Sumatra;calls;;;nan
l1407;left for Pattani Nov, attacked by Japanese pirates, pilot John Davis killed, voyage abandoned;calls;;;nan
l1408;Portsmouth See Purchas vol. bk.3 chap. s.6 for a summary journal, and The voyages and works of John Davis the Navigator, ed Albert Hastings Markham, Hakluyt Soc 1st ser no.59;calls;;;nan
l1409;Goa Bombay;calls;;;nan
l1410;Johnna;calls;;;nan
l1411;Second I;calls;;;nan
l1412;Sao Paulo;calls;-23.5475;-46.63611;atlantic
l1413;L/MAR/B/689B Journal;calls;;;nan
l1414;1713, William Wingfield, Chief Mate Downs;calls;;;nan
l1415;Bantam, ship abandoned after death of Middleton 1613, eventually burnt by Javanese in or;calls;;;nan
l1416;Capt Thomas Sanders Downs;calls;;;nan
l1417;wrecked in the Andaman Islands;calls;;;nan
l1418;wrecked on 'Trial Rocks' leaguesWestern Australia, survivors reached Bantam;calls;;;nan
l1419;Lough Swilly, Donegal;calls;;;nan
l1420;Launched Madras;calls;;;nan
l1421;Capt Gilbert Slater Downs;calls;;;nan
l1422;Loronho Bay;calls;;;nan
l1423;Straits of Sunda;calls;;;nan
l1424;course changed on news of French warshipsBantam;calls;;;nan
l1425;Rajapore;calls;;;nan
l1426;Whampoa . Second Bar;calls;;;nan
l1427;Downs * inc sketches of Trinidade;calls;;;nan
l1428;captured by the French in Balasore Roads;calls;;;nan
l1429;Downs * inc note 'state of the sails;calls;;;nan
l1430;Dunderogipore;calls;;;nan
l1431;Straits of Banca;calls;;;nan
l1432;Rio dc Janeiro;calls;;;nan
l1433;Pulo Auroe;calls;;;nan
l1434;Downs * inc illus;calls;;;nan
l1435;parted company in China Seas and not heard of again;calls;;;nan
l1436;left Portsmouth for India;calls;;;nan
l1437;[to Boston via Lisbon in an un;calls;;;nan
l1438;named vessel;calls;;;nan
l1439;Boston 1698, for Rhode Island, Newfoundland and London;calls;;;nan
l1440;at Tonkin;calls;;;nan
l1441;wrecked nr Macao en route to Japan;calls;;;nan
l1442;Zanzibar;calls;-6.16394;39.19793;indian_ocean
l1443;wrecked on rocks of Audierne, Britanny, for lack of crew, cargo looted;calls;;;nan
l1444;Indremayo;calls;;;nan
l1445;Coringa Roads;calls;;;nan
l1446;captured by French ships La Manche and La Venus 1809. officers landedVizagapalam;calls;;;nan
l1447;Hainan;calls;;;nan
l1448;lost on He de MerchantSark [wreck discovered 1976];calls;;;nan
l1449;Monsourcottah;calls;;;nan
l1450;wreckedMaio, Cape Verde Islands;calls;;;nan
l1451;wrecked on a rock in Straits of Caspar, crew escaped in ship's boats;calls;;;nan
l1452;River Shanon;calls;;;nan
l1453;Cmdr Lt Alexander Davidson RN Calcutta;calls;;;nan
l1454;Princess Island;calls;;;nan
l1455;capturedCeylon by two French ships;calls;;;nan
l1456;Calingapatam;calls;;;nan
l1457;wrecked in a storm in Margate Roads;calls;;;nan
l1458;off Pondicherry with Admiral Cornwallis's squadron;calls;;;nan
l1459;Penang : Malacca;calls;;;nan
l1460;Diamond Island;calls;;;nan
l1462;Sapi Bay, Celebes;calls;;;nan
l1463;at St Helena;calls;;;nan
l1464;at Benkulen;calls;;;nan
l1465;captured by the French frigate La Piedmontaise in 26Â°13'S 56Â°45,W;calls;;;nan
l1466;Toonkoo Bay;calls;;;nan
l1467;Ventry Harbour, Ireland;calls;;;nan
l1468;Downs See Barlow's Journal, ed Basil Lubbock  pp.502;calls;;;nan
l1469;Chittagong river;calls;;;nan
l1470;Bimlipatam;calls;;;nan
l1471;He de Rhe;calls;;;nan
l1472;lost leaguesSurat;calls;;;nan
l1473;laid upBatavia;calls;;;nan
l1474;Chow;calls;;;nan
l1475;long;calls;18.07422;99.83073;indian_ocean
l1476;LSaugor;calls;;;nan
l1477;Onraet;calls;;;nan
l1478;lost to the east of Algoa Bay in 1814, no survivors;calls;;;nan
l1479;driven on shore nr Fort St David by 'a violent storm of wind;calls;;;nan
l1480;Ingeli Mar, lost on Caspar Sands same day;calls;;;nan
l1481;ship leaky;calls;;;nan
l1482;captured by French La Venus;calls;;;nan
l1483;retaken by HMS Magicienne;calls;;;nan
l1484;captured by French La Bellona;calls;;;nan
l1485;retaken, supplied with a new crewBourbon Nov,Bourbon;calls;;;nan
l1486;Bellial, Portugal;calls;;;nan
l1487;lostMadagascar;calls;;;nan
l1488;captured by French frigate La Prenuse in Tellicherry Roads;calls;;;nan
l1489;Gressee;calls;;;nan
l1490;lost in River Shannon;calls;;;nan
l1491;Onores;calls;;;nan
l1492;cSaloomah;calls;;;nan
l1493;Capt Thomas Lucas;calls;;;nan
l1494;Sold to the Sultan of Bantam;calls;;;nan
l1495;wreckedSocotra;calls;;;nan
l1496;South;ships_built_at;;;nan
l1497;Pauli;ships_built_at;;;nan
l1498;Itchenor;ships_built_at;;;nan
l1499;Whitby;ships_built_at;54.48774;-0.61498;british_isles
l1500;the;ships_built_at;-5.08917;-42.80194;atlantic
l1501;Culpe'];ships_built_at;;;nan
l1502;Ipswich;ships_built_at;52.05917;1.15545;british_isles
l1503;Harwich;ships_built_at;51.94194;1.28437;british_isles
l1504;Nov 1805 ten crew injured in skirmish with French ship;voyage_destinations;;;nan
l1505;Philippines;voyage_destinations;;;nan
l1506;From Bengal;voyage_destinations;;;nan
l1507;Cambodia;voyage_destinations;;;nan
l1508;Japan;voyage_destinations;;;nan
l1509;eb 1650 -;voyage_destinations;;;nan
l1510;Banta;voyage_destinations;60.29414;25.04099;indian_ocean
l1511;1806/7 St Helena;voyage_destinations;;;nan
l1512;Apr 1821-30 Sep 1822;voyage_destinations;;;nan
l1513;1802-18 Dec 1803;voyage_destinations;;;nan
l1514;Borne;voyage_destinations;51.94881;11.55865;atlantic
l1515;To remain in India;voyage_destinations;;;nan
l1516;Jan 1681 -28 Aug 1682;voyage_destinations;;;nan
l1517;East Indies;voyage_destinations;;;nan
l1518;1803/4 China;voyage_destinations;;;nan
l1519;the Maldives;voyage_destinations;;;nan
l1520;1831/2 Madras;voyage_destinations;;;nan
l1521;1829/30 China;voyage_destinations;;;nan
l1522;t St David;voyage_destinations;;;nan
l1523;China 1817;voyage_destinations;;;nan
l1524;Oct 1801 recaptured Friendship snow of Vizagapatam from French;voyage_destinations;;;nan
l1525;5 1792/3 Bombay;voyage_destinations;;;nan
l1526;Dec 1700-;voyage_destinations;;;nan
l1527;2 1736/7 Madras;voyage_destinations;;;nan
l1528;Bombay (to remain);voyage_destinations;;;nan
l1529;1722 -;voyage_destinations;;;nan
l1530;Jan 1681-21 Nov 1682;voyage_destinations;;;nan
l1531;New Company voyage;voyage_destinations;;;nan
l1532;Guinea (to remain);voyage_destinations;;;nan
l1533;Mar Cape -17 Apr St Helena -13 Jul Downs 1;voyage_destinations;;;nan
l1534;1832/3 St Helena;voyage_destinations;;;nan
l1535;St Helena -17 Jul Thames;voyage_destinations;;;nan
l1536;1804/5 Madras;voyage_destinations;;;nan
l1537;West Indies;voyage_destinations;;;nan
l1538;8 1828/9 Bombay;voyage_destinations;;;nan
l1539;Jan 1677 -;voyage_destinations;32.29876;-90.18481;atlantic
l1540;Dec 1727 -11 Jun 1729;voyage_destinations;;;nan
l1541;and Bengal;voyage_destinations;;;nan
l1542;Apr Blackwall;voyage_destinations;;;nan
l1543;Nov 1717-11 Jun 1719;voyage_destinations;;;nan
l1544;6 1818/9 Madras;voyage_destinations;;;nan
l1545;(^hina;voyage_destinations;;;nan
l1546;1832/3 Madras;voyage_destinations;;;nan
l1547;815/6 Bombay;voyage_destinations;;;nan
l1548;' Bengal;voyage_destinations;;;nan
l1549;Mar 1812 St Helena -15 May Long Reach;voyage_destinations;;;nan
l1550;1801/2 China;voyage_destinations;;;nan
l1551;1831/2 Bengal;voyage_destinations;;;nan
l1552;Apr 1699 -;voyage_destinations;;;nan
l1553;Nova Scotia;voyage_destinations;;;nan
l1554;Madras L/MAM/B/698G(3) Imprest Book;voyage_destinations;;;nan
l1555;Benkulen (to remain);voyage_destinations;;;nan
l1556;North-West Passage;voyage_destinations;;;nan
l1557;India;voyage_destinations;;;nan
l1558;Sep 1681 -29 Aug 1683;voyage_destinations;;;nan
l1559;South Pacific;voyage_destinations;;;nan
l1560;9 Madras;voyage_destinations;;;nan
l1561;and China;voyage_destinations;;;nan
l1562;Surat Master Thomas Tayl;voyage_destinations;;;nan
l1563;1831/2 China;voyage_destinations;;;nan
l1564;Journal 13 May 1794-14 Sep 1795;voyage_destinations;;;nan
l1565;Bengal 1801 .;voyage_destinations;;;nan
l1566;West Africa;voyage_destinations;;;nan
l1567;1647;voyage_destinations;;;nan
l1568;1648;voyage_destinations;;;nan
l1569;to Bandar Abbas 1649 (twice);voyage_destinations;;;nan
l1570;80 Sia;voyage_destinations;16.57452;107.51066;southeast_asia
l1571;India 1784 L/MAM/B/540C(1) Ledge;voyage_destinations;;;nan
l1572;1785/6 Madras;voyage_destinations;;;nan
l1573;eb 1713 -12 Mar 1715;voyage_destinations;;;nan
l1574;1830/1 St Helena;voyage_destinations;;;nan
l1575;'For India';voyage_destinations;;;nan
l1576;Bantam Master Gilbert Grimes ?;voyage_destinations;;;nan
l1577;Pay Book;voyage_destinations;;;nan
l1578;China L/MAM/B/390J Journal 8 Dec 1786-28 Aug 1788;voyage_destinations;;;nan
l1579;Oct Downs;voyage_destinations;;;nan
l1580;Australia;voyage_destinations;;;nan
l1581;1832/3 Bombay;voyage_destinations;;;nan
l1582;Jun Downs;voyage_destinations;;;nan
l1583;Benga;voyage_destinations;;;nan
l1584;China L/MAM/B/131B Deck Log 19 Dec 1831-15 Jun 1832;voyage_destinations;;;nan
l1585;China L/MAM/B/438H Journal 14 Jan 1755-13 Sep 1757 L/MAM/B/438BB(1) Ledger L/MAM/B/438BB(2) Pay Book;voyage_destinations;;;nan
l1586;1700 Gibralta;voyage_destinations;;;nan
l1587;'India';voyage_destinations;;;nan
l1588;Benkulcn;voyage_destinations;;;nan
l1589;Mar 1678 -;voyage_destinations;;;nan
l1590;to remain as country ship;voyage_destinations;;;nan
l1591;1685 -28 Aug 1687;voyage_destinations;;;nan
l1592;Jan 1701 -17 Sep 1702;voyage_destinations;;;nan
l1593;Macassa;voyage_destinations;;;nan
l1594;South Seas;voyage_destinations;;;nan
l1595;Jan 1825-29 Jun Calcutta;voyage_destinations;;;nan
l1596;Holland;voyage_destinations;41.62172;-83.7116;atlantic
l1597;1809;voyage_destinations;;;nan
l1598;Journal on Jonas;voyage_destinations;;;nan
l1599;Lion 17 Mar 1621-22 Jul 1623;voyage_destinations;;;nan
l1600;Richard Swanley Master John Weddell;voyage_destinations;;;nan
l1601;crew;voyage_destinations;;;nan
l1602;Madagasgar;voyage_destinations;;;nan
l1603;the South Seas;voyage_destinations;;;nan
l1604;3 1745/6 Bombay;voyage_destinations;;;nan
l1605;1821/2 St Helena;voyage_destinations;;;nan
l1606;New 1699-6 Mar 1702;voyage_destinations;;;nan
l1607;Macasse;voyage_destinations;;;nan
l1608;1831/2 St Helena;voyage_destinations;;;nan
l1609;Oct Whampoa -19 Jan 1831 Second Bar -11 Apr St Helena -10 Jun Downs;voyage_destinations;;;nan
l1610;Surat (New Company);voyage_destinations;;;nan
l1611;Surat (Licensed ship);voyage_destinations;;;nan
l1612;1698 -;voyage_destinations;;;nan
l1613;eb 1715 -27 Jul 1716;voyage_destinations;;;nan
l1614;Sia;voyage_destinations;;;nan
l1615;1832/3 China;voyage_destinations;;;nan
l1616;739/40 Mokha;voyage_destinations;;;nan
l1617;3 1777/8 Bombay;voyage_destinations;;;nan
l1618;India 1782;voyage_destinations;;;nan
l1619;eb 1682 -29 Aug 1683;voyage_destinations;;;nan
l1620;and Amoy (New Company L/MAM/A/CLVn Journal 2 Dec 1700-16 Sep 1702;voyage_destinations;;;nan
l1621;from India 10 Apr 1783;voyage_destinations;;;nan
l1622;Nov 1682- 11 May 1684;voyage_destinations;;;nan
l1623;Benkulan;voyage_destinations;;;nan
l1624;Sep 1681 -29 Sep 1683;voyage_destinations;;;nan
l1625;May 1792 'stood to sea from St Helena' -19-20 May skirmish with the French fleet;voyage_destinations;;;nan
l1626;Sep Downs;voyage_destinations;;;nan
l1627;Borneo (New Company);voyage_destinations;;;nan
l1628;in England Jul 1810;voyage_destinations;;;nan
l1629;South Wales;voyage_destinations;;;nan
l1630;B;voyage_destinations;;;nan
l1631;British Columbia;voyage_destinations;;;nan
l1632;the Moluccas;voyage_destinations;;;nan
l1633;1825/6 China;voyage_destinations;;;nan
l1634;1719 -18 Mar 1729;voyage_destinations;;;nan
l1635;Bengal (to remain);voyage_destinations;;;nan
l1636;1701 -2 Apr 1703;voyage_destinations;;;nan
l1637;China (Licensed ship);voyage_destinations;;;nan
l1638;Bengal (New Company);voyage_destinations;;;nan
l1639;inc sketches of the ship;voyage_destinations;;;nan
l1640;the season's convoy;voyage_destinations;;;nan
l1641;fish;voyage_destinations;;;nan
l1642;birds;voyage_destinations;;;nan
l1643;Batavia Roads;voyage_destinations;;;nan
l1644;Aug Downs;voyage_destinations;;;nan
l1645;Nov 1683 -21 Mar 1685;voyage_destinations;;;nan
l1646;Bombay (to remain) Downs 4 May 1686-;voyage_destinations;;;nan
l1647;St Helena (to remain);voyage_destinations;;;nan
l1648;eb 1682-8 Aug 1683;voyage_destinations;;;nan
l1649;May 1681 -23 Sep 1682;voyage_destinations;;;nan
l1650;1614;voyage_destinations;;;nan
l1651;1615;voyage_destinations;;;nan
l1652;Surat (to remain);voyage_destinations;;;nan
l1653;1 From Calcutta;voyage_destinations;;;nan
l1654;Dec 1684 -28 Jul 1687;voyage_destinations;;;nan
l1655;To West Indies;voyage_destinations;;;nan
l1656;Madras (to remain);voyage_destinations;;;nan
l1657;8/9 Bengal;voyage_destinations;;;nan
l1658;LMARS 15A-B Journal 11 May 1795-24 Feb 1797;voyage_destinations;;;nan
l1659;South Atlantic;voyage_destinations;;;nan
l1660;Nov 1712-28 Jul 1717;voyage_destinations;;;nan
l1661;Jan 1719-25 Aug 1720;voyage_destinations;;;nan
l1662;Tasmania;voyage_destinations;;;nan
l1663;Jan 1716 -19 Aug 1717;voyage_destinations;;;nan
l1664;Madagasca;voyage_destinations;;;nan
l1665;India 1757;voyage_destinations;;;nan
l1666;Balambanga;voyage_destinations;;;nan
l1667;1796;voyage_destinations;;;nan
l1668;1798 St Helena -17 Mar Downs;voyage_destinations;;;nan
l1669;China (New Company);voyage_destinations;;;nan
l1670;Boston;voyage_destinations;52.97633;-0.02664;british_isles
l1671;Batavia (to remain);voyage_destinations;;;nan
l1672;1830/1 China;voyage_destinations;;;nan
l1673;ap St Mary's;persons_birth;;;nan
l1674;Mezignac nr Bordeaux;persons_birth;;;nan
l1676;Surgeon;persons_birth;;;nan
l1677;Dalgetty;persons_birth;;;nan
l1678;Bowbrickhill;persons_birth;;;nan
l1679;Craigs;persons_birth;;;nan
l1680;purser REGENT 1821/2;persons_birth;;;nan
l1681;commumeed covert Ships Honduras and African trade Aye Tighmente IRAN IENS SY ORO approved Peb Ivehyagad 32);persons_birth;;;nan
l1683;1st mate SCALEBY CASTLE 1832/3 m St Luke's;persons_birth;;;nan
l1684;Edinburgh;persons_birth;55.95206;-3.19648;british_isles
l1685;ap Ealing;persons_birth;;;nan
l1686;Maidenhall;persons_birth;;;nan
l1688;apptd Surgeon at St Helena;persons_birth;;;nan
l1689;Salemstead;persons_birth;;;nan
l1690;Greenock;persons_birth;55.94838;-4.76121;british_isles
l1691;1738;persons_birth;;;nan
l1692;run;persons_birth;;;nan
l1693;Bombay Asst Surgeon;persons_birth;;;nan
l1694;oth ielsd ANA (1804/5! Ah AOLORE RN TET 1805/6;persons_birth;;;nan
l1695;South Petherton;persons_birth;50.94829;-2.80708;british_isles
l1696;Bridgwater;persons_birth;51.12837;-3.00356;british_isles
l1697;Hurstmonceux;persons_birth;;;nan
l1698;Melton Constable;persons_birth;;;nan
l1699;3rd mate RAVENSWORTH 1785/6 (approved 1786;persons_birth;;;nan
l1700;Glasgow;persons_birth;55.86515;-4.25763;british_isles
l1701;3rd mate DUKE OF GRAFTON 1775/6;persons_birth;;;nan
l1702;Stogursey;persons_birth;;;nan
l1703;France;persons_birth;;;nan
l1704;Saxthorpe;persons_birth;;;nan
l1705;1765/6 b England;persons_birth;;;nan
l1706;4th mate AIRLEY CASTLE 1787/8 (approved 1788;persons_birth;;;nan
l1707;Hendon;persons_birth;51.6;-0.21667;british_isles
l1708;Mirzapur;persons_birth;24.10287;90.09841;bengal_presidency
l1709;d;persons_birth;;;nan
l1710;Denaticon;persons_birth;;;nan
l1711;ap Waltham Lincs;persons_birth;;;nan
l1712;Sestland;persons_birth;;;nan
l1713;Stale APMERAIL GARDNER 180g/9 m St Mary's;persons_birth;;;nan
l1715;Member Bengal Medical Board & Insp-Gen of Hospitals;persons_birth;;;nan
l1716;3rd mate ROYAL BISHOP 1785/6 (approved 1726;persons_birth;;;nan
l1717;Milbrooke;persons_birth;;;nan
l1718;ap Tottenham;persons_birth;;;nan
l1719;lost im senects;persons_birth;;;nan
l1720;employed attending the wreck until;persons_birth;;;nan
l1721;Knockdrin Castle;persons_birth;;;nan
l1722;Aldham;persons_birth;;;nan
l1723;resigned active service 2nd Mysore War 1781-82;persons_birth;;;nan
l1724;4th mate PHOENIX (3) 1799/1800 (approved 1800;persons_birth;;;nan
l1725;ap St Augustine's;persons_birth;;;nan
l1726;Rottingdean;persons_birth;50.80984;-0.05939;british_isles
l1727;approved as 1st mats HIECTOR 176;persons_birth;;;nan
l1728;St Marylebone;persons_birth;;;nan
l1729;Kettle;persons_birth;;;nan
l1730;Sanguhar;persons_birth;;;nan
l1731;Redgrave;persons_birth;;;nan
l1732;Norwich;persons_birth;52.62783;1.29834;british_isles
l1733;Harley St;persons_birth;;;nan
l1734;Banff;persons_birth;57.66477;-2.52964;british_isles
l1735;Tenby;persons_birth;51.67279;-4.70447;british_isles
l1736;& Lee;persons_birth;51.45556;0.00515;british_isles
l1737;d Calcutta m Hammersmith;persons_birth;;;nan
l1738;Lambeth;persons_birth;51.49635;-0.11152;british_isles
l1739;Stratford-on-Avon;persons_birth;;;nan
l1740;seoma Gy) & 2nd mate (ly) James & Rebeses to Antique;persons_birth;;;nan
l1741;Clement's Lane;persons_birth;;;nan
l1742;South Leith;persons_birth;;;nan
l1743;resigned;persons_birth;;;nan
l1744;St Alphage's pa;persons_birth;;;nan
l1745;d Calcutta;persons_birth;;;nan
l1746;Hertford;persons_birth;51.79588;-0.07854;british_isles
l1747;Kirkaldy;persons_birth;;;nan
l1748;3nd matte MUAIRCEMUOINESS OF ELY 1821/2;persons_birth;;;nan
l1749;Milburn St Andrews;persons_birth;;;nan
l1750;Old Melton;persons_birth;;;nan
l1751;ap Whitby;persons_birth;;;nan
l1752;3rd mate PONSBORNE 1779/80;persons_birth;;;nan
l1753;d3;persons_birth;;;nan
l1754;Kinnettles;persons_birth;;;nan
l1755;St Andrew's pa;persons_birth;;;nan
l1756;St Peter Port;persons_birth;49.45981;-2.53527;british_isles
l1757;4th mate THISTLEWORTH 1718/9 (to 1720);persons_birth;;;nan
l1758;England senmem LORD CANIN (1) 1771/2;persons_birth;;;nan
l1760;d7;persons_birth;;;nan
l1761;Capt EARL OF BALCARRAS 1827/8;persons_birth;;;nan
l1762;Rhynie;persons_birth;;;nan
l1763;Kilmarnock;persons_birth;55.61171;-4.49581;british_isles
l1764;im Rotterdam;persons_birth;;;nan
l1765;Newsom;persons_birth;;;nan
l1766;resigned secvod es sumpeon to ir Eyre Covte the Carnatic;persons_birth;;;nan
l1767;Perthshire;persons_birth;;;nan
l1768;Holbrook;persons_birth;51.9834;1.15854;british_isles
l1769;(approved 1786;persons_birth;;;nan
l1770;St Martin-in-the-Fields pa;persons_birth;;;nan
l1771;4th mate CARMARTHEN 1805/6 ed as 2nd mate DUBLIN 1787;persons_birth;;;nan
l1772;Capt THOMAS GRENVILLE 1832/3 m Bridgewater;persons_birth;;;nan
l1773;3rd mate b Ireland;persons_birth;;;nan
l1774;Stockton;persons_birth;51.14528;-2.03194;british_isles
l1775;Fort William;persons_birth;56.81648;-5.11208;british_isles
l1776;Harrow;persons_birth;51.57835;-0.33208;british_isles
l1777;Englancl midshipman DAVID SCOTT (2) 1807/8;persons_birth;;;nan
l1778;d St Helena;persons_birth;;;nan
l1779;apptd Bengal Asst Surgeon (in absentia);persons_birth;;;nan
l1780;Newbyth;persons_birth;;;nan
l1781;Eccles;persons_birth;53.48333;-2.33333;british_isles
l1782;Walcot;persons_birth;;;nan
l1783;Leadhills;persons_birth;;;nan
l1784;retired active service Nepal War 1815-16;persons_birth;;;nan
l1785;Crieff;persons_birth;56.37268;-3.83891;british_isles
l1786;Prestwich;persons_birth;53.53333;-2.28333;british_isles
l1787;ind mate COMDSTRIBART 1811/2 m St Stephen's Coleman Street;persons_birth;;;nan
l1788;Derby;persons_birth;52.92277;-1.47663;british_isles
l1789;Westbury;persons_birth;51.26;-2.1875;british_isles
l1790;Kirby Stephen;persons_birth;;;nan
l1791;im Wales;persons_birth;;;nan
l1792;ap Pocklington;persons_birth;;;nan
l1793;Blandford;persons_birth;;;nan
l1794;Stowmarket;persons_birth;52.18893;0.99774;british_isles
l1795;2nd mate YORK (4) 1785/6 (approved 1786;persons_birth;;;nan
l1796;St Saviour's pa;persons_birth;;;nan
l1797;Llandilo;persons_birth;-33.71286;150.7465;nan
l1798;4th mate WARREN HASTINGS (1) 1784/5 (approved 1785;persons_birth;;;nan
l1799;ap St Margaret Moses;persons_birth;;;nan
l1800;Shadbrook;persons_birth;;;nan
l1801;Isle of Skye;persons_birth;;;nan
l1802;Cupar Angus;persons_birth;;;nan
l1803;Hickling;persons_birth;;;nan
l1804;Alford;persons_birth;53.25943;0.17625;british_isles
l1805;it England;persons_birth;;;nan
l1806;Aor Ipswich;persons_birth;;;nan
l1807;Hereford;persons_birth;52.05684;-2.71482;british_isles
l1808;Brechin;persons_birth;56.72993;-2.65729;british_isles
l1810;St Cuthbert's pa;persons_birth;;;nan
l1811;seaman EAGLE (6) packet 1779-22 when she was captured;persons_birth;;;nan
l1812;Croydon;persons_birth;51.38333;-0.1;british_isles
l1813;p23 Englamd;persons_birth;;;nan
l1814;1st mate ORWELL 1829/30 & 1831/2 m St Helena;persons_birth;;;nan
l1815;‘b;persons_birth;;;nan
l1816;Stilton;persons_birth;52.48788;-0.28894;british_isles
l1818;volunteer 1st Class;persons_birth;;;nan
l1819;Forkc;persons_birth;;;nan
l1820;Capt & Principal Managing Owner SEVERN (2) 1832/3 m St Luke's;persons_birth;;;nan
l1821;accidentally killed;persons_birth;;;nan
l1822;Nantwich;persons_birth;53.06878;-2.52051;british_isles
l1823;ur St Pancras;persons_birth;;;nan
l1824;Campsie;persons_birth;-33.9125;151.10279;nan
l1825;im Scotland;persons_birth;;;nan
l1826;Claines;persons_birth;;;nan
l1827;St Botolph's pa;persons_birth;;;nan
l1828;purser LASCELLES 1791/2;persons_birth;;;nan
l1829;Drimnasallie;persons_birth;;;nan
l1830;Monmouth;persons_birth;51.81265;-2.71363;british_isles
l1831;Moy Lamiasry;persons_birth;;;nan
l1832;Keilmoe;persons_birth;;;nan
l1833;cl767;persons_birth;;;nan
l1835;St Peter's pa;persons_birth;;;nan
l1836;dn Seatlant;persons_birth;;;nan
l1837;Ord untae HILLSBOROUGH (2) 1785/6 (gpproved Peb 1796;persons_birth;;;nan
l1838;6th mate KING WILLIAM (3) 1733/4 Carter;persons_birth;;;nan
l1839;Barton Mere;persons_birth;;;nan
l1840;Dundee;persons_birth;56.46913;-2.97489;british_isles
l1841;Fort George;persons_birth;46.18788;-123.83125;atlantic
l1842;6th mate b 1? Appr Guisborough;persons_birth;;;nan
l1843;England seaman PLASSEY West Indies ly 6m;persons_birth;;;nan
l1844;Seb nate MOT INGIAI (@) Wresy>;persons_birth;;;nan
l1845;also Principal Managing Owner BROXBORNEBURY 1824/5-1831/2 m St Marylebone;persons_birth;;;nan
l1846;pa St Olave Hart St;persons_birth;;;nan
l1847;1st mate AENISTON (@ppaoved 1806;persons_birth;;;nan
l1848;l766 Lilley nr Hitchin;persons_birth;;;nan
l1849;Capt THOMAS COUTTS 1821/2;persons_birth;;;nan
l1850;Dumfries;persons_birth;55.06959;-3.61139;british_isles
l1851;drowned;persons_birth;;;nan
l1852;1st mate KELLIE CASTLE 1832/3 m Walton-on-Thames;persons_birth;;;nan
l1853;Hill House;persons_birth;;;nan
l1854;Heston;persons_birth;51.48363;-0.37577;british_isles
l1855;Gib mats WINDSOUS (2) 1822/3;persons_birth;;;nan
l1856;Ecinbargh;persons_birth;;;nan
l1857;purser LADY MELVILLE 1821/2;persons_birth;;;nan
l1858;Samgect S;persons_birth;;;nan
l1859;resigned 1794;persons_birth;;;nan
l1860;ap Woodford;persons_birth;;;nan
l1861;Benge;persons_birth;;;nan
l1862;d Bandar Abbas;persons_birth;;;nan
l1863;pa St George's Hanover Sq;persons_birth;;;nan
l1864;Ang & bep St Mary's;persons_birth;;;nan
l1865;4th mate FORDWICH 1728/9 (from 1730);persons_birth;;;nan
l1866;North Berwick;persons_birth;56.05825;-2.7229;british_isles
l1867;2nd mate Creighton;persons_birth;;;nan
l1868;sick leave home 1806;persons_birth;;;nan
l1869;Dalkeith;persons_birth;55.89317;-3.06806;british_isles
l1870;5th mate WARREN HASTINGS (1) 1792/3;persons_birth;;;nan
l1871;Aberdeen;persons_birth;57.14369;-2.09814;british_isles
l1872;Turriff;persons_birth;57.5384;-2.45932;british_isles
l1874;3rd mate WINCHELSEA (3) 1830/1 m3 St James;persons_birth;;;nan
l1875;4th mate LASCELLES 1784/5 (approved 1785;persons_birth;;;nan
l1876;Norfolk;persons_birth;44.80089;-74.99103;atlantic
l1877;purser WILLIAM PITT (1) 1789/90;persons_birth;;;nan
l1878;Head Surgeon at Calcutta;persons_birth;;;nan
l1879;surgeon CASTLE HUNTLEY 1819/20;persons_birth;;;nan
l1880;Campbeltown;persons_birth;55.42583;-5.60764;british_isles
l1881;North Knabdale;persons_birth;;;nan
l1882;Kilbride Castle;persons_birth;;;nan
l1883;America;persons_birth;51.43667;5.97917;atlantic
l1884;Brooke;persons_birth;52.54175;1.37076;british_isles
l1885;Newington;persons_birth;51.35217;0.66768;british_isles
l1886;im Bogland;persons_birth;;;nan
l1887;ap Lindfield;persons_birth;;;nan
l1888;Walthamstow;persons_birth;51.59067;-0.02077;british_isles
l1889;Hartland;persons_birth;43.10501;-88.34204;atlantic
l1890;Ih eb & bop Croydon;persons_birth;;;nan
l1891;1st mate HARTWELL 1786/7;persons_birth;;;nan
l1892;Capt SIR WILLIAM PULTENEY 1804/5;persons_birth;;;nan
l1893;retired;persons_birth;;;nan
l1894;Beb Dumdayell;persons_birth;;;nan
l1895;Wexford;persons_birth;52.33417;-6.4575;british_isles
l1896;Monthrath;persons_birth;;;nan
l1897;Binnington;persons_birth;;;nan
l1898;Berkeley Sq;persons_birth;;;nan
l1899;Cockpen;persons_birth;;;nan
l1900;Perth;persons_birth;56.39522;-3.43139;british_isles
l1901;fb hn Englands micishigraam im Royall Navy Sy Soy 5th mate ROWAL SOP 1755/5 (approved 1786;persons_birth;;;nan
l1902;MARQUIS CAMDEN 1823/4;persons_birth;;;nan
l1903;Cove;persons_birth;57.1;-2.08333;british_isles
l1904;Scotlane;persons_birth;;;nan
l1905;Millan;persons_birth;44.09973;3.07848;atlantic
l1906;Hadley;persons_birth;52.7;-2.48333;british_isles
l1907;Asst Surgeon;persons_birth;;;nan
l1908;d m Cameron;persons_birth;;;nan
l1909;Newington Green;persons_birth;;;nan
l1910;Trevethin;persons_birth;;;nan
l1912;Bleach Field;persons_birth;;;nan
l1913;1st mate SPEAKER 1771/2 (approved 1772;persons_birth;;;nan
l1914;Ipswiel;persons_birth;;;nan
l1915;Kessingland;persons_birth;52.41987;1.70878;british_isles
l1916;Gib ome TCE (2) 1797/8;persons_birth;;;nan
l1917;Member of Wiedicel Board;persons_birth;;;nan
l1918;tb England;persons_birth;;;nan
l1919;Shetland Isles;persons_birth;;;nan
l1920;3rd mate ANTELOPE (4) 1781/2 (approved 1782;persons_birth;;;nan
l1921;Illan Court;persons_birth;;;nan
l1922;3rd mate ASIA (3) 1780/1;persons_birth;;;nan
l1923;Bovey Tracey;persons_birth;50.59259;-3.67543;british_isles
l1924;Newton Bushell;persons_birth;;;nan
l1925;Tiverton;persons_birth;53.13333;-2.66667;british_isles
l1926;Bath;persons_birth;51.3751;-2.36172;british_isles
l1927;ed 1782;persons_birth;;;nan
l1928;3rd mate ROCKINGHAM (1) 1785/6 (approved 1786;persons_birth;;;nan
l1929;1st mate Heater ‘0 Jamaica (approved 1786;persons_birth;;;nan
l1930;5th mate GENERAL Totlb 1824/5;persons_birth;;;nan
l1931;Lambourn;persons_birth;51.50805;-1.53105;british_isles
l1932;Ayr;persons_birth;55.46273;-4.63393;british_isles
l1933;Whitehaven;persons_birth;54.54897;-3.58412;british_isles
l1934;Ilfracombe;persons_birth;51.2093;-4.11344;british_isles
l1935;Barnstaple;persons_birth;51.08022;-4.05808;british_isles
l1936;Hambleton;persons_birth;53.76667;-1.16667;british_isles
l1937;m7 Walcot;persons_birth;;;nan
l1940;Alloa;persons_birth;56.11586;-3.78997;british_isles
l1941;Toulouse;persons_birth;43.60426;1.44367;atlantic
l1942;& St George's Bloomsbury;persons_birth;;;nan
l1943;St Giles;persons_birth;;;nan
l1944;1748;persons_birth;;;nan
l1945;dat sea;persons_birth;;;nan
l1948;Redbridge;persons_birth;;;nan
l1949;Aylesbury;persons_birth;51.81665;-0.81458;british_isles
l1950;Sid tnate INDIAN TRADER 1794/5;persons_birth;;;nan
l1951;Virginia;persons_birth;53.83389;-7.07556;british_isles
l1952;5th mate KELLIE CASTLE 1828/9;persons_birth;;;nan
l1953;4th mate “RACRIL OL SAND WIGHT F789 (approved 1779;persons_birth;;;nan
l1954;Metz;persons_birth;49.11911;6.17269;atlantic
l1955;St John's pa;persons_birth;;;nan
l1956;Barnsley;persons_birth;53.55;-1.48333;british_isles
l1957;Bengal Asst Surgeon;persons_birth;;;nan
l1958;Tneland;persons_birth;;;nan
l1959;Haddington;persons_birth;55.95612;-2.78332;british_isles
l1960;Aberdeenshire;persons_birth;;;nan
l1961;Brettenham;persons_birth;;;nan
l1962;Gerloch;persons_birth;;;nan
l1963;Sicily;persons_birth;;;nan
l1964;approved as 3rd mate ROCKINGHAM (1) 1786;persons_birth;;;nan
l1965;m Llandygwydd;persons_birth;;;nan
l1966;Wick;persons_birth;58.43906;-3.09424;british_isles
l1967;im Rnglamd;persons_birth;;;nan
l1968;d Bombay;persons_birth;;;nan
l1969;Chatham;persons_birth;51.37891;0.52786;british_isles
l1970;lost overboard m St Dunstan's;persons_birth;;;nan
l1971;Wormley;persons_birth;51.13622;-0.64673;british_isles
l1972;3rd mate BESSBOROUGH 1785/6 (approved 1786;persons_birth;;;nan
l1973;1st mate DUCHESS OF ATHOL 1831/2 m Cork Cathedral;persons_birth;;;nan
l1974;1740;persons_birth;;;nan
l1975;4th mate STAFFORD (2) 1777/8 (approved eb 1778;persons_birth;;;nan
l1976;Neath;persons_birth;51.66317;-3.80443;british_isles
l1977;Ryton-upon-Dunsmore;persons_birth;;;nan
l1978;Welshpool;persons_birth;52.65973;-3.1471;british_isles
l1979;St Mary's pa;persons_birth;;;nan
l1980;1st mate LORD WALSINGHAM 1786/7 (approved 1787;persons_birth;;;nan
l1981;Enniskillen;persons_birth;54.34615;-7.64133;british_isles
l1982;Ross;persons_birth;39.31228;-84.6505;atlantic
l1983;Selborne;persons_birth;;;nan
l1984;Capt ST HELENA b St Helen's pa;persons_birth;;;nan
l1985;surgeon HUDDART 1814/5 b England;persons_birth;;;nan
l1986;Kirk Newton;persons_birth;;;nan
l1987;ap Whorlton;persons_birth;;;nan
l1988;2nd mate MIMVIDLESEX @) 1785/6 (approved autho trade Gun;persons_birth;;;nan
l1989;at sea;persons_birth;;;nan
l1990;Cornhill;persons_birth;;;nan
l1991;Sunderland;persons_birth;54.90465;-1.38222;british_isles
l1992;lost overboard;persons_birth;;;nan
l1993;1727;persons_birth;;;nan
l1994;wounded action agst French 1759;persons_birth;;;nan
l1995;Prescot St;persons_birth;;;nan
l1996;“Kb mate LAP WING (1) Lays;persons_birth;;;nan
l1997;1774. Windsor;persons_birth;51.48333;-0.6;british_isles
l1998;Bishopsgate;persons_birth;;;nan
l1999;St Luke's pa;persons_birth;;;nan
l2000;Cumberland;persons_birth;41.96677;-71.43284;atlantic
l2001;St Stephen's Walbrook;persons_birth;;;nan
l2002;& tep St Macy';persons_birth;;;nan
l2003;appointed Asst Bombay Hospital;persons_birth;;;nan
l2004;Little Clacton;persons_birth;51.82557;1.14215;british_isles
l2005;Logie;persons_birth;;;nan
l2006;midshipman MARQUIS OF ROCKINGHAM (2) 1775/6;persons_birth;;;nan
l2007;Sweden;persons_birth;;;nan
l2008;Dores;persons_birth;;;nan
l2009;Stepney;persons_birth;51.5175;-0.04292;british_isles
l2010;seaman & 1st mate Royal Clubb and Adriatic Greenland and Newfoundland trade 7y 9m;persons_birth;;;nan
l2011;Love Lane;persons_birth;;;nan
l2012;Canterbury;persons_birth;51.27904;1.07992;british_isles
l2013;im Smgtends ome voyswe to indie;persons_birth;;;nan
l2014;Barking;persons_birth;51.53333;0.08333;british_isles
l2015;run 4th mate LADY RAFFLES 1825/6;persons_birth;;;nan
l2016;pa St Chad's;persons_birth;;;nan
l2017;Gerrard or Gerard;persons_birth;;;nan
l2018;midshipman (2y 6m);persons_birth;;;nan
l2019;d b pa Christ Church;persons_birth;;;nan
l2020;Montrose;persons_birth;56.71683;-2.46695;british_isles
l2021;4h mate NEPTUNE (4) 1785/6 (approved 1786;persons_birth;;;nan
l2022;Kirk Oswald;persons_birth;;;nan
l2023;d Macao m St Pancras;persons_birth;;;nan
l2025;5th mate GATTON 1777/8;persons_birth;;;nan
l2026;Royal Navy 8y 4m;persons_birth;;;nan
l2027;Inverness-shire;persons_birth;;;nan
l2028;Portsoy;persons_birth;57.68144;-2.68956;british_isles
l2029;4th mate EARL OF DARTMOUTH 1779/80 (approved 1780;persons_birth;;;nan
l2030;ur Ilfracombe;persons_birth;;;nan
l2031;d 1890;persons_birth;;;nan
l2032;Bordeaux;persons_birth;44.84044;-0.5805;atlantic
l2033;ur St Paul's Covent Gdn;persons_birth;;;nan
l2034;Mount Melick;persons_birth;;;nan
l2035;Grantham;persons_birth;52.91149;-0.64184;british_isles
l2036;Dominica;persons_birth;;;nan
l2037;St Peter's Close;persons_birth;;;nan
l2038;3rd mate VALENTINE (3) 1793/4 (approved 1794;persons_birth;;;nan
l2039;1st Lieutenant Achilles cutter (3m) and Job cutter (2m);persons_birth;;;nan
l2040;Isle of Man;persons_birth;;;nan
l2041;Carron;persons_birth;56.02611;-3.79251;british_isles
l2042;Wootton Hall;persons_birth;;;nan
l2043;Blunderston;persons_birth;;;nan
l2044;Great Yarmouth ?;persons_birth;52.60831;1.73052;british_isles
l2045;Sotheniom;persons_birth;;;nan
l2046;Stirling;persons_birth;56.11903;-3.93682;british_isles
l2047;Msg Camengate;persons_birth;;;nan
l2048;Canongate;persons_birth;;;nan
l2049;‘bap Fores;persons_birth;;;nan
l2050;Foggymill;persons_birth;;;nan
l2051;ur;persons_birth;;;nan
l2052;Johnshaven;persons_birth;;;nan
l2053;Haxbourgrace;persons_birth;;;nan
l2054;Chipping Ongar;persons_birth;51.70379;0.24548;british_isles
l2056;4th mate MARQUIS OF WELLINGTON (1) 1814/5 (approved 1814;persons_birth;;;nan
l2057;Pitfern;persons_birth;;;nan
l2058;St Swithin's pa;persons_birth;;;nan
l2059;1730;persons_birth;;;nan
l2060;2nd mate SUFFOLK (1) 1758/9;persons_birth;;;nan
l2061;purser PRINCESS CHARLOTTE OF WALES 1822/3;persons_birth;;;nan
l2062;Surgeon at Benkulen;persons_birth;;;nan
l2063;Baghent) seaman CIES @) 1792/3;persons_birth;;;nan
l2064;4th mate BELVEDERE 1800/1 (approved 1801;persons_birth;;;nan
l2065;aorington or Marington;persons_birth;;;nan
l2066;& bao  Bermondsey;persons_birth;;;nan
l2067;Spatree;persons_birth;;;nan
l2068;Kensington;persons_birth;51.50094;-0.19175;british_isles
l2069;Weybridge;persons_birth;51.37178;-0.45975;british_isles
l2070;served im Jen Charnock's war agst the Nawab af Bengal 1636-87;persons_birth;;;nan
l2071;MB 1785;persons_birth;;;nan
l2072;ur Staynton;persons_birth;;;nan
l2073;Stokesley;persons_birth;54.46998;-1.1933;british_isles
l2074;Datsham;persons_birth;;;nan
l2075;4th mate LADY BURGES 1803/4;persons_birth;;;nan
l2076;Caldecote Hall;persons_birth;;;nan
l2077;Tilbury Fort;persons_birth;51.46248;0.35856;british_isles
l2078;Kirkcaldy;persons_birth;56.11683;-3.15999;british_isles
l2079;St Andrew's;persons_birth;;;nan
l2080;Nb toate POCOCIS 1258/9;persons_birth;;;nan
l2081;Westdown;persons_birth;;;nan
l2082;went home 1757;persons_birth;;;nan
l2083;4th mate HUGH INGLIS 1815/6 (approved 1816;persons_birth;;;nan
l2084;reinstated;persons_birth;;;nan
l2085;4th mate GRENVILLE 1774/5 (approved 1775;persons_birth;;;nan
l2086;Aweltenndsy;persons_birth;;;nan
l2087;Gaicbonwugh;persons_birth;;;nan
l2088;Coylton;persons_birth;55.44528;-4.5195;british_isles
l2089;Oban;persons_birth;56.41535;-5.47184;british_isles
l2090;Kiloredtomont;persons_birth;;;nan
l2091;favo vorages to India;persons_birth;;;nan
l2092;Wigton;persons_birth;54.82482;-3.16114;british_isles
l2093;resigned 1819;persons_birth;;;nan
l2094;ap Basingstoke;persons_birth;;;nan
l2095;Capt MORLEY 1828/9 orred;persons_birth;;;nan
l2096;resigned Haskins;persons_birth;;;nan
l2097;Cestieliond;persons_birth;;;nan
l2098;co Durham;persons_birth;;;nan
l2099;4th mate ALNWICK CASTLE 1814/5 (approved 1815;persons_birth;;;nan
l2100;Liskeard;persons_birth;50.4545;-4.46517;british_isles
l2101;Dunbar;persons_birth;56.00062;-2.51418;british_isles
l2102;1785;persons_birth;;;nan
l2103;& baw $ Ape Leyton;persons_birth;;;nan
l2104;Illugan;persons_birth;;;nan
l2105;3nd mate LORD MIACARTIOSY LPS ud mats BAR OF WiCOMILE Ts6r? (approved 1787;persons_birth;;;nan
l2106;Northallerton;persons_birth;54.33901;-1.43243;british_isles
l2107;Web 17S4 Wells;persons_birth;;;nan
l2108;Musselburgh;persons_birth;55.9417;-3.04991;british_isles
l2109;Richmond;persons_birth;51.46171;-0.30633;british_isles
l2110;im Buwlend;persons_birth;;;nan
l2111;4th mate UNION (5) 1806/7;persons_birth;;;nan
l2112;Queensferry;persons_birth;55.99089;-3.39847;british_isles
l2113;3rd mate EUROPA (2) 1781/2 (approved 1782;persons_birth;;;nan
l2114;Battle;persons_birth;50.91732;0.48417;british_isles
l2115;b Havre de Grace;persons_birth;;;nan
l2116;1st mate DUKE OF YORK (2) 1826/7 & 1828/9;persons_birth;;;nan
l2117;2nd mate MINERVA (7) 1824/5;persons_birth;;;nan
l2118;Grange;persons_birth;-27.42251;153.01527;nan
l2119;Maidstone;persons_birth;51.26667;0.51667;british_isles
l2120;d Edinburgh active service Third Maratha War 1817-18;persons_birth;;;nan
l2121;b Llanbadarn;persons_birth;;;nan
l2122;midshipman HMS Monmouth;persons_birth;;;nan
l2123;ap Rhayader;persons_birth;;;nan
l2124;North Crescent;persons_birth;;;nan
l2125;& hep St ives;persons_birth;;;nan
l2126;Shorwell;persons_birth;;;nan
l2127;presented as 4th mate LORD MACARTNEY 1795/6;persons_birth;;;nan
l2128;Newport;persons_birth;52.76684;-2.37734;british_isles
l2129;Swansea;persons_birth;51.62079;-3.94323;british_isles
l2130;4th mate HUGH INGLIS 1809/10 (approved 1810;persons_birth;;;nan
l2131;im England;persons_birth;;;nan
l2132;pa St Michael's Cornhill;persons_birth;;;nan
l2134;Ulverston;persons_birth;54.19594;-3.09626;british_isles
l2135;Bardsea;persons_birth;;;nan
l2136;ap Donagh;persons_birth;;;nan
l2137;Sileby;persons_birth;52.73286;-1.10773;british_isles
l2138;Madras Asst Surgeon;persons_birth;;;nan
l2139;4th mate VANSITTART 1772/3 (approved 1773;persons_birth;;;nan
l2140;Bengal Supernumerary Surgeon;persons_birth;;;nan
l2141;Harwood;persons_birth;;;nan
l2142;Burntisland;persons_birth;56.05865;-3.23664;british_isles
l2143;Hammersmith;persons_birth;51.49384;-0.22882;british_isles
l2144;y & tap episcopal Chapel;persons_birth;;;nan
l2145;Dingwall;persons_birth;57.59531;-4.42721;british_isles
l2146;Seo & tap St Colas;persons_birth;;;nan
l2147;Whitekirk;persons_birth;;;nan
l2148;Macias Asst Sunysem Noy 1782;persons_birth;;;nan
l2149;Eastbourne;persons_birth;50.76871;0.28453;british_isles
l2150;d LE Si Mathew's Pricey St;persons_birth;;;nan
l2151;d b Barnstaple;persons_birth;;;nan
l2152;Cape ASTELL 1823/4 & 1826/7 ‘ewin;persons_birth;;;nan
l2153;Folkestone;persons_birth;51.08169;1.16734;british_isles
l2154;4th mate RHODA 1757/8;persons_birth;;;nan
l2155;Newburgh;persons_birth;56.35079;-3.2365;british_isles
l2156;Carnwath;persons_birth;55.70036;-3.62579;british_isles
l2157;Clackmannan;persons_birth;56.10743;-3.75098;british_isles
l2158;British garrison of New York;persons_birth;;;nan
l2159;captured by French off Benkulen 794;persons_birth;;;nan
l2160;run Lyons;persons_birth;;;nan
l2161;Bengal Surgeon;persons_birth;;;nan
l2162;cl1554 Basingstoke;persons_birth;;;nan
l2163;Hunsdon;persons_birth;;;nan
l2164;North Leith;persons_birth;;;nan
l2165;1795;persons_birth;;;nan
l2166;'b Beonsteple;persons_birth;;;nan
l2167;Thorley;persons_birth;;;nan
l2168;4th mate PIGOT (2) 1792/3 (approved 1793;persons_birth;;;nan
l2169;Inch;persons_birth;;;nan
l2170;1st mate DEVONSHIRE (2) 1771/2 (approved 1772;persons_birth;;;nan
l2171;m South Mims;persons_birth;;;nan
l2172;Llanereth Mead;persons_birth;;;nan
l2173;Cramond;persons_birth;;;nan
l2174;ap St John's;persons_birth;;;nan
l2175;purser BOMBAY CASTLE (2) 1804/5;persons_birth;;;nan
l2176;ret;persons_birth;;;nan
l2177;6th mate COUTTS 1813/4;persons_birth;;;nan
l2178;Markhal;persons_birth;;;nan
l2179;Kelmelir;persons_birth;;;nan
l2180;Inveraray;persons_birth;;;nan
l2181;Killea;persons_birth;;;nan
l2182;Dalrymple;persons_birth;55.39757;-4.59169;british_isles
l2183;Ardwally;persons_birth;;;nan
l2184;d19 Fsb ig;persons_birth;;;nan
l2185;Ll South Bnd;persons_birth;;;nan
l2186;Whitehorn;persons_birth;;;nan
l2187;Kirkgunzion;persons_birth;;;nan
l2188;4b mate COUMLING 1808/3;persons_birth;;;nan
l2190;Glenluce;persons_birth;;;nan
l2191;1805;persons_birth;;;nan
l2192;d L761 Cape;persons_birth;;;nan
l2193;4th mate HECTOR (3) 1775/6 (approved 1776;persons_birth;;;nan
l2194;Capt CHARLES GRANT 1/2 oe jut Presents;persons_birth;;;nan
l2196;Cullen;persons_birth;57.69045;-2.81818;british_isles
l2197;Dorking;persons_birth;51.23228;-0.3338;british_isles
l2198;ap Totnes;persons_birth;;;nan
l2199;Sap Reb St Dansten's;persons_birth;;;nan
l2200;Leuchars;persons_birth;56.38174;-2.88253;british_isles
l2201;resigned 1771;persons_birth;;;nan
l2202;Penningham;persons_birth;;;nan
l2203;or Drummagh;persons_birth;;;nan
l2204;Canonbie;persons_birth;;;nan
l2205;Islington;persons_birth;51.53622;-0.10304;british_isles
l2206;1G Aberdloons MRCS;persons_birth;;;nan
l2207;Upper Borlunce;persons_birth;;;nan
l2208;approved as 3rd mate LORD MACARTNEY 1782;persons_birth;;;nan
l2209;ur Dittisham;persons_birth;;;nan
l2210;ap Bavarian Chapel;persons_birth;;;nan
l2211;Bratton;persons_birth;51.27056;-2.12444;british_isles
l2212;Twyford;persons_birth;51.47518;-0.86037;british_isles
l2213;pa St Benet's;persons_birth;;;nan
l2214;St Paul's pa;persons_birth;;;nan
l2215;Kilfinan;persons_birth;;;nan
l2216;Dollerie;persons_birth;;;nan
l2217;Dee Kelins;persons_birth;;;nan
l2218;ap St George's;persons_birth;;;nan
l2219;Anworth;persons_birth;;;nan
